~Version Information
 VERS.                2.0:  CWLS LOG ASCII STANDARD -VERSION 2.0
 WRAP.                 NO:  ONE LINE PER DEPTH STEP
~WELL INFORMATION BLOCK
#MNEM.UNIT       DATA		            DESCRIPTION OF MNEMONIC
#---------    -------------            ------------------------
 STRT.FT  -2.000                         :START DEPTH
 STOP.FT  1322.400                       :STOP DEPTH
 STEP.FT  0.200                          :STEP    UP_HOLE  
 NULL.    -999.25                        :NULL VALUE
 COMP.    USGS                           :COMPANY
 WELL.    USGS 145                                                     :WELL
 FLD .    INL                            :FIELD\LOCATION
 LOC .                                   :LOCATION
 CNTY.    BUTTE                          :COUNTY
 STAT.    IDAHO                          :STATE
 CTRY.    USA                            :COUNTRY
 SRVC.    USGS                           :SERVICE COMPANY
 DATE.    07/16/2018                     :LOG DATE
 API .   CAL. 2017                           :API NUMBER
 LIC .    USGS                           :LICENSE NUMBER
~Curve Information Block
#MNEM.UNIT      API CODE     Curve Description
#---------    -------------  ------------------------
 DEPT     .FT        00 001 00 00          :  1  DEPTH   
 GAMMA    .API-GR    00 310 00 00          :  2  GAMMA RAY           
 NEUTRON  .API-N     00 000 00 00          :  3  SINGLE NEUTRON      
 POR(NEU) .PERCENT   00 330 00 00          :  4  NEUTRON POROSITY    
~Parameter Information Block
#MNEM.UNIT   Information     Description
#---------- ---------------  ------------------------
 FILE.      PROCESSED          :File Type
 FIID.      9057A              :File Type Identifier
 VERS.      3.60E              :System Version
 SER .      1                  :System Serial Number
 TRUK.      0.25               :Truck Calibration Number
 TOOL.        1077             :Tool Serial Number
 TIME.      1254               :Time    HrHrMinMin
 LAT .                         :Latitude
 LON .                         :Longitude
 LMF .      LSD                :Log Measured From
 DMF .      LSD                :Driller Measured From
 PD  .                         :Permanent Data
 PDEV.FT                       :Elevation Permanent Data
 EKB .FT                       :Elevation Kelly Bushing
 ELEV.FT                       :Elevation DF
 EGL .FT                       :Elevation Ground Level
 DRDP.FT    1368               :Driller's Depth
 CASD.FT    10.                :Casing Diameter
 CASB.FT    1328               :Casing Bottom
 CASX.      SURFACE            :Casing Type
 CAST.IN    .25                :Casing Thickness
 TNOC.                         :Time Circulation Stopped
 LOGU.      USGS               :Logging Unit
 RECB.      MJG                :Recorded By
 OSR1.      9095               :Other Services
 OSR2.       0024              :Other Services
 OSR3.                         :Other Services
 BS  .IN         3.9           :Bit Size
 MST .F     SH                 :Mean Surface Temperature
 TGRD.F                        :Temperature Gradiant
 MAGN.      0                  :Magnetic Declination
 MDEN.      2.65               :Density Matrix
 MATR.      SANDSTONE          :Neutron Matrix
 DTMT.      54                 :Delta T Matrix
 DTFL.                         :Delta T Fluid
 MUDS.      FLOW LINE          :Mud Sample Source
 MRS .      .179               :Mud Resistivity
 MTP .      68.5               :Mud Temperature
 MFRS.                         :Resistivity Mud Filtrate
 MFTP.                         :Temperature Mud Filtrate
 MCRS.                         :Resistivity Mud Cake
 MCTP.                         :Temperature Mud Cake
 FTYP.      AIR                :Fluid Type
 FD  .LB/G    NA               :Mud Weight
 DFV .S                        :Fluid Viscosity
 FPH .                         :Fuild PH
 ELCO.      99999              :Electron Cutoff
 CASL.IN    3.5                :Casing Logger
 LOTD.FT    1328               :Logger TD
 ARTM.      12:20              :Arrival Time
 DPTM.                         :Departure Time
 RIGN.                         :Rig Number
~Other Information
#MNEM.UNIT  Information      Description
#---------- ---------------  ------------------------
# -------------------------- 
~A DEPTH  GAMMA    NEUTRON  POR(NEU) 
# ...
1179.600    110.0    262.5  100.0    
1179.800    110.0    343.0  100.0    
1180.000    108.8    275.2  100.0    
1180.200     80.5    249.8  100.0    
1180.400    102.6    248.4  100.0    
1180.600    110.0    313.3  100.0    
1180.800    117.4    343.0  100.0    
1181.000    102.6    232.9  100.0    
1181.200    121.1    313.3  100.0    
1181.400     98.9    287.9  100.0    
1181.600    113.7    313.3  100.0    
1181.800     87.9    326.0  100.0    
1182.000    121.1    282.3  100.0    
1182.200    106.3    372.6  100.0    
1182.400    113.7    321.8  100.0    
1182.600    117.4    343.0  100.0    
1182.800     89.1    287.9  100.0    
1183.000    132.2    436.1  82.7     
1183.200    110.0    410.7  93.4     
1183.400    102.6    304.9  100.0    
1183.600    132.2    402.3  96.9     
1183.800    106.3    338.8  100.0    
1184.000    139.6    359.9  100.0    
1184.200    113.7    351.5  100.0    
1184.400     65.7    326.0  100.0    
1184.600    113.7    330.3  100.0    
1184.800    132.2    361.3  100.0    
1185.000    121.1    440.4  80.9     
1185.200    106.3    351.5  100.0    
1185.400    113.7    283.7  100.0    
1185.600    148.2    368.4  100.0    
1185.800    102.6    359.9  100.0    
1186.000    110.0    347.2  100.0    
1186.200     95.3    383.9  100.0    
1186.400     65.7    440.4  80.9     
1186.600    113.7    398.0  98.7     
1186.800    110.0    381.1  100.0    
1187.000     94.0    406.5  95.2     
1187.200     98.9    359.9  100.0    
1187.400    113.7    398.0  98.7     
1187.600     76.8    389.6  100.0    
1187.800    117.4    487.0  67.0     
1188.000     84.2    419.2  89.8     
1188.200    132.2    359.9  100.0    
1188.400    113.7    334.5  100.0    
1188.600    124.8    385.3  100.0    
1188.800     87.9    385.3  100.0    
1189.000    113.7    378.3  100.0    
1189.200    135.9    258.3  100.0    
1189.400    150.6    343.0  100.0    
1189.600    132.2    271.0  100.0    
1189.800     98.9    296.4  100.0    
1190.000    117.4    296.4  100.0    
1190.200    143.2    313.3  100.0    
1190.400    154.3    333.1  100.0    
1190.600    161.7    330.3  100.0    
1190.800     65.7    287.9  100.0    
1191.000    194.9    292.2  100.0    
1191.200    103.9    313.3  100.0    
1191.400     98.9    330.3  100.0    
1191.600     76.8    368.4  100.0    
1191.800     98.9    372.6  100.0    
1192.000    154.3    343.0  100.0    
1192.200    124.8    326.0  100.0    
1192.400    132.2    347.2  100.0    
1192.600    103.9    347.2  100.0    
1192.800     98.9    410.7  93.4     
1193.000    139.6    402.3  96.9     
1193.200    150.6    287.9  100.0    
1193.400    117.4    389.6  100.0    
1193.600    128.5    351.5  100.0    
1193.800     91.6    359.9  100.0    
1194.000    177.7    313.3  100.0    
1194.200     98.9    376.9  100.0    
1194.400    121.1    326.0  100.0    
1194.600     87.9    383.9  100.0    
1194.800    106.3    427.7  86.2     
1195.000     65.7    364.2  100.0    
1195.200    102.6    359.9  100.0    
1195.400    113.7    338.8  100.0    
1195.600     87.9    321.8  100.0    
1195.800    110.0    326.0  100.0    
1196.000    113.7    299.2  100.0    
1196.200     98.9    338.8  100.0    
1196.400    158.0    406.5  95.2     
1196.600    132.2    309.1  100.0    
1196.800    153.1    338.8  100.0    
1197.000    124.8    283.7  100.0    
1197.200    169.1    330.3  100.0    
1197.400    154.3    333.1  100.0    
1197.600    110.0    283.7  100.0    
1197.800    150.6    372.6  100.0    
1198.000    117.4    283.7  100.0    
1198.200    103.9    343.0  100.0    
1198.400    132.2    368.4  100.0    
1198.600     95.3    359.9  100.0    
1198.800     65.7    265.4  100.0    
1199.000    128.5    359.9  100.0    
1199.200     84.2    300.6  100.0    
1199.400    143.2    283.7  100.0    
1199.600     94.0    347.2  100.0    
1199.800    102.6    343.0  100.0    
1200.000     95.3    347.2  100.0    
1200.200     98.9    338.8  100.0    
1200.400    169.1    427.7  86.2     
1200.600    102.6    334.5  100.0    
1200.800     84.2    385.3  100.0    
1201.000     98.9    304.9  100.0    
1201.200    121.1    334.5  100.0    
1201.400     95.3    326.0  100.0    
1201.600     62.0    434.7  83.3     
1201.800     87.9    389.6  100.0    
1202.000    117.4    482.7  67.9     
1202.200    132.2    444.6  79.1     
1202.400    128.5    457.3  73.2     
1202.600     98.9    478.5  68.7     
1202.800    161.7    376.9  100.0    
1203.000    113.7    367.0  100.0    
1203.200     95.3    292.2  100.0    
1203.400     91.6    355.7  100.0    
1203.600    169.1    347.2  100.0    
1203.800    108.8    368.4  100.0    
1204.000    113.7    334.5  100.0    
1204.200    121.1    355.7  100.0    
1204.400     98.9    378.3  100.0    
1204.600    106.3    338.8  100.0    
1204.800     95.3    330.3  100.0    
1205.000     50.9    368.4  100.0    
1205.200    108.8    317.6  100.0    
1205.400    106.3    364.2  100.0    
1205.600     95.3    351.5  100.0    
1205.800    154.3    361.3  100.0    
1206.000    110.0    347.2  100.0    
1206.200     87.9    376.9  100.0    
1206.400     98.9    440.4  80.9     
1206.600    148.2    338.8  100.0    
1206.800    110.0    351.5  100.0    
1207.000     95.3    296.4  100.0    
1207.200    128.5    299.2  100.0    
1207.400     84.2    271.0  100.0    
1207.600     95.3    262.5  100.0    
1207.800     80.5    249.8  100.0    
1208.000     74.3    334.5  100.0    
1208.200    124.8    271.0  100.0    
1208.400     62.0    220.2  100.0    
1208.600    102.6    203.3  100.0    
1208.800    102.6    338.8  100.0    
1209.000     87.9    224.4  100.0    
1209.200    124.8    321.8  100.0    
1209.400    118.6    271.0  100.0    
1209.600    124.8    351.5  100.0    
1209.800    124.8    351.5  100.0    
1210.000     98.9    372.6  100.0    
1210.200     87.9    372.6  100.0    
1210.400     80.5    347.2  100.0    
1210.600    102.6    334.5  100.0    
1210.800    110.0    283.7  100.0    
1211.000    108.8    351.5  100.0    
1211.200    106.3    381.1  100.0    
1211.400     87.9    446.0  78.4     
1211.600    154.3    364.2  100.0    
1211.800     98.9    406.5  95.2     
1212.000    154.3    436.1  82.7     
1212.200    117.4    402.3  96.9     
1212.400    118.6    457.3  73.2     
1212.600    121.1    372.6  100.0    
1212.800    180.2    485.5  67.3     
1213.000    139.6    508.1  63.7     
1213.200    150.6    457.3  73.2     
1213.400    124.8    436.1  82.7     
1213.600    146.9    529.3  61.4     
1213.800    172.8    503.9  64.2     
1214.000    117.4    474.3  69.6     
1214.200     87.9    604.1  54.0     
1214.400    102.6    453.1  75.3     
1214.600    135.9    495.4  65.1     
1214.800    113.7    499.7  64.6     
1215.000    128.5    487.0  67.0     
1215.200    113.7    402.3  96.9     
1215.400    113.7    402.3  96.9     
1215.600     73.1    434.7  83.3     
1215.800    124.8    419.2  89.8     
1216.000    135.9    482.7  67.9     
1216.200     80.5    355.7  100.0    
1216.400    121.1    427.7  86.2     
1216.600    133.4    402.3  96.9     
1216.800     58.3    444.6  79.1     
1217.000    128.5    474.3  69.6     
1217.200    139.6    429.1  85.6     
1217.400    106.3    478.5  68.7     
1217.600    158.0    465.8  71.4     
1217.800     87.9    478.5  68.7     
1218.000    113.7    461.5  72.3     
1218.200    110.0    381.1  100.0    
1218.400     91.6    436.1  82.7     
1218.600    106.3    502.5  64.3     
1218.800     98.9    461.5  72.3     
1219.000    135.9    389.6  100.0    
1219.200    154.3    457.3  73.2     
1219.400     80.5    427.7  86.2     
1219.600    138.3    444.6  79.1     
1219.800     65.7    499.7  64.6     
1220.000     95.3    429.1  85.6     
1220.200    110.0    406.5  95.2     
1220.400    135.9    359.9  100.0    
1220.600    146.9    415.0  91.6     
1220.800    110.0    364.2  100.0    
1221.000     74.3    423.4  88.0     
1221.200    128.5    389.6  100.0    
1221.400    139.6    429.1  85.6     
1221.600     76.8    309.1  100.0    
