~Version Information
 VERS.                2.0:  CWLS LOG ASCII STANDARD -VERSION 2.0
 WRAP.                 NO:  ONE LINE PER DEPTH STEP
~WELL INFORMATION BLOCK
#MNEM.UNIT       DATA		            DESCRIPTION OF MNEMONIC
#---------    -------------            ------------------------
 STRT.FT  -2.000                         :START DEPTH
 STOP.FT  1322.400                       :STOP DEPTH
 STEP.FT  0.200                          :STEP    UP_HOLE  
 NULL.    -999.25                        :NULL VALUE
 COMP.    USGS                           :COMPANY
 WELL.    USGS 145                                                     :WELL
 FLD .    INL                            :FIELD\LOCATION
 LOC .                                   :LOCATION
 CNTY.    BUTTE                          :COUNTY
 STAT.    IDAHO                          :STATE
 CTRY.    USA                            :COUNTRY
 SRVC.    USGS                           :SERVICE COMPANY
 DATE.    07/16/2018                     :LOG DATE
 API .   CAL. 2017                           :API NUMBER
 LIC .    USGS                           :LICENSE NUMBER
~Curve Information Block
#MNEM.UNIT      API CODE     Curve Description
#---------    -------------  ------------------------
 DEPT     .FT        00 001 00 00          :  1  DEPTH   
 GAMMA    .API-GR    00 310 00 00          :  2  GAMMA RAY           
 NEUTRON  .API-N     00 000 00 00          :  3  SINGLE NEUTRON      
 POR(NEU) .PERCENT   00 330 00 00          :  4  NEUTRON POROSITY    
~Parameter Information Block
#MNEM.UNIT   Information     Description
#---------- ---------------  ------------------------
 FILE.      PROCESSED          :File Type
 FIID.      9057A              :File Type Identifier
 VERS.      3.60E              :System Version
 SER .      1                  :System Serial Number
 TRUK.      0.25               :Truck Calibration Number
 TOOL.        1077             :Tool Serial Number
 TIME.      1254               :Time    HrHrMinMin
 LAT .                         :Latitude
 LON .                         :Longitude
 LMF .      LSD                :Log Measured From
 DMF .      LSD                :Driller Measured From
 PD  .                         :Permanent Data
 PDEV.FT                       :Elevation Permanent Data
 EKB .FT                       :Elevation Kelly Bushing
 ELEV.FT                       :Elevation DF
 EGL .FT                       :Elevation Ground Level
 DRDP.FT    1368               :Driller's Depth
 CASD.FT    10.                :Casing Diameter
 CASB.FT    1328               :Casing Bottom
 CASX.      SURFACE            :Casing Type
 CAST.IN    .25                :Casing Thickness
 TNOC.                         :Time Circulation Stopped
 LOGU.      USGS               :Logging Unit
 RECB.      MJG                :Recorded By
 OSR1.      9095               :Other Services
 OSR2.       0024              :Other Services
 OSR3.                         :Other Services
 BS  .IN         3.9           :Bit Size
 MST .F     SH                 :Mean Surface Temperature
 TGRD.F                        :Temperature Gradiant
 MAGN.      0                  :Magnetic Declination
 MDEN.      2.65               :Density Matrix
 MATR.      SANDSTONE          :Neutron Matrix
 DTMT.      54                 :Delta T Matrix
 DTFL.                         :Delta T Fluid
 MUDS.      FLOW LINE          :Mud Sample Source
 MRS .      .179               :Mud Resistivity
 MTP .      68.5               :Mud Temperature
 MFRS.                         :Resistivity Mud Filtrate
 MFTP.                         :Temperature Mud Filtrate
 MCRS.                         :Resistivity Mud Cake
 MCTP.                         :Temperature Mud Cake
 FTYP.      AIR                :Fluid Type
 FD  .LB/G    NA               :Mud Weight
 DFV .S                        :Fluid Viscosity
 FPH .                         :Fuild PH
 ELCO.      99999              :Electron Cutoff
 CASL.IN    3.5                :Casing Logger
 LOTD.FT    1328               :Logger TD
 ARTM.      12:20              :Arrival Time
 DPTM.                         :Departure Time
 RIGN.                         :Rig Number
~Other Information
#MNEM.UNIT  Information      Description
#---------- ---------------  ------------------------
# -------------------------- 
~A DEPTH  GAMMA    NEUTRON  POR(NEU) 
# ...
1010.800     28.8    508.1  63.7     
1011.000     69.4    499.7  64.6     
1011.200     50.9    601.3  54.1     
1011.400     58.3    550.5  59.1     
1011.600     43.6    758.0  44.3     
1011.800     44.8    739.6  45.2     
1012.000     36.2    796.1  42.6     
1012.200      3.0    825.7  41.3     
1012.400     21.4    745.3  44.9     
1012.600     32.5    791.8  42.8     
1012.800     32.5    783.4  43.2     
1013.000     14.0    889.2  38.7     
1013.200      5.4    993.7  35.0     
1013.400     10.3   1016.3  34.3     
1013.600     28.8    880.8  39.0     
1013.800     -4.4    851.1  40.1     
1014.000     21.4    834.2  40.9     
1014.200     14.0    711.4  47.0     
1014.400      3.0    694.4  48.1     
1014.600     54.6    605.5  53.9     
1014.800     20.2    626.7  52.5     
1015.000     62.0    525.1  61.9     
1015.200     69.4    503.9  64.2     
1015.400     47.3    453.1  75.3     
1015.600    117.4    448.8  77.2     
1015.800    117.4    431.9  84.5     
1016.000    139.6    453.1  75.3     
1016.200    150.6    427.7  86.2     
1016.400    103.9    451.7  75.9     
1016.600    110.0    389.6  100.0    
1016.800     98.9    427.7  86.2     
1017.000    110.0    402.3  96.9     
1017.200    113.7    436.1  82.7     
1017.400     95.3    389.6  100.0    
1017.600    110.0    317.6  100.0    
1017.800    128.5    359.9  100.0    
1018.000    103.9    327.5  100.0    
1018.200    146.9    393.8  100.5    
1018.400    117.4    364.2  100.0    
1018.600    102.6    372.6  100.0    
1018.800     98.9    389.6  100.0    
1019.000    106.3    330.3  100.0    
1019.200    113.7    402.3  96.9     
1019.400    118.6    423.4  88.0     
1019.600    135.9    453.1  75.3     
1019.800    135.9    423.4  88.0     
1020.000    128.5    440.4  80.9     
1020.200    158.0    402.3  96.9     
1020.400    146.9    440.4  80.9     
1020.600     73.1    499.7  64.6     
1020.800    128.5    542.0  60.0     
1021.000    102.6    491.2  66.1     
1021.200    113.7    508.1  63.7     
1021.400    139.6    537.8  60.5     
1021.600    110.0    516.6  62.8     
1021.800     87.9    575.9  56.3     
1022.000    102.6    537.8  60.5     
1022.200     80.5    554.7  58.6     
1022.400     47.3    508.1  63.7     
1022.600     59.6    536.4  60.6     
1022.800     28.8    597.0  54.4     
1023.000      3.0    550.5  59.1     
1023.200     32.5    588.6  55.0     
1023.400     14.0    457.3  73.2     
1023.600      6.6    542.0  60.0     
1023.800     17.7    499.7  64.6     
1024.000     25.1    605.5  53.9     
1024.200     15.3    581.5  55.7     
1024.400     21.4    673.3  49.5     
1024.600     50.9    656.3  50.6     
1024.800     32.5    597.0  54.4     
1025.000     39.9    643.6  51.4     
1025.200     25.1    677.5  49.2     
1025.400     -4.4    673.3  49.5     
1025.600     10.3    728.3  46.0     
1025.800     10.3    808.8  42.0     
1026.000      3.0    707.1  47.3     
1026.200     36.2    635.2  52.0     
1026.400     25.1    821.5  41.5     
1026.600      6.6    626.7  52.5     
1026.800     14.0    719.8  46.5     
1027.000     10.3    766.4  43.9     
1027.200     10.3    774.9  43.6     
1027.400     -0.7    683.1  48.9     
1027.600     28.8    745.3  44.9     
1027.800     25.1    749.5  44.7     
1028.000     10.3    736.8  45.4     
1028.200     10.3    851.1  40.1     
1028.400     -4.4    779.1  43.4     
1028.600      6.6    940.0  36.9     
1028.800     20.2    807.4  42.1     
1029.000     25.1    876.5  39.2     
1029.200     14.0    791.8  42.8     
1029.400     -0.7    808.8  42.0     
1029.600     17.7    855.3  39.9     
1029.800     36.2    978.1  35.5     
1030.000     14.0    918.9  37.7     
1030.200     47.3    931.6  37.2     
1030.400     35.0    942.9  36.8     
1030.600     14.0    901.9  38.3     
1030.800     25.1    999.3  34.8     
1031.000     32.5    893.5  38.6     
1031.200     14.0    910.4  38.0     
1031.400     17.7    842.6  40.5     
1031.600      6.6    800.3  42.4     
1031.800     15.3    910.4  38.0     
1032.000      6.6    982.4  35.4     
1032.200     17.7    901.9  38.3     
1032.400     10.3    897.7  38.4     
1032.600      6.6    889.2  38.7     
1032.800     14.0    855.3  39.9     
1033.000     17.7    952.7  36.4     
1033.200     -0.7    952.7  36.4     
1033.400     15.3   1016.3  34.3     
1033.600     17.7    910.4  38.0     
1033.800     28.8    961.2  36.1     
1034.000     39.9    961.2  36.1     
1034.200     25.1    868.0  39.5     
1034.400     17.7    851.1  40.1     
1034.600      3.0    923.1  37.5     
1034.800     21.4    914.6  37.8     
1035.000     35.0    925.9  37.4     
1035.200     25.1    872.3  39.3     
1035.400     25.1    906.2  38.1     
1035.600     10.3    935.8  37.1     
1035.800      6.6   1012.0  34.5     
1036.000      6.6    923.1  37.5     
1036.200     10.3    859.6  39.8     
1036.400     14.0    863.8  39.6     
1036.600      0.5    863.8  39.6     
1036.800      6.6    804.5  42.2     
1037.000      3.0    918.9  37.7     
1037.200     28.8   1007.8  34.6     
1037.400     -0.7    783.4  43.2     
1037.600     10.3    834.2  40.9     
1037.800      3.0    813.0  41.8     
1038.000      6.6    954.1  36.4     
1038.200     15.3    834.2  40.9     
1038.400     17.7    762.2  44.1     
1038.600     36.2    770.7  43.8     
1038.800     -0.7    715.6  46.8     
1039.000     17.7    800.3  42.4     
1039.200     10.3    728.3  46.0     
1039.400     36.2    842.6  40.5     
1039.600     25.1    858.2  39.8     
1039.800     14.0    753.7  44.5     
1040.000     17.7    762.2  44.1     
1040.200      6.6    804.5  42.2     
1040.400     28.8    876.5  39.2     
1040.600     10.3    825.7  41.3     
1040.800     -4.4    817.2  41.6     
1041.000     36.2    872.3  39.3     
1041.200     25.1    875.1  39.2     
1041.400     25.1    846.9  40.3     
1041.600     25.1    770.7  43.8     
1041.800     10.3    800.3  42.4     
1042.000     17.7    901.9  38.3     
1042.200     28.8    817.2  41.6     
1042.400     14.0    868.0  39.5     
1042.600     10.3   1007.8  34.6     
1042.800      0.5    920.3  37.6     
1043.000     21.4    834.2  40.9     
1043.200     32.5    885.0  38.9     
1043.400      6.6    872.3  39.3     
1043.600     10.3   1029.0  34.0     
1043.800     -4.4   1012.0  34.5     
1044.000     25.1    969.7  35.8     
1044.200      0.5   1067.1  32.9     
1044.400     36.2    925.9  37.4     
1044.600     25.1    931.6  37.2     
1044.800     10.3    893.5  38.6     
1045.000     17.7    834.2  40.9     
1045.200     10.3   1029.0  34.0     
1045.400      3.0    990.8  35.1     
1045.600     43.6    961.2  36.1     
1045.800      0.5    999.3  34.8     
1046.000     32.5    940.0  36.9     
1046.200     25.1    897.7  38.4     
1046.400      6.6   1033.2  33.8     
1046.600      6.6   1041.7  33.6     
1046.800     25.1   1240.7  28.5     
1047.000     32.5   1206.8  29.2     
1047.200     32.5   1621.8  21.4     
1047.400     35.0   1388.9  25.4     
1047.600     14.0   1520.1  23.1     
1047.800     28.8   1630.2  21.3     
1048.000      6.6   1549.8  22.6     
1048.200     21.4   1511.7  23.3     
1048.400     21.4   1558.3  22.5     
1048.600     14.0   1359.2  26.1     
1048.800     25.1   1321.1  26.8     
1049.000     10.3   1287.3  27.5     
1049.200     28.8   1223.7  28.8     
1049.400     17.7   1160.2  30.2     
1049.600      6.6   1041.7  33.6     
1049.800     10.3   1270.3  27.9     
1050.000     14.0   1130.6  31.0     
1050.200      3.0    986.6  35.2     
1050.400      5.4   1067.1  32.9     
1050.600     21.4    944.3  36.7     
1050.800     36.2    973.9  35.7     
1051.000     17.7    986.6  35.2     
1051.200     17.7    897.7  38.4     
1051.400     10.3    914.6  37.8     
1051.600     25.1    855.3  39.9     
1051.800     20.2   1079.8  32.5     
1052.000     17.7    925.9  37.4     
1052.200      3.0   1041.7  33.6     
1052.400      6.6   1105.2  31.8     
1052.600     17.7   1033.2  33.8     
1052.800     21.4    957.0  36.3     
