~Version Information
 VERS.                2.0:  CWLS LOG ASCII STANDARD -VERSION 2.0
 WRAP.                 NO:  ONE LINE PER DEPTH STEP
~WELL INFORMATION BLOCK
#MNEM.UNIT       DATA		            DESCRIPTION OF MNEMONIC
#---------    -------------            ------------------------
 STRT.FT  -2.000                         :START DEPTH
 STOP.FT  1322.400                       :STOP DEPTH
 STEP.FT  0.200                          :STEP    UP_HOLE  
 NULL.    -999.25                        :NULL VALUE
 COMP.    USGS                           :COMPANY
 WELL.    USGS 145                                                     :WELL
 FLD .    INL                            :FIELD\LOCATION
 LOC .                                   :LOCATION
 CNTY.    BUTTE                          :COUNTY
 STAT.    IDAHO                          :STATE
 CTRY.    USA                            :COUNTRY
 SRVC.    USGS                           :SERVICE COMPANY
 DATE.    07/16/2018                     :LOG DATE
 API .   CAL. 2017                           :API NUMBER
 LIC .    USGS                           :LICENSE NUMBER
~Curve Information Block
#MNEM.UNIT      API CODE     Curve Description
#---------    -------------  ------------------------
 DEPT     .FT        00 001 00 00          :  1  DEPTH   
 GAMMA    .API-GR    00 310 00 00          :  2  GAMMA RAY           
 NEUTRON  .API-N     00 000 00 00          :  3  SINGLE NEUTRON      
 POR(NEU) .PERCENT   00 330 00 00          :  4  NEUTRON POROSITY    
~Parameter Information Block
#MNEM.UNIT   Information     Description
#---------- ---------------  ------------------------
 FILE.      PROCESSED          :File Type
 FIID.      9057A              :File Type Identifier
 VERS.      3.60E              :System Version
 SER .      1                  :System Serial Number
 TRUK.      0.25               :Truck Calibration Number
 TOOL.        1077             :Tool Serial Number
 TIME.      1254               :Time    HrHrMinMin
 LAT .                         :Latitude
 LON .                         :Longitude
 LMF .      LSD                :Log Measured From
 DMF .      LSD                :Driller Measured From
 PD  .                         :Permanent Data
 PDEV.FT                       :Elevation Permanent Data
 EKB .FT                       :Elevation Kelly Bushing
 ELEV.FT                       :Elevation DF
 EGL .FT                       :Elevation Ground Level
 DRDP.FT    1368               :Driller's Depth
 CASD.FT    10.                :Casing Diameter
 CASB.FT    1328               :Casing Bottom
 CASX.      SURFACE            :Casing Type
 CAST.IN    .25                :Casing Thickness
 TNOC.                         :Time Circulation Stopped
 LOGU.      USGS               :Logging Unit
 RECB.      MJG                :Recorded By
 OSR1.      9095               :Other Services
 OSR2.       0024              :Other Services
 OSR3.                         :Other Services
 BS  .IN         3.9           :Bit Size
 MST .F     SH                 :Mean Surface Temperature
 TGRD.F                        :Temperature Gradiant
 MAGN.      0                  :Magnetic Declination
 MDEN.      2.65               :Density Matrix
 MATR.      SANDSTONE          :Neutron Matrix
 DTMT.      54                 :Delta T Matrix
 DTFL.                         :Delta T Fluid
 MUDS.      FLOW LINE          :Mud Sample Source
 MRS .      .179               :Mud Resistivity
 MTP .      68.5               :Mud Temperature
 MFRS.                         :Resistivity Mud Filtrate
 MFTP.                         :Temperature Mud Filtrate
 MCRS.                         :Resistivity Mud Cake
 MCTP.                         :Temperature Mud Cake
 FTYP.      AIR                :Fluid Type
 FD  .LB/G    NA               :Mud Weight
 DFV .S                        :Fluid Viscosity
 FPH .                         :Fuild PH
 ELCO.      99999              :Electron Cutoff
 CASL.IN    3.5                :Casing Logger
 LOTD.FT    1328               :Logger TD
 ARTM.      12:20              :Arrival Time
 DPTM.                         :Departure Time
 RIGN.                         :Rig Number
~Other Information
#MNEM.UNIT  Information      Description
#---------- ---------------  ------------------------
# -------------------------- 
~A DEPTH  GAMMA    NEUTRON  POR(NEU) 
# ...
 842.000     14.0    575.9  56.3     
 842.200     21.4    592.8  54.7     
 842.400     -4.4    584.3  55.4     
 842.600     10.3    598.5  54.3     
 842.800      0.5    614.0  53.3     
 843.000     10.3    719.8  46.5     
 843.200     -4.4    711.4  47.0     
 843.400     17.7    700.1  47.8     
 843.600      5.4    575.9  56.3     
 843.800     25.1    529.3  61.4     
 844.000      6.6    571.6  56.8     
 844.200      6.6    622.5  52.8     
 844.400     10.3    598.5  54.3     
 844.600     21.4    533.5  60.9     
 844.800     17.7    537.8  60.5     
 845.000     14.0    542.0  60.0     
 845.200     28.8    513.8  63.1     
 845.400     20.2    652.1  50.9     
 845.600      6.6    542.0  60.0     
 845.800     14.0    601.3  54.1     
 846.000     21.4    512.4  63.2     
 846.200     54.6    519.4  62.5     
 846.400     25.1    520.8  62.3     
 846.600     -0.7    622.5  52.8     
 846.800      6.6    478.5  68.7     
 847.000     10.3    605.5  53.9     
 847.200      0.5    592.8  54.7     
 847.400      6.6    639.4  51.7     
 847.600     25.1    660.6  50.3     
 847.800     17.7    745.3  44.9     
 848.000     30.0    722.7  46.3     
 848.200     10.3    787.6  43.0     
 848.400      6.6    897.7  38.4     
 848.600      3.0    893.5  38.6     
 848.800     17.7    969.7  35.8     
 849.000     30.0    835.6  40.8     
 849.200     10.3    906.2  38.1     
 849.400     -4.4    957.0  36.3     
 849.600      3.0    965.4  36.0     
 849.800     -8.1   1061.4  33.0     
 850.000      5.4   1020.5  34.2     
 850.200     14.0    885.0  38.9     
 850.400      6.6    885.0  38.9     
 850.600     21.4    790.4  42.9     
 850.800     10.3    774.9  43.6     
 851.000     28.8    702.9  47.6     
 851.200     -4.4    779.1  43.4     
 851.400      3.0    647.9  51.1     
 851.600     10.3    700.1  47.8     
 851.800     10.3    567.4  57.2     
 852.000     10.3    482.7  67.9     
 852.200     14.0    520.8  62.3     
 852.400     14.0    547.6  59.4     
 852.600     -9.4    516.6  62.8     
 852.800     14.0    618.2  53.1     
 853.000     17.7    601.3  54.1     
 853.200     -8.1    660.6  50.3     
 853.400     10.3    734.0  45.6     
 853.600     -4.4    647.9  51.1     
 853.800      3.0    563.2  57.7     
 854.000      6.6    745.3  44.9     
 854.200      3.0    722.7  46.3     
 854.400     -4.4    686.0  48.7     
 854.600     21.4    724.1  46.2     
 854.800      3.0    732.5  45.7     
 855.000      6.6    745.3  44.9     
 855.200     14.0    745.3  44.9     
 855.400     -4.4    664.8  50.0     
 855.600      6.6    736.8  45.4     
 855.800     -0.7    698.7  47.9     
 856.000     -0.7    791.8  42.8     
 856.200     10.3    745.3  44.9     
 856.400      3.0    707.1  47.3     
 856.600     -8.1    817.2  41.6     
 856.800      6.6    817.2  41.6     
 857.000     25.1    739.6  45.2     
 857.200     -4.4    885.0  38.9     
 857.400     14.0    690.2  48.4     
 857.600     10.3    690.2  48.4     
 857.800     14.0    779.1  43.4     
 858.000    -14.3    909.0  38.0     
 858.200     14.0    758.0  44.3     
 858.400     14.0    825.7  41.3     
 858.600     -0.7    863.8  39.6     
 858.800     -4.4    982.4  35.4     
 859.000     -9.4    914.6  37.8     
 859.200     -4.4   1029.0  34.0     
 859.400      3.0    923.1  37.5     
 859.600     -0.7    957.0  36.3     
 859.800      3.0    909.0  38.0     
 860.000      5.4    931.6  37.2     
 860.200     17.7   1003.5  34.7     
 860.400      3.0   1012.0  34.5     
 860.600     28.8   1078.4  32.5     
 860.800      0.5   1092.5  32.1     
 861.000      3.0   1041.7  33.6     
 861.200     -4.4   1037.4  33.7     
 861.400      3.0    957.0  36.3     
 861.600    -15.5    971.1  35.8     
 861.800      0.5    897.7  38.4     
 862.000      6.6    868.0  39.5     
 862.200     -4.4   1041.7  33.6     
 862.400     -0.7    858.2  39.8     
 862.600      5.4    897.7  38.4     
 862.800    -11.8    876.5  39.2     
 863.000      6.6    829.9  41.1     
 863.200     25.1    779.1  43.4     
 863.400     14.0    677.5  49.2     
 863.600     10.3    774.9  43.6     
 863.800     14.0    749.5  44.7     
 864.000     25.1    774.9  43.6     
 864.200     -8.1    734.0  45.6     
 864.400     15.3    736.8  45.4     
 864.600     10.3    694.4  48.1     
 864.800     21.4    732.5  45.7     
 865.000      6.6    571.6  56.8     
 865.200     25.1    643.6  51.4     
 865.400     25.1    715.6  46.8     
 865.600      6.6    550.5  59.1     
 865.800      6.6    567.4  57.2     
 866.000      3.0    652.1  50.9     
 866.200     10.3    598.5  54.3     
 866.400      5.4    609.8  53.6     
 866.600      6.6    630.9  52.2     
 866.800     14.0    728.3  46.0     
 867.000     -4.4    666.2  50.0     
 867.200     15.3    804.5  42.2     
 867.400     -0.7    779.1  43.4     
 867.600      6.6    787.6  43.0     
 867.800     -0.7    914.6  37.8     
 868.000     -0.7    954.1  36.4     
 868.200     -4.4   1096.7  32.0     
 868.400     10.3    931.6  37.2     
 868.600      3.0    880.8  39.0     
 868.800     -0.7    875.1  39.2     
 869.000     -4.4    813.0  41.8     
 869.200     -4.4    758.0  44.3     
 869.400     28.8    732.5  45.7     
 869.600      3.0    618.2  53.1     
 869.800     25.1    688.8  48.5     
 870.000      0.5    702.9  47.6     
 870.200      3.0    686.0  48.7     
 870.400     17.7    724.1  46.2     
 870.600      3.0    581.5  55.7     
 870.800     21.4    749.5  44.7     
 871.000     -4.4    656.3  50.6     
 871.200     21.4    715.6  46.8     
 871.400     14.0    753.7  44.5     
 871.600     25.1    660.6  50.3     
 871.800     10.3    686.0  48.7     
 872.000     35.0    741.0  45.1     
 872.200      6.6    660.6  50.3     
 872.400      3.0    774.9  43.6     
 872.600     -8.1    717.0  46.7     
 872.800     20.2    681.7  49.0     
 873.000     10.3    753.7  44.5     
 873.200      6.6    690.2  48.4     
 873.400     32.5    767.8  43.9     
 873.600      3.0    825.7  41.3     
 873.800     15.3    571.6  56.8     
 874.000     10.3    779.1  43.4     
 874.200      6.6    762.2  44.1     
 874.400     -4.4    903.3  38.2     
 874.600     21.4    791.8  42.8     
 874.800      0.5    728.3  46.0     
 875.000     10.3    876.5  39.2     
 875.200     14.0    825.7  41.3     
 875.400     17.7    767.8  43.9     
 875.600     10.3    804.5  42.2     
 875.800     10.3    842.6  40.5     
 876.000     10.3    918.9  37.7     
 876.200     -8.1   1021.9  34.2     
 876.400      6.6    910.4  38.0     
 876.600     25.1   1084.0  32.4     
 876.800      3.0   1092.5  32.1     
 877.000     17.7   1130.6  31.0     
 877.200     10.3   1242.1  28.5     
 877.400     -0.7   1109.4  31.7     
 877.600     -4.4   1096.7  32.0     
 877.800     17.7   1113.6  31.5     
 878.000      3.0   1156.0  30.3     
 878.200     25.1   1264.7  28.0     
 878.400      5.4   1067.1  32.9     
 878.600      6.6   1100.9  31.9     
 878.800      3.0   1016.3  34.3     
 879.000     28.8    959.8  36.2     
 879.200     14.0   1067.1  32.9     
 879.400      5.4    876.5  39.2     
 879.600     25.1    973.9  35.7     
 879.800     -0.7   1029.0  34.0     
 880.000     14.0    959.8  36.2     
 880.200      6.6   1062.8  33.0     
 880.400     -4.4   1117.9  31.4     
 880.600     -0.7   1126.3  31.2     
 880.800     -0.7    995.1  34.9     
 881.000      3.0   1112.2  31.6     
 881.200      6.6   1100.9  31.9     
 881.400     10.3   1016.3  34.3     
 881.600     10.3   1088.2  32.3     
 881.800     10.3   1072.7  32.7     
 882.000     14.0   1172.9  29.9     
 882.200     -4.4   1050.1  33.4     
 882.400     -0.7   1058.6  33.1     
 882.600      3.0   1096.7  32.0     
 882.800     -0.7   1100.9  31.9     
 883.000     14.0   1147.5  30.6     
 883.200     15.3   1139.0  30.8     
 883.400      3.0   1177.2  29.8     
 883.600      6.6   1219.5  28.9     
 883.800     21.4   1067.1  32.9     
 884.000      0.5   1219.5  28.9     
