~Version Information
 VERS.                2.0:  CWLS LOG ASCII STANDARD -VERSION 2.0
 WRAP.                 NO:  ONE LINE PER DEPTH STEP
~WELL INFORMATION BLOCK
#MNEM.UNIT       DATA		            DESCRIPTION OF MNEMONIC
#---------    -------------            ------------------------
 STRT.FT  -2.000                         :START DEPTH
 STOP.FT  1322.400                       :STOP DEPTH
 STEP.FT  0.200                          :STEP    UP_HOLE  
 NULL.    -999.25                        :NULL VALUE
 COMP.    USGS                           :COMPANY
 WELL.    USGS 145                                                     :WELL
 FLD .    INL                            :FIELD\LOCATION
 LOC .                                   :LOCATION
 CNTY.    BUTTE                          :COUNTY
 STAT.    IDAHO                          :STATE
 CTRY.    USA                            :COUNTRY
 SRVC.    USGS                           :SERVICE COMPANY
 DATE.    07/16/2018                     :LOG DATE
 API .   CAL. 2017                           :API NUMBER
 LIC .    USGS                           :LICENSE NUMBER
~Curve Information Block
#MNEM.UNIT      API CODE     Curve Description
#---------    -------------  ------------------------
 DEPT     .FT        00 001 00 00          :  1  DEPTH   
 GAMMA    .API-GR    00 310 00 00          :  2  GAMMA RAY           
 NEUTRON  .API-N     00 000 00 00          :  3  SINGLE NEUTRON      
 POR(NEU) .PERCENT   00 330 00 00          :  4  NEUTRON POROSITY    
~Parameter Information Block
#MNEM.UNIT   Information     Description
#---------- ---------------  ------------------------
 FILE.      PROCESSED          :File Type
 FIID.      9057A              :File Type Identifier
 VERS.      3.60E              :System Version
 SER .      1                  :System Serial Number
 TRUK.      0.25               :Truck Calibration Number
 TOOL.        1077             :Tool Serial Number
 TIME.      1254               :Time    HrHrMinMin
 LAT .                         :Latitude
 LON .                         :Longitude
 LMF .      LSD                :Log Measured From
 DMF .      LSD                :Driller Measured From
 PD  .                         :Permanent Data
 PDEV.FT                       :Elevation Permanent Data
 EKB .FT                       :Elevation Kelly Bushing
 ELEV.FT                       :Elevation DF
 EGL .FT                       :Elevation Ground Level
 DRDP.FT    1368               :Driller's Depth
 CASD.FT    10.                :Casing Diameter
 CASB.FT    1328               :Casing Bottom
 CASX.      SURFACE            :Casing Type
 CAST.IN    .25                :Casing Thickness
 TNOC.                         :Time Circulation Stopped
 LOGU.      USGS               :Logging Unit
 RECB.      MJG                :Recorded By
 OSR1.      9095               :Other Services
 OSR2.       0024              :Other Services
 OSR3.                         :Other Services
 BS  .IN         3.9           :Bit Size
 MST .F     SH                 :Mean Surface Temperature
 TGRD.F                        :Temperature Gradiant
 MAGN.      0                  :Magnetic Declination
 MDEN.      2.65               :Density Matrix
 MATR.      SANDSTONE          :Neutron Matrix
 DTMT.      54                 :Delta T Matrix
 DTFL.                         :Delta T Fluid
 MUDS.      FLOW LINE          :Mud Sample Source
 MRS .      .179               :Mud Resistivity
 MTP .      68.5               :Mud Temperature
 MFRS.                         :Resistivity Mud Filtrate
 MFTP.                         :Temperature Mud Filtrate
 MCRS.                         :Resistivity Mud Cake
 MCTP.                         :Temperature Mud Cake
 FTYP.      AIR                :Fluid Type
 FD  .LB/G    NA               :Mud Weight
 DFV .S                        :Fluid Viscosity
 FPH .                         :Fuild PH
 ELCO.      99999              :Electron Cutoff
 CASL.IN    3.5                :Casing Logger
 LOTD.FT    1328               :Logger TD
 ARTM.      12:20              :Arrival Time
 DPTM.                         :Departure Time
 RIGN.                         :Rig Number
~Other Information
#MNEM.UNIT  Information      Description
#---------- ---------------  ------------------------
# -------------------------- 
~A DEPTH  GAMMA    NEUTRON  POR(NEU) 
# ...
 166.800     10.3   2553.3   9.2     
 167.000     10.3   2693.1   7.8     
 167.200     39.9   2597.1   8.7     
 167.400     15.3   2828.6   6.4     
 167.600     -4.4   2765.0   7.1     
 167.800     21.4   2731.2   7.4     
 168.000      5.4   2597.1   8.7     
 168.200     10.3   2455.9  10.2     
 168.400     21.4   2587.2   8.8     
 168.600     10.3   2870.9   6.0     
 168.800     17.7   2642.3   8.3     
 169.000     25.1   2705.8   7.6     
 169.200     21.4   2756.6   7.1     
 169.400     28.8   2718.5   7.5     
 169.600      5.4   2472.9  10.0     
 169.800     10.3   2697.3   7.7     
 170.000     28.8   2553.3   9.2     
 170.200     17.7   2527.9   9.4     
 170.400     20.2   2563.2   9.1     
 170.600     21.4   2430.5  10.5     
 170.800     21.4   2646.5   8.2     
 171.000     21.4   2659.2   8.1     
 171.200      5.4   2360.0  11.3     
 171.400     -0.7   2726.9   7.4     
 171.600      6.6   2629.5   8.4     
 171.800     17.7   2697.3   7.7     
 172.000     15.3   2670.5   8.0     
 172.200      6.6   2726.9   7.4     
 172.400      6.6   2646.5   8.2     
 172.600     21.4   2646.5   8.2     
 172.800     -9.4   2715.6   7.5     
 173.000     28.8   2447.5  10.3     
 173.200     10.3   2561.8   9.1     
 173.400     10.3   2570.3   9.0     
 173.600     25.1   2399.5  10.8     
 173.800     17.7   2197.6  13.3     
 174.000     36.2   2367.0  11.2     
 174.200      6.6   1959.1  16.3     
 174.400     20.2   2007.1  15.7     
 174.600     21.4   2223.0  13.0     
 174.800      3.0   1943.6  16.6     
 175.000     28.8   1913.9  17.0     
 175.200      5.4   1981.7  16.0     
 175.400     21.4   1998.6  15.8     
 175.600     -0.7   1884.3  17.4     
 175.800     20.2   1484.9  23.7     
 176.000     28.8   1842.0  18.0     
 176.200     17.7   1969.0  16.2     
 176.400     28.8   1943.6  16.6     
 176.600     15.3   2043.8  15.1     
 176.800     25.1   2218.8  13.0     
 177.000     28.8   2231.5  12.9     
 177.200     28.8   2121.4  14.2     
 177.400     -4.4   2201.9  13.2     
 177.600     17.7   2214.6  13.1     
 177.800     21.4   2371.3  11.2     
 178.000     28.8   2240.0  12.8     
 178.200     -4.4   2213.2  13.1     
 178.400      6.6   2168.0  13.6     
 178.600     36.2   2087.5  14.6     
 178.800     28.8   2328.9  11.7     
 179.000     20.2   2360.0  11.3     
 179.200     25.1   2282.3  12.3     
 179.400     17.7   2587.2   8.8     
 179.600     32.5   2612.6   8.6     
 179.800     44.8   2518.0   9.5     
 180.000     10.3   2396.7  10.9     
 180.200     14.0   2553.3   9.2     
 180.400     28.8   2680.4   7.9     
 180.600     -9.4   2647.9   8.2     
 180.800      3.0   2693.1   7.8     
 181.000     32.5   2494.0   9.8     
 181.200     14.0   2502.5   9.7     
 181.400     30.0   2461.6  10.1     
 181.600     32.5   2079.1  14.7     
 181.800     25.1   1837.7  18.1     
 182.000     43.6   1801.0  18.6     
 182.200     64.5   1676.8  20.5     
 182.400     39.9   1689.5  20.3     
 182.600     58.3   1727.6  19.7     
 182.800     62.0   1953.5  16.4     
 183.000     39.9   1994.4  15.8     
 183.200     69.4   2252.7  12.6     
 183.400     25.1   2252.7  12.6     
 183.600     21.4   2331.7  11.7     
 183.800     35.0   2460.2  10.1     
 184.000     21.4   2566.0   9.0     
 184.200     36.2   2536.4   9.3     
 184.400     21.4   2450.3  10.2     
 184.600      5.4   2633.8   8.4     
 184.800     14.0   2621.1   8.5     
 185.000     21.4   2532.2   9.4     
 185.200     47.3   2659.2   8.1     
 185.400     10.3   2726.9   7.4     
 185.600     21.4   2748.1   7.2     
 185.800     10.3   2828.6   6.4     
 186.000      3.0   2873.7   6.0     
 186.200      5.4   2997.9   4.8     
 186.400     -4.4   2798.9   6.7     
 186.600      3.0   2879.4   5.9     
 186.800     14.0   2591.4   8.8     
 187.000     25.1   2921.7   5.5     
 187.200     10.3   3006.4   4.7     
 187.400     17.7   3061.5   4.2     
 187.600     20.2   3127.8   3.6     
 187.800     17.7   3112.3   3.8     
 188.000     17.7   3120.7   3.7     
 188.200      3.0   3205.4   3.0     
 188.400     10.3   3268.9   2.4     
 188.600     -4.4   3125.0   3.7     
 188.800      6.6   3099.6   3.9     
 189.000     28.8   3184.3   3.1     
 189.200     20.2   3127.8   3.6     
 189.400     17.7   3053.0   4.3     
 189.600     39.9   3137.7   3.5     
 189.800     21.4   3264.7   2.4     
 190.000     -4.4   3156.0   3.4     
 190.200     32.5   3086.9   4.0     
 190.400     14.0   3095.3   3.9     
 190.600      6.6   3146.1   3.5     
 190.800     10.3   2913.3   5.6     
 191.000     25.1   3154.6   3.4     
 191.200     -4.4   3069.9   4.1     
 191.400     25.1   3197.0   3.0     
 191.600     20.2   2913.3   5.6     
 191.800     39.9   2887.8   5.8     
 192.000     21.4   2862.4   6.1     
 192.200     10.3   2786.2   6.8     
 192.400     10.3   2585.8   8.8     
 192.600     21.4   2511.0   9.6     
 192.800     -0.7   2163.8  13.7     
 193.000     47.3   2168.0  13.6     
 193.200     35.0   1953.5  16.4     
 193.400     25.1   1854.7  17.8     
 193.600     47.3   2041.0  15.2     
 193.800     21.4   2089.0  14.6     
 194.000     20.2   2121.4  14.2     
 194.200     54.6   1998.6  15.8     
 194.400     43.6   2184.9  13.4     
 194.600     50.9   2122.8  14.2     
 194.800     15.3   2028.3  15.4     
 195.000     28.8   1977.5  16.1     
 195.200     39.9   1880.1  17.5     
 195.400     47.3   2089.0  14.6     
 195.600     15.3   1867.4  17.7     
 195.800     28.8   1964.8  16.3     
 196.000     43.6   1909.7  17.1     
 196.200     17.7   1998.6  15.8     
 196.400     20.2   2083.3  14.6     
 196.600     25.1   2286.6  12.2     
 196.800     25.1   2451.7  10.2     
 197.000     58.3   2331.7  11.7     
 197.200     10.3   2384.0  11.0     
 197.400     25.1   2494.0   9.8     
 197.600     39.9   2578.7   8.9     
 197.800     21.4   2388.2  11.0     
 198.000     20.2   2498.3   9.7     
 198.200     21.4   2371.3  11.2     
 198.400     25.1   2371.3  11.2     
 198.600     10.3   2450.3  10.2     
 198.800      5.4   2405.1  10.8     
 199.000     10.3   2337.4  11.6     
 199.200     39.9   2413.6  10.7     
 199.400     28.8   2681.8   7.9     
 199.600     30.0   2642.3   8.3     
 199.800     25.1   2515.2   9.6     
 200.000     21.4   2900.5   5.7     
 200.200     17.7   2721.3   7.5     
 200.400     25.1   2807.4   6.6     
 200.600     25.1   2616.8   8.5     
 200.800     21.4   2837.0   6.3     
 201.000     -4.4   3026.2   4.5     
 201.200     20.2   2743.9   7.3     
 201.400      6.6   3048.8   4.3     
 201.600      3.0   2870.9   6.0     
 201.800      6.6   2800.3   6.7     
 202.000     10.3   2646.5   8.2     
 202.200      6.6   2765.0   7.1     
 202.400     25.1   2904.8   5.7     
 202.600      6.6   2721.3   7.5     
 202.800     25.1   2786.2   6.8     
 203.000     25.1   2837.0   6.3     
 203.200     10.3   2951.4   5.2     
 203.400      5.4   2631.0   8.4     
 203.600     10.3   2782.0   6.9     
 203.800     25.1   2769.3   7.0     
 204.000      6.6   2739.6   7.3     
 204.200     10.3   2890.7   5.8     
 204.400      6.6   2976.8   4.9     
 204.600     25.1   2760.8   7.1     
 204.800     14.0   2866.7   6.0     
 205.000     21.4   2676.1   7.9     
 205.200     -4.4   2926.0   5.4     
 205.400     39.9   2739.6   7.3     
 205.600      6.6   2718.5   7.5     
 205.800     10.3   2806.0   6.6     
 206.000      6.6   2883.6   5.9     
 206.200     28.8   2680.4   7.9     
 206.400      6.6   2794.7   6.8     
 206.600     15.3   2885.0   5.9     
 206.800     39.9   2722.7   7.5     
 207.000     32.5   2862.4   6.1     
 207.200     -0.7   2718.5   7.5     
 207.400     -4.4   2664.8   8.1     
 207.600     14.0   2815.9   6.5     
 207.800    -15.5   2697.3   7.7     
 208.000      3.0   2875.1   6.0     
 208.200     20.2   2851.1   6.2     
 208.400     21.4   2790.5   6.8     
 208.600     21.4   2676.1   7.9     
 208.800     14.0   2752.3   7.2     
