~Version Information
 VERS.                2.0:  CWLS LOG ASCII STANDARD -VERSION 2.0
 WRAP.                 NO:  ONE LINE PER DEPTH STEP
~WELL INFORMATION BLOCK
#MNEM.UNIT       DATA		            DESCRIPTION OF MNEMONIC
#---------    -------------            ------------------------
 STRT.FT  -2.000                         :START DEPTH
 STOP.FT  1322.400                       :STOP DEPTH
 STEP.FT  0.200                          :STEP    UP_HOLE  
 NULL.    -999.25                        :NULL VALUE
 COMP.    USGS                           :COMPANY
 WELL.    USGS 145                                                     :WELL
 FLD .    INL                            :FIELD\LOCATION
 LOC .                                   :LOCATION
 CNTY.    BUTTE                          :COUNTY
 STAT.    IDAHO                          :STATE
 CTRY.    USA                            :COUNTRY
 SRVC.    USGS                           :SERVICE COMPANY
 DATE.    07/16/2018                     :LOG DATE
 API .   CAL. 2017                           :API NUMBER
 LIC .    USGS                           :LICENSE NUMBER
~Curve Information Block
#MNEM.UNIT      API CODE     Curve Description
#---------    -------------  ------------------------
 DEPT     .FT        00 001 00 00          :  1  DEPTH   
 GAMMA    .API-GR    00 310 00 00          :  2  GAMMA RAY           
 NEUTRON  .API-N     00 000 00 00          :  3  SINGLE NEUTRON      
 POR(NEU) .PERCENT   00 330 00 00          :  4  NEUTRON POROSITY    
~Parameter Information Block
#MNEM.UNIT   Information     Description
#---------- ---------------  ------------------------
 FILE.      PROCESSED          :File Type
 FIID.      9057A              :File Type Identifier
 VERS.      3.60E              :System Version
 SER .      1                  :System Serial Number
 TRUK.      0.25               :Truck Calibration Number
 TOOL.        1077             :Tool Serial Number
 TIME.      1254               :Time    HrHrMinMin
 LAT .                         :Latitude
 LON .                         :Longitude
 LMF .      LSD                :Log Measured From
 DMF .      LSD                :Driller Measured From
 PD  .                         :Permanent Data
 PDEV.FT                       :Elevation Permanent Data
 EKB .FT                       :Elevation Kelly Bushing
 ELEV.FT                       :Elevation DF
 EGL .FT                       :Elevation Ground Level
 DRDP.FT    1368               :Driller's Depth
 CASD.FT    10.                :Casing Diameter
 CASB.FT    1328               :Casing Bottom
 CASX.      SURFACE            :Casing Type
 CAST.IN    .25                :Casing Thickness
 TNOC.                         :Time Circulation Stopped
 LOGU.      USGS               :Logging Unit
 RECB.      MJG                :Recorded By
 OSR1.      9095               :Other Services
 OSR2.       0024              :Other Services
 OSR3.                         :Other Services
 BS  .IN         3.9           :Bit Size
 MST .F     SH                 :Mean Surface Temperature
 TGRD.F                        :Temperature Gradiant
 MAGN.      0                  :Magnetic Declination
 MDEN.      2.65               :Density Matrix
 MATR.      SANDSTONE          :Neutron Matrix
 DTMT.      54                 :Delta T Matrix
 DTFL.                         :Delta T Fluid
 MUDS.      FLOW LINE          :Mud Sample Source
 MRS .      .179               :Mud Resistivity
 MTP .      68.5               :Mud Temperature
 MFRS.                         :Resistivity Mud Filtrate
 MFTP.                         :Temperature Mud Filtrate
 MCRS.                         :Resistivity Mud Cake
 MCTP.                         :Temperature Mud Cake
 FTYP.      AIR                :Fluid Type
 FD  .LB/G    NA               :Mud Weight
 DFV .S                        :Fluid Viscosity
 FPH .                         :Fuild PH
 ELCO.      99999              :Electron Cutoff
 CASL.IN    3.5                :Casing Logger
 LOTD.FT    1328               :Logger TD
 ARTM.      12:20              :Arrival Time
 DPTM.                         :Departure Time
 RIGN.                         :Rig Number
~Other Information
#MNEM.UNIT  Information      Description
#---------- ---------------  ------------------------
# -------------------------- 
~A DEPTH  GAMMA    NEUTRON  POR(NEU) 
# ...
 757.600     10.3    954.1  36.4     
 757.800     21.4   1067.1  32.9     
 758.000     14.0   1105.2  31.8     
 758.200     25.1   1215.3  29.0     
 758.400     30.0   1208.2  29.2     
 758.600     17.7   1172.9  29.9     
 758.800     -0.7   1194.1  29.4     
 759.000     -0.7    973.9  35.7     
 759.200     20.2   1079.8  32.5     
 759.400     17.7   1010.6  34.5     
 759.600      6.6    969.7  35.8     
 759.800     21.4    876.5  39.2     
 760.000     21.4    821.5  41.5     
 760.200     10.3    705.7  47.4     
 760.400     39.9    838.4  40.7     
 760.600     21.4    656.3  50.6     
 760.800     36.2    758.0  44.3     
 761.000     10.3    621.0  52.9     
 761.200     14.0    614.0  53.3     
 761.400      6.6    664.8  50.0     
 761.600     28.8    635.2  52.0     
 761.800     25.1    639.4  51.7     
 762.000     -8.1    717.0  46.7     
 762.200     21.4    728.3  46.0     
 762.400     25.1    597.0  54.4     
 762.600      6.6    605.5  53.9     
 762.800     25.1    660.6  50.3     
 763.000     10.3    516.6  62.8     
 763.200     21.4    597.0  54.4     
 763.400      3.0    618.2  53.1     
 763.600     35.0    669.0  49.8     
 763.800     28.8    700.1  47.8     
 764.000     25.1    550.5  59.1     
 764.200     28.8    601.3  54.1     
 764.400     21.4    686.0  48.7     
 764.600      0.5    615.4  53.2     
 764.800     -0.7    618.2  53.1     
 765.000      3.0    702.9  47.6     
 765.200     28.8    876.5  39.2     
 765.400     20.2    801.7  42.4     
 765.600     14.0    927.3  37.4     
 765.800      6.6   1117.9  31.4     
 766.000     14.0   1270.3  27.9     
 766.200      0.5   1333.8  26.6     
 766.400     -4.4   1490.5  23.6     
 766.600     17.7   1609.1  21.6     
 766.800      6.6   1393.1  25.4     
 767.000     21.4   1541.3  22.8     
 767.200     20.2   1388.9  25.4     
 767.400      6.6   1206.8  29.2     
 767.600     -8.1   1067.1  32.9     
 767.800     14.0    863.8  39.6     
 768.000      0.5    717.0  46.7     
 768.200     36.2    614.0  53.3     
 768.400      3.0    719.8  46.5     
 768.600      6.6    635.2  52.0     
 768.800     44.8    571.6  56.8     
 769.000     10.3    592.8  54.7     
 769.200     10.3    554.7  58.6     
 769.400     28.8    508.1  63.7     
 769.600     25.1    605.5  53.9     
 769.800     15.3    547.6  59.4     
 770.000     10.3    584.3  55.4     
 770.200     36.2    622.5  52.8     
 770.400     39.9    605.5  53.9     
 770.600     35.0    440.4  80.9     
 770.800     17.7    575.9  56.3     
 771.000     32.5    567.4  57.2     
 771.200     39.9    686.0  48.7     
 771.400     21.4    622.5  52.8     
 771.600      5.4    581.5  55.7     
 771.800     17.7    724.1  46.2     
 772.000     14.0    571.6  56.8     
 772.200     25.1    639.4  51.7     
 772.400     -4.4    581.5  55.7     
 772.600     32.5    664.8  50.0     
 772.800     25.1    673.3  49.5     
 773.000     28.8    601.3  54.1     
 773.200     25.1    686.0  48.7     
 773.400     10.3    671.9  49.6     
 773.600     -8.1    673.3  49.5     
 773.800     17.7    707.1  47.3     
 774.000     25.1    664.8  50.0     
 774.200     25.1    683.1  48.9     
 774.400     28.8    745.3  44.9     
 774.600     10.3    647.9  51.1     
 774.800     21.4    660.6  50.3     
 775.000     15.3    688.8  48.5     
 775.200     -0.7    719.8  46.5     
 775.400     25.1    791.8  42.8     
 775.600     21.4    774.9  43.6     
 775.800     -9.4    931.6  37.2     
 776.000     10.3    858.2  39.8     
 776.200      3.0    804.5  42.2     
 776.400     32.5    842.6  40.5     
 776.600     10.3    838.4  40.7     
 776.800     10.3    858.2  39.8     
 777.000     10.3    910.4  38.0     
 777.200      3.0    923.1  37.5     
 777.400     10.3   1016.3  34.3     
 777.600     -4.4   1079.8  32.5     
 777.800     47.3   1163.0  30.1     
 778.000     28.8   1151.8  30.4     
 778.200     17.7   1147.5  30.6     
 778.400     14.0   1291.5  27.4     
 778.600     20.2   1242.1  28.5     
 778.800     32.5   1253.4  28.2     
 779.000     21.4   1223.7  28.8     
 779.200      6.6   1189.9  29.5     
 779.400     -9.4   1146.1  30.6     
 779.600      6.6   1113.6  31.5     
 779.800     47.3   1109.4  31.7     
 780.000      3.0    961.2  36.1     
 780.200      3.0   1037.4  33.7     
 780.400     -9.4   1151.8  30.4     
 780.600     14.0    948.5  36.6     
 780.800     17.7   1016.3  34.3     
 781.000     25.1    868.0  39.5     
 781.200     -9.4   1117.9  31.4     
 781.400     -0.7   1024.7  34.1     
 781.600      3.0   1126.3  31.2     
 781.800      6.6   1084.0  32.4     
 782.000      3.0   1163.0  30.1     
 782.200     20.2   1105.2  31.8     
 782.400     25.1   1067.1  32.9     
 782.600     21.4   1045.9  33.5     
 782.800      3.0    982.4  35.4     
 783.000      5.4    858.2  39.8     
 783.200     -0.7    829.9  41.1     
 783.400     25.1    978.1  35.5     
 783.600      6.6    901.9  38.3     
 783.800     14.0    750.9  44.6     
 784.000     30.0    808.8  42.0     
 784.200     28.8    821.5  41.5     
 784.400     39.9    698.7  47.9     
 784.600     17.7    686.0  48.7     
 784.800     39.9    558.9  58.2     
 785.000     14.0    563.2  57.7     
 785.200     39.9    580.1  55.9     
 785.400     21.4    702.9  47.6     
 785.600      3.0    654.9  50.7     
 785.800     64.5    626.7  52.5     
 786.000     10.3    580.1  55.9     
 786.200     17.7    656.3  50.6     
 786.400     14.0    660.6  50.3     
 786.600     30.0    592.8  54.7     
 786.800     10.3    626.7  52.5     
 787.000     14.0    630.9  52.2     
 787.200     58.3    652.1  50.9     
 787.400     43.6    796.1  42.6     
 787.600     20.2    702.9  47.6     
 787.800     28.8    715.6  46.8     
 788.000     10.3    647.9  51.1     
 788.200      3.0    762.2  44.1     
 788.400     44.8   1021.9  34.2     
 788.600      6.6    948.5  36.6     
 788.800     10.3    961.2  36.1     
 789.000     -4.4    961.2  36.1     
 789.200     20.2    892.0  38.6     
 789.400     28.8    935.8  37.1     
 789.600     -0.7    931.6  37.2     
 789.800     -4.4    918.9  37.7     
 790.000     21.4   1016.3  34.3     
 790.200     25.1    897.7  38.4     
 790.400     17.7    876.5  39.2     
 790.600     21.4    940.0  36.9     
 790.800     17.7    923.1  37.5     
 791.000      5.4    813.0  41.8     
 791.200     25.1    681.7  49.0     
 791.400     17.7    766.4  43.9     
 791.600     10.3    647.9  51.1     
 791.800     10.3    575.9  56.3     
 792.000     20.2    581.5  55.7     
 792.200     25.1    724.1  46.2     
 792.400     -4.4    550.5  59.1     
 792.600     25.1    482.7  67.9     
 792.800     15.3    705.7  47.4     
 793.000     25.1    601.3  54.1     
 793.200     43.6    681.7  49.0     
 793.400     17.7    664.8  50.0     
 793.600     54.6    550.5  59.1     
 793.800     10.3    700.1  47.8     
 794.000     21.4    652.1  50.9     
 794.200     32.5    681.7  49.0     
 794.400     39.9    673.3  49.5     
 794.600     44.8    530.7  61.2     
 794.800     14.0    673.3  49.5     
 795.000     39.9    702.9  47.6     
 795.200     10.3    622.5  52.8     
 795.400      3.0    621.0  52.9     
 795.600     10.3    686.0  48.7     
 795.800     39.9    749.5  44.7     
 796.000     17.7    804.5  42.2     
 796.200      6.6    652.1  50.9     
 796.400     15.3    694.4  48.1     
 796.600      6.6    690.2  48.4     
 796.800     25.1    846.9  40.3     
 797.000     25.1    779.1  43.4     
 797.200     17.7    807.4  42.1     
 797.400     -4.4    800.3  42.4     
 797.600     17.7    872.3  39.3     
 797.800     25.1    804.5  42.2     
 798.000     17.7    842.6  40.5     
 798.200      5.4    875.1  39.2     
 798.400     21.4    863.8  39.6     
 798.600     28.8    880.8  39.0     
 798.800     -0.7    889.2  38.7     
 799.000     14.0    813.0  41.8     
 799.200     20.2    889.2  38.7     
 799.400     10.3   1007.8  34.6     
 799.600     14.0    944.3  36.7     
