~Version Information
 VERS.                2.0:  CWLS LOG ASCII STANDARD -VERSION 2.0
 WRAP.                 NO:  ONE LINE PER DEPTH STEP
~WELL INFORMATION BLOCK
#MNEM.UNIT       DATA		            DESCRIPTION OF MNEMONIC
#---------    -------------            ------------------------
 STRT.FT  -2.000                         :START DEPTH
 STOP.FT  1322.400                       :STOP DEPTH
 STEP.FT  0.200                          :STEP    UP_HOLE  
 NULL.    -999.25                        :NULL VALUE
 COMP.    USGS                           :COMPANY
 WELL.    USGS 145                                                     :WELL
 FLD .    INL                            :FIELD\LOCATION
 LOC .                                   :LOCATION
 CNTY.    BUTTE                          :COUNTY
 STAT.    IDAHO                          :STATE
 CTRY.    USA                            :COUNTRY
 SRVC.    USGS                           :SERVICE COMPANY
 DATE.    07/16/2018                     :LOG DATE
 API .   CAL. 2017                           :API NUMBER
 LIC .    USGS                           :LICENSE NUMBER
~Curve Information Block
#MNEM.UNIT      API CODE     Curve Description
#---------    -------------  ------------------------
 DEPT     .FT        00 001 00 00          :  1  DEPTH   
 GAMMA    .API-GR    00 310 00 00          :  2  GAMMA RAY           
 NEUTRON  .API-N     00 000 00 00          :  3  SINGLE NEUTRON      
 POR(NEU) .PERCENT   00 330 00 00          :  4  NEUTRON POROSITY    
~Parameter Information Block
#MNEM.UNIT   Information     Description
#---------- ---------------  ------------------------
 FILE.      PROCESSED          :File Type
 FIID.      9057A              :File Type Identifier
 VERS.      3.60E              :System Version
 SER .      1                  :System Serial Number
 TRUK.      0.25               :Truck Calibration Number
 TOOL.        1077             :Tool Serial Number
 TIME.      1254               :Time    HrHrMinMin
 LAT .                         :Latitude
 LON .                         :Longitude
 LMF .      LSD                :Log Measured From
 DMF .      LSD                :Driller Measured From
 PD  .                         :Permanent Data
 PDEV.FT                       :Elevation Permanent Data
 EKB .FT                       :Elevation Kelly Bushing
 ELEV.FT                       :Elevation DF
 EGL .FT                       :Elevation Ground Level
 DRDP.FT    1368               :Driller's Depth
 CASD.FT    10.                :Casing Diameter
 CASB.FT    1328               :Casing Bottom
 CASX.      SURFACE            :Casing Type
 CAST.IN    .25                :Casing Thickness
 TNOC.                         :Time Circulation Stopped
 LOGU.      USGS               :Logging Unit
 RECB.      MJG                :Recorded By
 OSR1.      9095               :Other Services
 OSR2.       0024              :Other Services
 OSR3.                         :Other Services
 BS  .IN         3.9           :Bit Size
 MST .F     SH                 :Mean Surface Temperature
 TGRD.F                        :Temperature Gradiant
 MAGN.      0                  :Magnetic Declination
 MDEN.      2.65               :Density Matrix
 MATR.      SANDSTONE          :Neutron Matrix
 DTMT.      54                 :Delta T Matrix
 DTFL.                         :Delta T Fluid
 MUDS.      FLOW LINE          :Mud Sample Source
 MRS .      .179               :Mud Resistivity
 MTP .      68.5               :Mud Temperature
 MFRS.                         :Resistivity Mud Filtrate
 MFTP.                         :Temperature Mud Filtrate
 MCRS.                         :Resistivity Mud Cake
 MCTP.                         :Temperature Mud Cake
 FTYP.      AIR                :Fluid Type
 FD  .LB/G    NA               :Mud Weight
 DFV .S                        :Fluid Viscosity
 FPH .                         :Fuild PH
 ELCO.      99999              :Electron Cutoff
 CASL.IN    3.5                :Casing Logger
 LOTD.FT    1328               :Logger TD
 ARTM.      12:20              :Arrival Time
 DPTM.                         :Departure Time
 RIGN.                         :Rig Number
~Other Information
#MNEM.UNIT  Information      Description
#---------- ---------------  ------------------------
# -------------------------- 
~A DEPTH  GAMMA    NEUTRON  POR(NEU) 
# ...
 588.800      3.0   2122.8  14.2     
 589.000     25.1   2122.8  14.2     
 589.200     17.7   2122.8  14.2     
 589.400     10.3   2122.8  14.2     
 589.600     -4.4   1818.0  18.4     
 589.800     54.6   1939.3  16.6     
 590.000     15.3   2159.5  13.7     
 590.200     28.8   2464.4  10.1     
 590.400     43.6   2557.6   9.1     
 590.600     21.4   2636.6   8.3     
 590.800      5.4   2422.1  10.6     
 591.000     21.4   2384.0  11.0     
 591.200     28.8   2371.3  11.2     
 591.400      3.0   2484.2   9.9     
 591.600      3.0   2485.6   9.8     
 591.800     25.1   2701.5   7.7     
 592.000     14.0   2633.8   8.4     
 592.200     25.1   2570.3   9.0     
 592.400     21.4   2693.1   7.8     
 592.600      6.6   2693.1   7.8     
 592.800     20.2   2561.8   9.1     
 593.000     17.7   2477.1   9.9     
 593.200     10.3   2337.4  11.6     
 593.400     21.4   2676.1   7.9     
 593.600     32.5   2591.4   8.8     
 593.800      5.4   2515.2   9.6     
 594.000     14.0   2477.1   9.9     
 594.200     17.7   2664.8   8.1     
 594.400     39.9   2608.4   8.6     
 594.600      5.4   2760.8   7.1     
 594.800     28.8   2591.4   8.8     
 595.000     21.4   2667.7   8.0     
 595.200     14.0   2659.2   8.1     
 595.400     20.2   2786.2   6.8     
 595.600     36.2   2803.2   6.7     
 595.800     21.4   2820.1   6.5     
 596.000     36.2   2862.4   6.1     
 596.200      6.6   2760.8   7.1     
 596.400     30.0   2731.2   7.4     
 596.600     17.7   2667.7   8.0     
 596.800     -0.7   2663.4   8.1     
 597.000     28.8   2794.7   6.8     
 597.200     17.7   2697.3   7.7     
 597.400     10.3   2629.5   8.4     
 597.600     10.3   2566.0   9.0     
 597.800     17.7   2439.0  10.4     
 598.000     10.3   2614.0   8.6     
 598.200     15.3   2489.8   9.8     
 598.400     14.0   2527.9   9.4     
 598.600     25.1   2519.5   9.5     
 598.800     17.7   2515.2   9.6     
 599.000     17.7   2523.7   9.5     
 599.200     20.2   2646.5   8.2     
 599.400      3.0   2663.4   8.1     
 599.600     10.3   2676.1   7.9     
 599.800     21.4   2646.5   8.2     
 600.000     30.0   2608.4   8.6     
 600.200     25.1   2655.0   8.2     
 600.400     28.8   2765.0   7.1     
 600.600      6.6   2993.7   4.8     
 600.800      6.6   2704.4   7.7     
 601.000      5.4   2926.0   5.4     
 601.200     10.3   2938.7   5.3     
 601.400     -0.7   2832.8   6.4     
 601.600      6.6   2896.3   5.7     
 601.800     44.8   2955.6   5.1     
 602.000     36.2   2769.3   7.0     
 602.200     36.2   2786.2   6.8     
 602.400     28.8   2794.7   6.8     
 602.600     17.7   2540.6   9.3     
 602.800     15.3   2680.4   7.9     
 603.000     28.8   2210.3  13.1     
 603.200      3.0   2252.7  12.6     
 603.400     17.7   2223.0  13.0     
 603.600     10.3   2196.2  13.3     
 603.800     21.4   2184.9  13.4     
 604.000     17.7   1926.6  16.8     
 604.200     25.1   2032.5  15.3     
 604.400      3.0   2162.4  13.7     
 604.600      0.5   1837.7  18.1     
 604.800      6.6   1918.2  16.9     
 605.000     10.3   2032.5  15.3     
 605.200     14.0   1947.8  16.5     
 605.400     30.0   2168.0  13.6     
 605.600      6.6   2422.1  10.6     
 605.800     -0.7   2494.0   9.8     
 606.000      6.6   2506.8   9.6     
 606.200     10.3   2535.0   9.4     
 606.400      5.4   2663.4   8.1     
 606.600     32.5   2578.7   8.9     
 606.800    -11.8   2773.5   7.0     
 607.000     10.3   2790.5   6.8     
 607.200     20.2   2704.4   7.7     
 607.400      6.6   2591.4   8.8     
 607.600     21.4   2633.8   8.4     
 607.800     28.8   2680.4   7.9     
 608.000     17.7   2388.2  11.0     
 608.200     15.3   2705.8   7.6     
 608.400     10.3   2566.0   9.0     
 608.600     -0.7   2638.0   8.3     
 608.800      3.0   2726.9   7.4     
 609.000     -4.4   2681.8   7.9     
 609.200     -4.4   2642.3   8.3     
 609.400     25.1   2667.7   8.0     
 609.600     14.0   2536.4   9.3     
 609.800     -0.7   2551.9   9.2     
 610.000      5.4   2489.8   9.8     
 610.200     32.5   2180.7  13.5     
 610.400     28.8   2189.2  13.4     
 610.600     21.4   2108.7  14.3     
 610.800      0.5   2004.3  15.7     
 611.000     14.0   2019.8  15.5     
 611.200     10.3   2206.1  13.2     
 611.400     28.8   2244.2  12.7     
 611.600     17.7   2687.4   7.8     
 611.800     20.2   2769.3   7.0     
 612.000     21.4   2693.1   7.8     
 612.200     10.3   2731.2   7.4     
 612.400     21.4   2773.5   7.0     
 612.600     39.9   2710.0   7.6     
 612.800     36.2   2663.4   8.1     
 613.000     14.0   2549.1   9.2     
 613.200     28.8   2625.3   8.5     
 613.400      3.0   2472.9  10.0     
 613.600     25.1   2646.5   8.2     
 613.800     14.0   2604.1   8.7     
 614.000     10.3   2375.5  11.1     
 614.200     28.8   2557.6   9.1     
 614.400     20.2   2264.0  12.5     
 614.600     21.4   2498.3   9.7     
 614.800     28.8   2439.0  10.4     
 615.000     14.0   2519.5   9.5     
 615.200     14.0   2529.3   9.4     
 615.400     20.2   2417.8  10.6     
 615.600     28.8   2413.6  10.7     
 615.800      3.0   2307.7  11.9     
 616.000     10.3   2485.6   9.8     
 616.200     20.2   2405.1  10.8     
 616.400     -0.7   2604.1   8.7     
 616.600     -4.4   2282.3  12.3     
 616.800     21.4   2502.5   9.7     
 617.000     28.8   2489.8   9.8     
 617.200      5.4   2731.2   7.4     
 617.400     25.1   2663.4   8.1     
 617.600      6.6   2820.1   6.5     
 617.800     10.3   2913.3   5.6     
 618.000     30.0   2766.5   7.0     
 618.200     17.7   2858.2   6.1     
 618.400      6.6   2942.9   5.3     
 618.600     21.4   2887.8   5.8     
 618.800     17.7   2997.9   4.8     
 619.000     25.1   2841.3   6.3     
 619.200     28.8   3036.0   4.4     
 619.400     21.4   2921.7   5.5     
 619.600     14.0   2765.0   7.1     
 619.800     21.4   3077.0   4.1     
 620.000     35.0   3006.4   4.7     
 620.200      3.0   2900.5   5.7     
 620.400     10.3   2904.8   5.7     
 620.600     10.3   2653.5   8.2     
 620.800     15.3   2384.0  11.0     
 621.000     32.5   2019.8  15.5     
 621.200     10.3   1740.3  19.5     
 621.400     25.1   1897.0  17.2     
 621.600     25.1   1795.4  18.7     
 621.800     25.1   1905.5  17.1     
 622.000     32.5   1943.6  16.6     
 622.200     21.4   2083.3  14.6     
 622.400     54.6   1936.5  16.7     
 622.600     39.9   1731.9  19.6     
 622.800     50.9   1786.9  18.8     
 623.000     47.3   1723.4  19.7     
 623.200     28.8   1698.0  20.1     
 623.400     20.2   1767.1  19.1     
 623.600     28.8   1770.0  19.1     
 623.800     32.5   2041.0  15.2     
 624.000     43.6   2091.8  14.5     
 624.200     39.9   2009.9  15.6     
 624.400     49.7   1943.6  16.6     
 624.600     21.4   2011.3  15.6     
 624.800     17.7   2129.9  14.1     
 625.000     10.3   2142.6  13.9     
 625.200     44.8   2100.3  14.4     
 625.400     32.5   2091.8  14.5     
 625.600     14.0   2248.5  12.7     
 625.800     10.3   2121.4  14.2     
 626.000     21.4   2400.9  10.8     
 626.200     15.3   2354.3  11.4     
 626.400     10.3   2328.9  11.7     
 626.600     21.4   2625.3   8.5     
 626.800     28.8   2540.6   9.3     
 627.000     25.1   2828.6   6.4     
 627.200      6.6   2854.0   6.2     
 627.400     25.1   2828.6   6.4     
 627.600     17.7   2511.0   9.6     
 627.800     32.5   2862.4   6.1     
 628.000     15.3   2782.0   6.9     
 628.200      6.6   2671.9   8.0     
 628.400     -0.7   2794.7   6.8     
 628.600     32.5   2739.6   7.3     
 628.800      0.5   2676.1   7.9     
 629.000     28.8   2739.6   7.3     
 629.200     14.0   2532.2   9.4     
 629.400      6.6   2638.0   8.3     
 629.600     39.9   2721.3   7.5     
 629.800     39.9   2638.0   8.3     
 630.000     36.2   2481.3   9.9     
 630.200     17.7   2701.5   7.7     
 630.400     36.2   2718.5   7.5     
 630.600     35.0   2450.3  10.2     
 630.800     17.7   2735.4   7.3     
