~Version Information
 VERS.                2.0:  CWLS LOG ASCII STANDARD -VERSION 2.0
 WRAP.                 NO:  ONE LINE PER DEPTH STEP
~WELL INFORMATION BLOCK
#MNEM.UNIT       DATA		            DESCRIPTION OF MNEMONIC
#---------    -------------            ------------------------
 STRT.FT  -2.000                         :START DEPTH
 STOP.FT  1322.400                       :STOP DEPTH
 STEP.FT  0.200                          :STEP    UP_HOLE  
 NULL.    -999.25                        :NULL VALUE
 COMP.    USGS                           :COMPANY
 WELL.    USGS 145                                                     :WELL
 FLD .    INL                            :FIELD\LOCATION
 LOC .                                   :LOCATION
 CNTY.    BUTTE                          :COUNTY
 STAT.    IDAHO                          :STATE
 CTRY.    USA                            :COUNTRY
 SRVC.    USGS                           :SERVICE COMPANY
 DATE.    07/16/2018                     :LOG DATE
 API .   CAL. 2017                           :API NUMBER
 LIC .    USGS                           :LICENSE NUMBER
~Curve Information Block
#MNEM.UNIT      API CODE     Curve Description
#---------    -------------  ------------------------
 DEPT     .FT        00 001 00 00          :  1  DEPTH   
 GAMMA    .API-GR    00 310 00 00          :  2  GAMMA RAY           
 NEUTRON  .API-N     00 000 00 00          :  3  SINGLE NEUTRON      
 POR(NEU) .PERCENT   00 330 00 00          :  4  NEUTRON POROSITY    
~Parameter Information Block
#MNEM.UNIT   Information     Description
#---------- ---------------  ------------------------
 FILE.      PROCESSED          :File Type
 FIID.      9057A              :File Type Identifier
 VERS.      3.60E              :System Version
 SER .      1                  :System Serial Number
 TRUK.      0.25               :Truck Calibration Number
 TOOL.        1077             :Tool Serial Number
 TIME.      1254               :Time    HrHrMinMin
 LAT .                         :Latitude
 LON .                         :Longitude
 LMF .      LSD                :Log Measured From
 DMF .      LSD                :Driller Measured From
 PD  .                         :Permanent Data
 PDEV.FT                       :Elevation Permanent Data
 EKB .FT                       :Elevation Kelly Bushing
 ELEV.FT                       :Elevation DF
 EGL .FT                       :Elevation Ground Level
 DRDP.FT    1368               :Driller's Depth
 CASD.FT    10.                :Casing Diameter
 CASB.FT    1328               :Casing Bottom
 CASX.      SURFACE            :Casing Type
 CAST.IN    .25                :Casing Thickness
 TNOC.                         :Time Circulation Stopped
 LOGU.      USGS               :Logging Unit
 RECB.      MJG                :Recorded By
 OSR1.      9095               :Other Services
 OSR2.       0024              :Other Services
 OSR3.                         :Other Services
 BS  .IN         3.9           :Bit Size
 MST .F     SH                 :Mean Surface Temperature
 TGRD.F                        :Temperature Gradiant
 MAGN.      0                  :Magnetic Declination
 MDEN.      2.65               :Density Matrix
 MATR.      SANDSTONE          :Neutron Matrix
 DTMT.      54                 :Delta T Matrix
 DTFL.                         :Delta T Fluid
 MUDS.      FLOW LINE          :Mud Sample Source
 MRS .      .179               :Mud Resistivity
 MTP .      68.5               :Mud Temperature
 MFRS.                         :Resistivity Mud Filtrate
 MFTP.                         :Temperature Mud Filtrate
 MCRS.                         :Resistivity Mud Cake
 MCTP.                         :Temperature Mud Cake
 FTYP.      AIR                :Fluid Type
 FD  .LB/G    NA               :Mud Weight
 DFV .S                        :Fluid Viscosity
 FPH .                         :Fuild PH
 ELCO.      99999              :Electron Cutoff
 CASL.IN    3.5                :Casing Logger
 LOTD.FT    1328               :Logger TD
 ARTM.      12:20              :Arrival Time
 DPTM.                         :Departure Time
 RIGN.                         :Rig Number
~Other Information
#MNEM.UNIT  Information      Description
#---------- ---------------  ------------------------
# -------------------------- 
~A DEPTH  GAMMA    NEUTRON  POR(NEU) 
  -2.000  -999.25  -999.25  -999.25  
  -1.800      0.5  -999.25  -999.25  
  -1.600     14.0  -999.25  -999.25  
  -1.400     20.2  -999.25  -999.25  
  -1.200     14.0  -999.25  -999.25  
  -1.000     36.2  -999.25  -999.25  
  -0.800     44.8  -999.25  -999.25  
  -0.600     54.6  -999.25  -999.25  
  -0.400     50.9  -999.25  -999.25  
  -0.200     49.7  -999.25  -999.25  
   0.000     73.1  -999.25  -999.25  
   0.200     87.9  -999.25  -999.25  
   0.400     64.5  -999.25  -999.25  
   0.600     47.3  -999.25  -999.25  
   0.800     49.7  -999.25  -999.25  
   1.000     76.8  -999.25  -999.25  
   1.200     76.8  -999.25  -999.25  
   1.400     64.5  -999.25  -999.25  
   1.600     43.6  -999.25  -999.25  
   1.800     49.7  -999.25  -999.25  
   2.000     39.9  -999.25  -999.25  
   2.200     47.3  -999.25  -999.25  
   2.400     35.0  -999.25  -999.25  
   2.600     50.9  -999.25  -999.25  
   2.800     32.5  -999.25  -999.25  
   3.000     30.0  -999.25  -999.25  
   3.200     14.0  -999.25  -999.25  
   3.400     15.3  -999.25  -999.25  
   3.600     10.3  -999.25  -999.25  
   3.800     21.4  -999.25  -999.25  
   4.000     54.6  -999.25  -999.25  
   4.200     47.3  -999.25  -999.25  
   4.400     14.0   2230.1  12.9     
   4.600     39.9   2333.1  11.6     
   4.800     25.1   2218.8  13.0     
   5.000     35.0   2388.2  11.0     
   5.200     17.7   2663.4   8.1     
   5.400     14.0   2518.0   9.5     
   5.600     30.0   2574.5   9.0     
   5.800     17.7   2625.3   8.5     
   6.000      6.6   2653.5   8.2     
   6.200     25.1   2710.0   7.6     
   6.400     36.2   2650.7   8.2     
   6.600     35.0   2585.8   8.8     
   6.800     50.9   2604.1   8.7     
   7.000     32.5   2631.0   8.4     
   7.200     25.1   2608.4   8.6     
   7.400     17.7   2913.3   5.6     
   7.600     10.3   2529.3   9.4     
   7.800     15.3   2726.9   7.4     
   8.000     43.6   2484.2   9.9     
   8.200     20.2   2434.8  10.4     
   8.400     25.1   2612.6   8.6     
   8.600     58.3   2670.5   8.0     
   8.800     44.8   2583.0   8.9     
   9.000     21.4   2599.9   8.7     
   9.200     17.7   2619.7   8.5     
   9.400     20.2   2621.1   8.5     
   9.600     50.9   2535.0   9.4     
   9.800     35.0   2786.2   6.8     
  10.000     36.2   2650.7   8.2     
  10.200     36.2   2461.6  10.1     
  10.400      0.5   2790.5   6.8     
  10.600     36.2   2782.0   6.9     
  10.800     39.9   2726.9   7.4     
  11.000     25.1   2527.9   9.4     
  11.200     10.3   2568.9   9.0     
  11.400     15.3   2608.4   8.6     
  11.600     -0.7   2655.0   8.2     
  11.800     47.3   2574.5   9.0     
  12.000     -4.4   2511.0   9.6     
  12.200     28.8   2629.5   8.4     
  12.400      6.6   2461.6  10.1     
  12.600     15.3   2731.2   7.4     
  12.800     54.6   2563.2   9.1     
  13.000     15.3   2701.5   7.7     
  13.200     28.8   2663.4   8.1     
  13.400     39.9   2839.9   6.3     
  13.600     15.3   2854.0   6.2     
  13.800     25.1   2748.1   7.2     
  14.000     14.0   2704.4   7.7     
  14.200     35.0   2726.9   7.4     
  14.400     21.4   2563.2   9.1     
  14.600     30.0   2765.0   7.1     
  14.800     10.3   2557.6   9.1     
  15.000     21.4   2760.8   7.1     
  15.200     39.9   2544.9   9.3     
  15.400     36.2   2824.3   6.5     
  15.600     10.3   2568.9   9.0     
  15.800     30.0   2587.2   8.8     
  16.000     32.5   2687.4   7.8     
  16.200     15.3   2820.1   6.5     
  16.400     36.2   2892.1   5.8     
  16.600     32.5   2631.0   8.4     
  16.800     30.0   2655.0   8.2     
  17.000     32.5   3175.8   3.2     
  17.200     28.8   2789.0   6.8     
  17.400     -4.4   2811.6   6.6     
  17.600     21.4   2873.7   6.0     
  17.800     25.1   2985.2   4.9     
  18.000     28.8   2748.1   7.2     
  18.200     28.8   2975.4   5.0     
  18.400     10.3   2832.8   6.4     
  18.600     36.2   2773.5   7.0     
  18.800     21.4   2647.9   8.2     
  19.000     39.9   2684.6   7.9     
  19.200     32.5   2704.4   7.7     
  19.400     15.3   2942.9   5.3     
  19.600     10.3   2790.5   6.8     
  19.800     17.7   2806.0   6.6     
  20.000     35.0   2739.6   7.3     
  20.200     25.1   2642.3   8.3     
  20.400     21.4   2817.3   6.5     
  20.600     35.0   2976.8   4.9     
  20.800     21.4   2862.4   6.1     
  21.000     -9.4   2947.1   5.2     
  21.200     21.4   2883.6   5.9     
  21.400     10.3   2839.9   6.3     
  21.600     35.0   3023.3   4.5     
  21.800     21.4   2870.9   6.0     
  22.000     17.7   3116.5   3.7     
  22.200     20.2   2824.3   6.5     
  22.400     21.4   2777.8   6.9     
  22.600     49.7   2913.3   5.6     
  22.800     25.1   2955.6   5.1     
  23.000     36.2   2693.1   7.8     
  23.200     15.3   2926.0   5.4     
  23.400     -0.7   2714.2   7.6     
  23.600     28.8   2924.5   5.5     
  23.800     15.3   2701.5   7.7     
  24.000     28.8   2885.0   5.9     
  24.200     20.2   2870.9   6.0     
  24.400     14.0   2879.4   5.9     
  24.600     21.4   2964.1   5.1     
  24.800     25.1   2803.2   6.7     
  25.000     -0.7   2913.3   5.6     
  25.200     28.8   2941.5   5.3     
  25.400     15.3   2811.6   6.6     
  25.600     14.0   2738.2   7.3     
  25.800     39.9   3031.8   4.5     
  26.000     21.4   2883.6   5.9     
  26.200     47.3   2873.7   6.0     
  26.400     35.0   2926.0   5.4     
  26.600     28.8   3057.2   4.2     
  26.800     32.5   2704.4   7.7     
  27.000     -4.4   2887.8   5.8     
  27.200     21.4   2896.3   5.7     
  27.400     35.0   3002.2   4.7     
  27.600     17.7   2964.1   5.1     
  27.800     -4.4   2913.3   5.6     
  28.000      5.4   2989.5   4.8     
  28.200     14.0   2845.5   6.2     
  28.400     21.4   2975.4   5.0     
  28.600      0.5   3010.6   4.6     
  28.800     36.2   2958.4   5.1     
  29.000     15.3   3163.1   3.3     
  29.200     10.3   2811.6   6.6     
  29.400     14.0   2879.4   5.9     
  29.600     10.3   2798.9   6.7     
  29.800     14.0   2841.3   6.3     
  30.000     10.3   2952.8   5.2     
  30.200      0.5   2811.6   6.6     
  30.400     25.1   2806.0   6.6     
  30.600     20.2   2824.3   6.5     
  30.800     32.5   2883.6   5.9     
  31.000     -0.7   2828.6   6.4     
  31.200     15.3   2790.5   6.8     
  31.400     21.4   2938.7   5.3     
  31.600     14.0   2726.9   7.4     
  31.800     10.3   2807.4   6.6     
  32.000     36.2   3014.9   4.6     
  32.200     25.1   2845.5   6.2     
  32.400     14.0   2875.1   6.0     
  32.600     25.1   2902.0   5.7     
  32.800     44.8   2993.7   4.8     
  33.000     17.7   3082.6   4.0     
  33.200     14.0   2868.1   6.0     
  33.400     15.3   2854.0   6.2     
  33.600      6.6   2834.2   6.4     
  33.800     10.3   2887.8   5.8     
  34.000     17.7   2964.1   5.1     
  34.200      3.0   2964.1   5.1     
  34.400     35.0   2828.6   6.4     
  34.600     14.0   2909.0   5.6     
  34.800     17.7   2952.8   5.2     
  35.000     10.3   2828.6   6.4     
  35.200      6.6   2981.0   4.9     
  35.400     20.2   3006.4   4.7     
  35.600     21.4   3019.1   4.6     
  35.800     17.7   3014.9   4.6     
  36.000     15.3   3019.1   4.6     
  36.200      3.0   3027.6   4.5     
  36.400     10.3   2941.5   5.3     
  36.600     15.3   2790.5   6.8     
  36.800     28.8   3105.2   3.8     
  37.000     15.3   3078.4   4.1     
  37.200     14.0   2807.4   6.6     
  37.400     25.1   2930.2   5.4     
  37.600     54.6   2807.4   6.6     
  37.800     17.7   2942.9   5.3     
  38.000     36.2   2918.9   5.5     
  38.200     44.8   2981.0   4.9     
  38.400     17.7   2924.5   5.5     
  38.600     25.1   2942.9   5.3     
  38.800     -4.4   2930.2   5.4     
  39.000     17.7   3009.2   4.7     
  39.200     15.3   3082.6   4.0     
  39.400      6.6   2964.1   5.1     
  39.600     17.7   2868.1   6.0     
  39.800     25.1   2976.8   4.9     
  40.000     14.0   3173.0   3.2     
