~Version Information
 VERS.                2.0:  CWLS LOG ASCII STANDARD -VERSION 2.0
 WRAP.                 NO:  ONE LINE PER DEPTH STEP
~WELL INFORMATION BLOCK
#MNEM.UNIT       DATA		            DESCRIPTION OF MNEMONIC
#---------    -------------            ------------------------
 STRT.FT  -2.000                         :START DEPTH
 STOP.FT  1322.400                       :STOP DEPTH
 STEP.FT  0.200                          :STEP    UP_HOLE  
 NULL.    -999.25                        :NULL VALUE
 COMP.    USGS                           :COMPANY
 WELL.    USGS 145                                                     :WELL
 FLD .    INL                            :FIELD\LOCATION
 LOC .                                   :LOCATION
 CNTY.    BUTTE                          :COUNTY
 STAT.    IDAHO                          :STATE
 CTRY.    USA                            :COUNTRY
 SRVC.    USGS                           :SERVICE COMPANY
 DATE.    07/16/2018                     :LOG DATE
 API .   CAL. 2017                           :API NUMBER
 LIC .    USGS                           :LICENSE NUMBER
~Curve Information Block
#MNEM.UNIT      API CODE     Curve Description
#---------    -------------  ------------------------
 DEPT     .FT        00 001 00 00          :  1  DEPTH   
 GAMMA    .API-GR    00 310 00 00          :  2  GAMMA RAY           
 NEUTRON  .API-N     00 000 00 00          :  3  SINGLE NEUTRON      
 POR(NEU) .PERCENT   00 330 00 00          :  4  NEUTRON POROSITY    
~Parameter Information Block
#MNEM.UNIT   Information     Description
#---------- ---------------  ------------------------
 FILE.      PROCESSED          :File Type
 FIID.      9057A              :File Type Identifier
 VERS.      3.60E              :System Version
 SER .      1                  :System Serial Number
 TRUK.      0.25               :Truck Calibration Number
 TOOL.        1077             :Tool Serial Number
 TIME.      1254               :Time    HrHrMinMin
 LAT .                         :Latitude
 LON .                         :Longitude
 LMF .      LSD                :Log Measured From
 DMF .      LSD                :Driller Measured From
 PD  .                         :Permanent Data
 PDEV.FT                       :Elevation Permanent Data
 EKB .FT                       :Elevation Kelly Bushing
 ELEV.FT                       :Elevation DF
 EGL .FT                       :Elevation Ground Level
 DRDP.FT    1368               :Driller's Depth
 CASD.FT    10.                :Casing Diameter
 CASB.FT    1328               :Casing Bottom
 CASX.      SURFACE            :Casing Type
 CAST.IN    .25                :Casing Thickness
 TNOC.                         :Time Circulation Stopped
 LOGU.      USGS               :Logging Unit
 RECB.      MJG                :Recorded By
 OSR1.      9095               :Other Services
 OSR2.       0024              :Other Services
 OSR3.                         :Other Services
 BS  .IN         3.9           :Bit Size
 MST .F     SH                 :Mean Surface Temperature
 TGRD.F                        :Temperature Gradiant
 MAGN.      0                  :Magnetic Declination
 MDEN.      2.65               :Density Matrix
 MATR.      SANDSTONE          :Neutron Matrix
 DTMT.      54                 :Delta T Matrix
 DTFL.                         :Delta T Fluid
 MUDS.      FLOW LINE          :Mud Sample Source
 MRS .      .179               :Mud Resistivity
 MTP .      68.5               :Mud Temperature
 MFRS.                         :Resistivity Mud Filtrate
 MFTP.                         :Temperature Mud Filtrate
 MCRS.                         :Resistivity Mud Cake
 MCTP.                         :Temperature Mud Cake
 FTYP.      AIR                :Fluid Type
 FD  .LB/G    NA               :Mud Weight
 DFV .S                        :Fluid Viscosity
 FPH .                         :Fuild PH
 ELCO.      99999              :Electron Cutoff
 CASL.IN    3.5                :Casing Logger
 LOTD.FT    1328               :Logger TD
 ARTM.      12:20              :Arrival Time
 DPTM.                         :Departure Time
 RIGN.                         :Rig Number
~Other Information
#MNEM.UNIT  Information      Description
#---------- ---------------  ------------------------
# -------------------------- 
~A DEPTH  GAMMA    NEUTRON  POR(NEU) 
# ...
1264.000    124.8    440.4  80.9     
1264.200     98.9    516.6  62.8     
1264.400    132.2    537.8  60.5     
1264.600    158.0    453.1  75.3     
1264.800    106.3    415.0  91.6     
1265.000    113.7    448.8  77.2     
1265.200    135.9    457.3  73.2     
1265.400    132.2    468.6  70.8     
1265.600    161.7    499.7  64.6     
1265.800    103.9    546.2  59.6     
1266.000     95.3    567.4  57.2     
1266.200     87.9    474.3  69.6     
1266.400     95.3    503.9  64.2     
1266.600    146.9    503.9  64.2     
1266.800     98.9    487.0  67.0     
1267.000     84.2    446.0  78.4     
1267.200     39.9    427.7  86.2     
1267.400     54.6    465.8  71.4     
1267.600     43.6    465.8  71.4     
1267.800     36.2    533.5  60.9     
1268.000     25.1    529.3  61.4     
1268.200     43.6    474.3  69.6     
1268.400     54.6    393.8  100.5    
1268.600     25.1    508.1  63.7     
1268.800     25.1    537.8  60.5     
1269.000     36.2    516.6  62.8     
1269.200     21.4    605.5  53.9     
1269.400     10.3    508.1  63.7     
1269.600     10.3    601.3  54.1     
1269.800     32.5    700.1  47.8     
1270.000     14.0    736.8  45.4     
1270.200     14.0    766.4  43.9     
1270.400      6.6    779.1  43.4     
1270.600     21.4    724.1  46.2     
1270.800     17.7    909.0  38.0     
1271.000      6.6    715.6  46.8     
1271.200     10.3    702.9  47.6     
1271.400     10.3    914.6  37.8     
1271.600     50.9    791.8  42.8     
1271.800     15.3    749.5  44.7     
1272.000     -4.4    892.0  38.6     
1272.200     21.4    639.4  51.7     
1272.400     14.0    762.2  44.1     
1272.600     10.3    770.7  43.8     
1272.800      3.0    690.2  48.4     
1273.000     28.8    774.9  43.6     
1273.200     -0.7    762.2  44.1     
1273.400     28.8    753.7  44.5     
1273.600     14.0    758.0  44.3     
1273.800     25.1    770.7  43.8     
1274.000     14.0    787.6  43.0     
1274.200     21.4    758.0  44.3     
1274.400     17.7    846.9  40.3     
1274.600      6.6    846.9  40.3     
1274.800      6.6    893.5  38.6     
1275.000     -4.4    838.4  40.7     
1275.200     17.7    673.3  49.5     
1275.400     25.1    834.2  40.9     
1275.600      3.0    885.0  38.9     
1275.800     10.3    800.3  42.4     
1276.000     14.0    834.2  40.9     
1276.200     10.3    791.8  42.8     
1276.400     25.1    901.9  38.3     
1276.600     17.7    889.2  38.7     
1276.800     -4.4   1067.1  32.9     
1277.000     21.4    914.6  37.8     
1277.200     25.1    914.6  37.8     
1277.400     17.7    855.3  39.9     
1277.600     17.7    893.5  38.6     
1277.800     28.8    842.6  40.5     
1278.000     36.2    892.0  38.6     
1278.200     25.1    851.1  40.1     
1278.400     17.7    800.3  42.4     
1278.600      6.6    846.9  40.3     
1278.800      6.6    952.7  36.4     
1279.000     32.5    880.8  39.0     
1279.200     14.0    842.6  40.5     
1279.400     17.7    855.3  39.9     
1279.600     17.7    880.8  39.0     
1279.800     25.1    935.8  37.1     
1280.000     14.0   1029.0  34.0     
1280.200     10.3    957.0  36.3     
1280.400     10.3    846.9  40.3     
1280.600     14.0    876.5  39.2     
1280.800      6.6   1007.8  34.6     
1281.000     -4.4    868.0  39.5     
1281.200      6.6    999.3  34.8     
1281.400     14.0    973.9  35.7     
1281.600      3.0    969.7  35.8     
1281.800     25.1    923.1  37.5     
1282.000     17.7   1007.8  34.6     
1282.200     14.0   1058.6  33.1     
1282.400     28.8    982.4  35.4     
1282.600      6.6   1058.6  33.1     
1282.800     36.2    969.7  35.8     
1283.000     32.5   1038.8  33.7     
1283.200     17.7   1029.0  34.0     
1283.400     25.1   1029.0  34.0     
1283.600     17.7    965.4  36.0     
1283.800     10.3   1020.5  34.2     
1284.000     21.4   1016.3  34.3     
1284.200    -11.8   1067.1  32.9     
1284.400     -4.4   1202.6  29.3     
1284.600     17.7    952.7  36.4     
1284.800     21.4    957.0  36.3     
1285.000      6.6   1071.3  32.7     
1285.200      3.0   1092.5  32.1     
1285.400     21.4   1071.3  32.7     
1285.600     -4.4   1134.8  30.9     
1285.800     32.5   1278.8  27.7     
1286.000      6.6   1287.3  27.5     
1286.200     15.3   1177.2  29.8     
1286.400     14.0   1236.4  28.6     
1286.600     25.1   1359.2  26.1     
1286.800     -0.7   1338.1  26.5     
1287.000     17.7   1228.0  28.7     
1287.200     47.3   1414.3  24.9     
1287.400     10.3   1219.5  28.9     
1287.600     10.3   1244.9  28.4     
1287.800      6.6   1338.1  26.5     
1288.000     36.2   1456.6  24.2     
1288.200      3.0   1384.6  25.5     
1288.400     21.4   1401.6  25.2     
1288.600     21.4   1465.1  24.1     
1288.800     14.0   1448.2  24.4     
1289.000     10.3   1626.0  21.3     
1289.200     25.1   1482.0  23.8     
1289.400     17.7   1778.4  18.9     
1289.600     21.4   1477.8  23.9     
1289.800     17.7   1604.8  21.7     
1290.000     21.4   1596.4  21.8     
1290.200     14.0   1609.1  21.6     
1290.400     10.3   1549.8  22.6     
1290.600     15.3   1422.8  24.8     
1290.800     10.3   1363.5  26.0     
1291.000     21.4   1545.5  22.7     
1291.200      6.6   1405.8  25.1     
1291.400     32.5   1443.9  24.4     
1291.600     -4.4   1452.4  24.3     
1291.800     14.0   1452.4  24.3     
1292.000      3.0   1342.3  26.4     
1292.200     14.0   1405.8  25.1     
1292.400     14.0   1417.1  24.9     
1292.600     36.2   1448.2  24.4     
1292.800     17.7   1511.7  23.3     
1293.000     25.1   1308.4  27.1     
1293.200     10.3   1427.0  24.7     
1293.400     25.1   1346.5  26.3     
1293.600     21.4   1300.0  27.3     
1293.800     21.4   1156.0  30.3     
1294.000      6.6   1304.2  27.2     
1294.200      3.0   1232.2  28.7     
1294.400     32.5   1134.8  30.9     
1294.600     21.4   1003.5  34.7     
1294.800      6.6    978.1  35.5     
1295.000     39.9   1033.2  33.8     
1295.200     28.8    897.7  38.4     
1295.400      3.0   1058.6  33.1     
1295.600     15.3   1067.1  32.9     
1295.800     17.7    893.5  38.6     
1296.000     -4.4    914.6  37.8     
1296.200     10.3    995.1  34.9     
1296.400     43.6    791.8  42.8     
1296.600     10.3    707.1  47.3     
1296.800     10.3    773.5  43.6     
1297.000      3.0    808.8  42.0     
1297.200     28.8    660.6  50.3     
1297.400     10.3    817.2  41.6     
1297.600      3.0    766.4  43.9     
1297.800      6.6    952.7  36.4     
1298.000     -8.1    800.3  42.4     
1298.200      3.0    965.4  36.0     
1298.400     17.7    944.3  36.7     
1298.600     28.8    948.5  36.6     
1298.800     25.1   1041.7  33.6     
1299.000     28.8    885.0  38.9     
1299.200     14.0    817.2  41.6     
1299.400      6.6    711.4  47.0     
1299.600     -4.4    686.0  48.7     
1299.800      3.0    618.2  53.1     
1300.000     25.1    656.3  50.6     
1300.200     36.2    571.6  56.8     
1300.400     21.4    656.3  50.6     
1300.600     25.1    626.7  52.5     
1300.800     15.3    618.2  53.1     
1301.000     36.2    542.0  60.0     
1301.200     14.0    542.0  60.0     
1301.400     17.7    546.2  59.6     
1301.600     25.1    597.0  54.4     
1301.800      3.0    536.4  60.6     
1302.000     10.3    546.2  59.6     
1302.200     32.5    470.0  70.5     
1302.400     10.3    478.5  68.7     
1302.600     21.4    487.0  67.0     
1302.800     10.3    495.4  65.1     
1303.000     28.8    635.2  52.0     
1303.200     10.3    533.5  60.9     
1303.400     17.7    609.8  53.6     
1303.600     14.0    647.9  51.1     
1303.800      6.6    580.1  55.9     
1304.000     17.7    537.8  60.5     
1304.200      6.6    580.1  55.9     
1304.400      6.6    546.2  59.6     
1304.600     17.7    588.6  55.0     
1304.800     10.3    681.7  49.0     
1305.000     -4.4    681.7  49.0     
1305.200      6.6    758.0  44.3     
1305.400     10.3    677.5  49.2     
1305.600     32.5    647.9  51.1     
1305.800     -4.4    724.1  46.2     
1306.000     -4.4    753.7  44.5     
