~Version Information
 VERS.                2.0:  CWLS LOG ASCII STANDARD -VERSION 2.0
 WRAP.                 NO:  ONE LINE PER DEPTH STEP
~WELL INFORMATION BLOCK
#MNEM.UNIT       DATA		            DESCRIPTION OF MNEMONIC
#---------    -------------            ------------------------
 STRT.FT  -2.000                         :START DEPTH
 STOP.FT  1322.400                       :STOP DEPTH
 STEP.FT  0.200                          :STEP    UP_HOLE  
 NULL.    -999.25                        :NULL VALUE
 COMP.    USGS                           :COMPANY
 WELL.    USGS 145                                                     :WELL
 FLD .    INL                            :FIELD\LOCATION
 LOC .                                   :LOCATION
 CNTY.    BUTTE                          :COUNTY
 STAT.    IDAHO                          :STATE
 CTRY.    USA                            :COUNTRY
 SRVC.    USGS                           :SERVICE COMPANY
 DATE.    07/16/2018                     :LOG DATE
 API .   CAL. 2017                           :API NUMBER
 LIC .    USGS                           :LICENSE NUMBER
~Curve Information Block
#MNEM.UNIT      API CODE     Curve Description
#---------    -------------  ------------------------
 DEPT     .FT        00 001 00 00          :  1  DEPTH   
 GAMMA    .API-GR    00 310 00 00          :  2  GAMMA RAY           
 NEUTRON  .API-N     00 000 00 00          :  3  SINGLE NEUTRON      
 POR(NEU) .PERCENT   00 330 00 00          :  4  NEUTRON POROSITY    
~Parameter Information Block
#MNEM.UNIT   Information     Description
#---------- ---------------  ------------------------
 FILE.      PROCESSED          :File Type
 FIID.      9057A              :File Type Identifier
 VERS.      3.60E              :System Version
 SER .      1                  :System Serial Number
 TRUK.      0.25               :Truck Calibration Number
 TOOL.        1077             :Tool Serial Number
 TIME.      1254               :Time    HrHrMinMin
 LAT .                         :Latitude
 LON .                         :Longitude
 LMF .      LSD                :Log Measured From
 DMF .      LSD                :Driller Measured From
 PD  .                         :Permanent Data
 PDEV.FT                       :Elevation Permanent Data
 EKB .FT                       :Elevation Kelly Bushing
 ELEV.FT                       :Elevation DF
 EGL .FT                       :Elevation Ground Level
 DRDP.FT    1368               :Driller's Depth
 CASD.FT    10.                :Casing Diameter
 CASB.FT    1328               :Casing Bottom
 CASX.      SURFACE            :Casing Type
 CAST.IN    .25                :Casing Thickness
 TNOC.                         :Time Circulation Stopped
 LOGU.      USGS               :Logging Unit
 RECB.      MJG                :Recorded By
 OSR1.      9095               :Other Services
 OSR2.       0024              :Other Services
 OSR3.                         :Other Services
 BS  .IN         3.9           :Bit Size
 MST .F     SH                 :Mean Surface Temperature
 TGRD.F                        :Temperature Gradiant
 MAGN.      0                  :Magnetic Declination
 MDEN.      2.65               :Density Matrix
 MATR.      SANDSTONE          :Neutron Matrix
 DTMT.      54                 :Delta T Matrix
 DTFL.                         :Delta T Fluid
 MUDS.      FLOW LINE          :Mud Sample Source
 MRS .      .179               :Mud Resistivity
 MTP .      68.5               :Mud Temperature
 MFRS.                         :Resistivity Mud Filtrate
 MFTP.                         :Temperature Mud Filtrate
 MCRS.                         :Resistivity Mud Cake
 MCTP.                         :Temperature Mud Cake
 FTYP.      AIR                :Fluid Type
 FD  .LB/G    NA               :Mud Weight
 DFV .S                        :Fluid Viscosity
 FPH .                         :Fuild PH
 ELCO.      99999              :Electron Cutoff
 CASL.IN    3.5                :Casing Logger
 LOTD.FT    1328               :Logger TD
 ARTM.      12:20              :Arrival Time
 DPTM.                         :Departure Time
 RIGN.                         :Rig Number
~Other Information
#MNEM.UNIT  Information      Description
#---------- ---------------  ------------------------
# -------------------------- 
~A DEPTH  GAMMA    NEUTRON  POR(NEU) 
# ...
 673.200     10.3   2451.7  10.2     
 673.400      6.6   2527.9   9.4     
 673.600      3.0   2629.5   8.4     
 673.800     14.0   2585.8   8.8     
 674.000     30.0   2782.0   6.9     
 674.200     10.3   2820.1   6.5     
 674.400      3.0   2659.2   8.1     
 674.600     -4.4   2664.8   8.1     
 674.800     17.7   2693.1   7.8     
 675.000     39.9   2498.3   9.7     
 675.200     -0.7   2273.9  12.4     
 675.400     21.4   2515.2   9.6     
 675.600     -0.7   2247.0  12.7     
 675.800     10.3   2206.1  13.2     
 676.000     21.4   2019.8  15.5     
 676.200     10.3   1816.5  18.4     
 676.400     21.4   1706.5  20.0     
 676.600     -4.4   1755.9  19.3     
 676.800     20.2   1731.9  19.6     
 677.000     -0.7   1774.2  19.0     
 677.200     17.7   2024.0  15.4     
 677.400     -8.1   2026.9  15.4     
 677.600     -0.7   2163.8  13.7     
 677.800     15.3   2396.7  10.9     
 678.000     14.0   2324.7  11.7     
 678.200      6.6   2240.0  12.8     
 678.400     32.5   2371.3  11.2     
 678.600      3.0   2201.9  13.2     
 678.800     25.1   2104.5  14.4     
 679.000     -4.4   2176.5  13.5     
 679.200    -11.8   2337.4  11.6     
 679.400     17.7   2070.6  14.8     
 679.600     10.3   2269.6  12.4     
 679.800      3.0   2256.9  12.6     
 680.000     -0.7   2422.1  10.6     
 680.200     -4.4   2314.8  11.9     
 680.400      3.0   2265.4  12.5     
 680.600      5.4   2464.4  10.1     
 680.800     10.3   2464.4  10.1     
 681.000     25.1   2409.4  10.7     
 681.200     -4.4   2360.0  11.3     
 681.400     -4.4   2498.3   9.7     
 681.600      5.4   2464.4  10.1     
 681.800      3.0   2574.5   9.0     
 682.000     10.3   2676.1   7.9     
 682.200     17.7   2667.7   8.0     
 682.400     -9.4   2460.2  10.1     
 682.600     -4.4   2667.7   8.0     
 682.800     -8.1   2629.5   8.4     
 683.000     -4.4   2868.1   6.0     
 683.200     -4.4   2798.9   6.7     
 683.400     25.1   2599.9   8.7     
 683.600      0.5   2718.5   7.5     
 683.800     -4.4   2481.3   9.9     
 684.000     -9.4   2738.2   7.3     
 684.200      6.6   2769.3   7.0     
 684.400      3.0   2269.6  12.4     
 684.600     10.3   2451.7  10.2     
 684.800     -4.4   2760.8   7.1     
 685.000      3.0   2698.7   7.7     
 685.200     -9.4   2722.7   7.5     
 685.400    -11.8   2544.9   9.3     
 685.600      6.6   2621.1   8.5     
 685.800     25.1   2647.9   8.2     
 686.000     -0.7   2621.1   8.5     
 686.200      5.4   2765.0   7.1     
 686.400      3.0   2621.1   8.5     
 686.600      3.0   2803.2   6.7     
 686.800     15.3   2811.6   6.6     
 687.000      6.6   2883.6   5.9     
 687.200      6.6   2731.2   7.4     
 687.400     20.2   2663.4   8.1     
 687.600      6.6   2765.0   7.1     
 687.800     -8.1   2681.8   7.9     
 688.000    -14.3   2896.3   5.7     
 688.200     14.0   2735.4   7.3     
 688.400      0.5   2875.1   6.0     
 688.600     -8.1   2664.8   8.1     
 688.800     10.3   2760.8   7.1     
 689.000     25.1   2875.1   6.0     
 689.200      6.6   2755.2   7.2     
 689.400     14.0   2655.0   8.2     
 689.600    -14.3   2549.1   9.2     
 689.800     -0.7   2631.0   8.4     
 690.000     15.3   2506.8   9.6     
 690.200      6.6   2331.7  11.7     
 690.400     10.3   2532.2   9.4     
 690.600      0.5   2464.4  10.1     
 690.800     10.3   2410.8  10.7     
 691.000     -4.4   2489.8   9.8     
 691.200     -4.4   2218.8  13.0     
 691.400      6.6   2450.3  10.2     
 691.600     -0.7   2426.3  10.5     
 691.800     -9.4   2574.5   9.0     
 692.000     21.4   2348.7  11.5     
 692.200     -9.4   2367.0  11.2     
 692.400     -0.7   2343.0  11.5     
 692.600     10.3   2574.5   9.0     
 692.800     15.3   2447.5  10.3     
 693.000      3.0   2416.4  10.6     
 693.200     -0.7   2405.1  10.8     
 693.400     -9.4   2506.8   9.6     
 693.600      6.6   2467.2  10.0     
 693.800     14.0   2633.8   8.4     
 694.000     -4.4   2731.2   7.4     
 694.200      3.0   2670.5   8.0     
 694.400      6.6   2777.8   6.9     
 694.600     35.0   2907.6   5.6     
 694.800    -11.8   2561.8   9.1     
 695.000     -4.4   2862.4   6.1     
 695.200     -4.4   2574.5   9.0     
 695.400     -4.4   2926.0   5.4     
 695.600      0.5   2743.9   7.3     
 695.800     -4.4   2687.4   7.8     
 696.000     21.4   2841.3   6.3     
 696.200     10.3   2828.6   6.4     
 696.400     -8.1   2629.5   8.4     
 696.600      6.6   2824.3   6.5     
 696.800      0.5   2738.2   7.3     
 697.000     -8.1   2803.2   6.7     
 697.200      3.0   2769.3   7.0     
 697.400     25.1   2839.9   6.3     
 697.600     10.3   2824.3   6.5     
 697.800      5.4   2726.9   7.4     
 698.000    -11.8   2743.9   7.3     
 698.200    -11.8   2684.6   7.9     
 698.400      0.5   2755.2   7.2     
 698.600     14.0   2824.3   6.5     
 698.800      3.0   2701.5   7.7     
 699.000     30.0   2868.1   6.0     
 699.200     28.8   2837.0   6.3     
 699.400     -0.7   2858.2   6.1     
 699.600     15.3   2822.9   6.5     
 699.800      3.0   2769.3   7.0     
 700.000      6.6   2587.2   8.8     
 700.200      0.5   2585.8   8.8     
 700.400     14.0   2409.4  10.7     
 700.600     20.2   2210.3  13.1     
 700.800     -4.4   2004.3  15.7     
 701.000     -0.7   2011.3  15.6     
 701.200      5.4   1863.1  17.7     
 701.400     -4.4   1833.5  18.2     
 701.600     25.1   1770.0  19.1     
 701.800     20.2   1693.8  20.2     
 702.000     14.0   1604.8  21.7     
 702.200     -4.4   1452.4  24.3     
 702.400     30.0   1451.0  24.3     
 702.600      3.0   1651.4  20.9     
 702.800     15.3   1714.9  19.9     
 703.000     21.4   1840.5  18.1     
 703.200     -8.1   1888.5  17.4     
 703.400     -4.4   1765.7  19.1     
 703.600     -0.7   1908.3  17.1     
 703.800     25.1   1808.1  18.5     
 704.000     -4.4   1857.5  17.8     
 704.200    -11.8   1710.7  19.9     
 704.400     10.3   1719.2  19.8     
 704.600     -9.4   1778.4  18.9     
 704.800      3.0   1930.9  16.8     
 705.000    -11.8   1943.6  16.6     
 705.200     -4.4   1908.3  17.1     
 705.400      3.0   1935.1  16.7     
 705.600     10.3   2007.1  15.7     
 705.800      6.6   2083.3  14.6     
 706.000     21.4   1969.0  16.2     
 706.200      0.5   2206.1  13.2     
 706.400     -0.7   1993.0  15.9     
 706.600     17.7   2172.2  13.6     
 706.800     30.0   2563.2   9.1     
 707.000     -0.7   2451.7  10.2     
 707.200     17.7   2235.8  12.8     
 707.400      5.4   2376.9  11.1     
 707.600     -4.4   2278.1  12.3     
 707.800      0.5   2104.5  14.4     
 708.000      6.6   2303.5  12.0     
 708.200      3.0   1973.2  16.1     
 708.400     -9.4   1960.5  16.3     
 708.600      3.0   2038.1  15.2     
 708.800     -4.4   2096.0  14.5     
 709.000     30.0   1846.2  18.0     
 709.200     -0.7   1842.0  18.0     
 709.400     14.0   1689.5  20.3     
 709.600      0.5   1597.8  21.8     
 709.800      3.0   1820.8  18.3     
 710.000     14.0   1740.3  19.5     
 710.200     -9.4   1874.4  17.6     
 710.400     -4.4   2007.1  15.7     
 710.600     -4.4   1770.0  19.1     
 710.800     21.4   1823.6  18.3     
 711.000     -8.1   2087.5  14.6     
 711.200      5.4   1901.2  17.2     
 711.400     -4.4   1851.8  17.9     
 711.600      6.6   1969.0  16.2     
 711.800     -4.4   1913.9  17.0     
 712.000     -0.7   1901.2  17.2     
 712.200     14.0   1774.2  19.0     
 712.400    -14.3   1665.5  20.7     
 712.600     -4.4   1571.0  22.3     
 712.800     -4.4   1744.6  19.4     
 713.000      6.6   1659.9  20.8     
 713.200     -4.4   1511.7  23.3     
 713.400     10.3   1672.6  20.5     
 713.600     -0.7   1727.6  19.7     
 713.800      6.6   1736.1  19.6     
 714.000     10.3   1959.1  16.3     
 714.200     10.3   1913.9  17.0     
 714.400      3.0   2049.4  15.0     
 714.600     10.3   1987.3  15.9     
 714.800     -0.7   1977.5  16.1     
 715.000     -8.1   1897.0  17.2     
 715.200     20.2   1902.6  17.2     
