~Version Information
 VERS.                2.0:  CWLS LOG ASCII STANDARD -VERSION 2.0
 WRAP.                 NO:  ONE LINE PER DEPTH STEP
~WELL INFORMATION BLOCK
#MNEM.UNIT       DATA		            DESCRIPTION OF MNEMONIC
#---------    -------------            ------------------------
 STRT.FT  -2.000                         :START DEPTH
 STOP.FT  1322.400                       :STOP DEPTH
 STEP.FT  0.200                          :STEP    UP_HOLE  
 NULL.    -999.25                        :NULL VALUE
 COMP.    USGS                           :COMPANY
 WELL.    USGS 145                                                     :WELL
 FLD .    INL                            :FIELD\LOCATION
 LOC .                                   :LOCATION
 CNTY.    BUTTE                          :COUNTY
 STAT.    IDAHO                          :STATE
 CTRY.    USA                            :COUNTRY
 SRVC.    USGS                           :SERVICE COMPANY
 DATE.    07/16/2018                     :LOG DATE
 API .   CAL. 2017                           :API NUMBER
 LIC .    USGS                           :LICENSE NUMBER
~Curve Information Block
#MNEM.UNIT      API CODE     Curve Description
#---------    -------------  ------------------------
 DEPT     .FT        00 001 00 00          :  1  DEPTH   
 GAMMA    .API-GR    00 310 00 00          :  2  GAMMA RAY           
 NEUTRON  .API-N     00 000 00 00          :  3  SINGLE NEUTRON      
 POR(NEU) .PERCENT   00 330 00 00          :  4  NEUTRON POROSITY    
~Parameter Information Block
#MNEM.UNIT   Information     Description
#---------- ---------------  ------------------------
 FILE.      PROCESSED          :File Type
 FIID.      9057A              :File Type Identifier
 VERS.      3.60E              :System Version
 SER .      1                  :System Serial Number
 TRUK.      0.25               :Truck Calibration Number
 TOOL.        1077             :Tool Serial Number
 TIME.      1254               :Time    HrHrMinMin
 LAT .                         :Latitude
 LON .                         :Longitude
 LMF .      LSD                :Log Measured From
 DMF .      LSD                :Driller Measured From
 PD  .                         :Permanent Data
 PDEV.FT                       :Elevation Permanent Data
 EKB .FT                       :Elevation Kelly Bushing
 ELEV.FT                       :Elevation DF
 EGL .FT                       :Elevation Ground Level
 DRDP.FT    1368               :Driller's Depth
 CASD.FT    10.                :Casing Diameter
 CASB.FT    1328               :Casing Bottom
 CASX.      SURFACE            :Casing Type
 CAST.IN    .25                :Casing Thickness
 TNOC.                         :Time Circulation Stopped
 LOGU.      USGS               :Logging Unit
 RECB.      MJG                :Recorded By
 OSR1.      9095               :Other Services
 OSR2.       0024              :Other Services
 OSR3.                         :Other Services
 BS  .IN         3.9           :Bit Size
 MST .F     SH                 :Mean Surface Temperature
 TGRD.F                        :Temperature Gradiant
 MAGN.      0                  :Magnetic Declination
 MDEN.      2.65               :Density Matrix
 MATR.      SANDSTONE          :Neutron Matrix
 DTMT.      54                 :Delta T Matrix
 DTFL.                         :Delta T Fluid
 MUDS.      FLOW LINE          :Mud Sample Source
 MRS .      .179               :Mud Resistivity
 MTP .      68.5               :Mud Temperature
 MFRS.                         :Resistivity Mud Filtrate
 MFTP.                         :Temperature Mud Filtrate
 MCRS.                         :Resistivity Mud Cake
 MCTP.                         :Temperature Mud Cake
 FTYP.      AIR                :Fluid Type
 FD  .LB/G    NA               :Mud Weight
 DFV .S                        :Fluid Viscosity
 FPH .                         :Fuild PH
 ELCO.      99999              :Electron Cutoff
 CASL.IN    3.5                :Casing Logger
 LOTD.FT    1328               :Logger TD
 ARTM.      12:20              :Arrival Time
 DPTM.                         :Departure Time
 RIGN.                         :Rig Number
~Other Information
#MNEM.UNIT  Information      Description
#---------- ---------------  ------------------------
# -------------------------- 
~A DEPTH  GAMMA    NEUTRON  POR(NEU) 
# ...
 335.600      0.5   3280.2   2.3     
 335.800      3.0   2883.6   5.9     
 336.000     -8.1   3048.8   4.3     
 336.200     17.7   3197.0   3.0     
 336.400     -9.4   2969.7   5.0     
 336.600     10.3   3205.4   3.0     
 336.800      3.0   3243.5   2.6     
 337.000      3.0   2976.8   4.9     
 337.200     15.3   3048.8   4.3     
 337.400     -4.4   2955.6   5.1     
 337.600     17.7   3082.6   4.0     
 337.800     -4.4   3188.5   3.1     
 338.000      0.5   3031.8   4.5     
 338.200     25.1   2913.3   5.6     
 338.400     -0.7   3048.8   4.3     
 338.600     21.4   3307.0   2.1     
 338.800     -4.4   3088.3   4.0     
 339.000     14.0   3116.5   3.7     
 339.200     10.3   2997.9   4.8     
 339.400     -0.7   3060.0   4.2     
 339.600      0.5   3116.5   3.7     
 339.800      3.0   2942.9   5.3     
 340.000     10.3   3167.3   3.3     
 340.200     -0.7   3285.9   2.3     
 340.400      5.4   3201.2   3.0     
 340.600     -0.7   3019.1   4.6     
 340.800     -0.7   3074.2   4.1     
 341.000     -0.7   2952.8   5.2     
 341.200     10.3   3201.2   3.0     
 341.400     17.7   2828.6   6.4     
 341.600     -8.1   2841.3   6.3     
 341.800     -4.4   2856.8   6.1     
 342.000     -4.4   2638.0   8.3     
 342.200      6.6   2790.5   6.8     
 342.400     21.4   2443.2  10.3     
 342.600     -0.7   2168.0  13.6     
 342.800      0.5   2379.7  11.1     
 343.000     10.3   2062.1  14.9     
 343.200     32.5   2197.6  13.3     
 343.400     84.2   1947.8  16.5     
 343.600     84.2   1880.1  17.5     
 343.800    102.6   2024.0  15.4     
 344.000     91.6   1994.4  15.8     
 344.200     84.2   1947.8  16.5     
 344.400     69.4   1935.1  16.7     
 344.600    121.1   2053.7  15.0     
 344.800     80.5   1901.2  17.2     
 345.000     69.4   1874.4  17.6     
 345.200    117.4   1935.1  16.7     
 345.400     87.9   2104.5  14.4     
 345.600     84.2   1913.9  17.0     
 345.800    103.9   1981.7  16.0     
 346.000     95.3   2062.1  14.9     
 346.200    110.0   2129.9  14.1     
 346.400     87.9   1943.6  16.6     
 346.600     80.5   1846.2  18.0     
 346.800     87.9   1820.8  18.3     
 347.000     91.6   1723.4  19.7     
 347.200     84.2   1655.6  20.8     
 347.400     69.4   1642.9  21.1     
 347.600     76.8   1744.6  19.4     
 347.800     62.0   1753.0  19.3     
 348.000    102.6   1888.5  17.4     
 348.200    128.5   1834.9  18.1     
 348.400    117.4   1875.8  17.5     
 348.600     69.4   1863.1  17.7     
 348.800     62.0   1757.3  19.2     
 349.000     69.4   1942.2  16.6     
 349.200    132.2   1757.3  19.2     
 349.400     65.7   1621.8  21.4     
 349.600     76.8   1672.6  20.5     
 349.800    106.3   1693.8  20.2     
 350.000    102.6   1723.4  19.7     
 350.200     54.6   1626.0  21.3     
 350.400    117.4   2060.7  14.9     
 350.600     54.6   1748.8  19.4     
 350.800     65.7   1782.7  18.9     
 351.000     98.9   1736.1  19.6     
 351.200    113.7   1719.2  19.8     
 351.400     91.6   1672.6  20.5     
 351.600    132.2   1850.4  17.9     
 351.800     58.3   1964.8  16.3     
 352.000    146.9   1705.0  20.0     
 352.200     94.0   1676.8  20.5     
 352.400    102.6   1871.6  17.6     
 352.600    121.1   1659.9  20.8     
 352.800    121.1   1761.5  19.2     
 353.000    113.7   1698.0  20.1     
 353.200    128.5   1816.5  18.4     
 353.400    110.0   1719.2  19.8     
 353.600     98.9   1891.4  17.3     
 353.800    103.9   1630.2  21.3     
 354.000     84.2   1613.3  21.6     
 354.200    113.7   1664.1  20.7     
 354.400     80.5   1846.2  18.0     
 354.600     95.3   1875.8  17.5     
 354.800     69.4   1791.1  18.8     
 355.000    124.8   1977.5  16.1     
 355.200     80.5   1953.5  16.4     
 355.400    113.7   1901.2  17.2     
 355.600     89.1   1888.5  17.4     
 355.800     58.3   1871.6  17.6     
 356.000     95.3   1897.0  17.2     
 356.200     80.5   1926.6  16.8     
 356.400    124.8   2159.5  13.7     
 356.600    113.7   1897.0  17.2     
 356.800    102.6   1930.9  16.8     
 357.000     69.4   1761.5  19.2     
 357.200     98.9   1778.4  18.9     
 357.400     87.9   1837.7  18.1     
 357.600    106.3   2113.0  14.3     
 357.800    102.6   2121.4  14.2     
 358.000     62.0   2320.4  11.8     
 358.200     80.5   2265.4  12.5     
 358.400     73.1   2139.8  14.0     
 358.600     89.1   2138.4  14.0     
 358.800     69.4   2070.6  14.8     
 359.000     95.3   2036.7  15.2     
 359.200     65.7   2227.3  12.9     
 359.400     95.3   2227.3  12.9     
 359.600     95.3   2650.7   8.2     
 359.800     76.8   2536.4   9.3     
 360.000     69.4   2636.6   8.3     
 360.200    102.6   2659.2   8.1     
 360.400     25.1   2481.3   9.9     
 360.600     21.4   2422.1  10.6     
 360.800     14.0   2422.1  10.6     
 361.000     25.1   2345.8  11.5     
 361.200     17.7   2439.0  10.4     
 361.400     17.7   2625.3   8.5     
 361.600     10.3   2553.3   9.2     
 361.800     10.3   2365.6  11.3     
 362.000      6.6   2400.9  10.8     
 362.200      6.6   2460.2  10.1     
 362.400     10.3   2515.2   9.6     
 362.600      6.6   2506.8   9.6     
 362.800     50.9   2434.8  10.4     
 363.000     25.1   2608.4   8.6     
 363.200     17.7   2597.1   8.7     
 363.400      5.4   2650.7   8.2     
 363.600      6.6   2583.0   8.9     
 363.800     28.8   2591.4   8.8     
 364.000      6.6   2858.2   6.1     
 364.200     -4.4   2642.3   8.3     
 364.400     17.7   2532.2   9.4     
 364.600     10.3   2782.0   6.9     
 364.800     10.3   2608.4   8.6     
 365.000     20.2   2870.9   6.0     
 365.200     10.3   2655.0   8.2     
 365.400     25.1   2697.3   7.7     
 365.600     21.4   2633.8   8.4     
 365.800     28.8   2735.4   7.3     
 366.000     -0.7   2633.8   8.4     
 366.200     14.0   2714.2   7.6     
 366.400     25.1   2705.8   7.6     
 366.600     39.9   2647.9   8.2     
 366.800     14.0   2633.8   8.4     
 367.000     -0.7   2697.3   7.7     
 367.200     -8.1   2824.3   6.5     
 367.400      3.0   2739.6   7.3     
 367.600     14.0   2506.8   9.6     
 367.800    -11.8   2633.8   8.4     
 368.000      6.6   2772.1   7.0     
 368.200      5.4   2760.8   7.1     
 368.400     10.3   2777.8   6.9     
 368.600     17.7   2527.9   9.4     
 368.800     25.1   2752.3   7.2     
 369.000      6.6   2671.9   8.0     
 369.200     17.7   2595.7   8.7     
 369.400      3.0   2629.5   8.4     
 369.600     32.5   2585.8   8.8     
 369.800     -4.4   2498.3   9.7     
 370.000     17.7   2621.1   8.5     
 370.200     10.3   2587.2   8.8     
 370.400      3.0   2443.2  10.3     
 370.600     32.5   2676.1   7.9     
 370.800     10.3   2722.7   7.5     
 371.000      6.6   2790.5   6.8     
 371.200     -4.4   2975.4   5.0     
 371.400     25.1   2633.8   8.4     
 371.600      6.6   2566.0   9.0     
 371.800     43.6   2422.1  10.6     
 372.000     10.3   2362.8  11.3     
 372.200     25.1   2570.3   9.0     
 372.400     32.5   2417.8  10.6     
 372.600     10.3   2422.1  10.6     
 372.800     14.0   2354.3  11.4     
 373.000      0.5   2502.5   9.7     
 373.200     21.4   2557.6   9.1     
 373.400     14.0   2379.7  11.1     
 373.600      6.6   2489.8   9.8     
 373.800     39.9   2489.8   9.8     
 374.000     28.8   2621.1   8.5     
 374.200     17.7   2756.6   7.1     
 374.400     -4.4   2574.5   9.0     
 374.600     25.1   2663.4   8.1     
 374.800     -0.7   2794.7   6.8     
 375.000     17.7   2599.9   8.7     
 375.200     10.3   2786.2   6.8     
 375.400      6.6   2837.0   6.3     
 375.600     10.3   2616.8   8.5     
 375.800     17.7   2570.3   9.0     
 376.000      6.6   2506.8   9.6     
 376.200     15.3   2523.7   9.5     
 376.400      6.6   2621.1   8.5     
 376.600     25.1   2578.7   8.9     
 376.800      6.6   2540.6   9.3     
 377.000      6.6   2409.4  10.7     
 377.200     10.3   2536.4   9.3     
 377.400      6.6   2540.6   9.3     
 377.600      3.0   2647.9   8.2     
