~Version Information
 VERS.                2.0:  CWLS LOG ASCII STANDARD -VERSION 2.0
 WRAP.                 NO:  ONE LINE PER DEPTH STEP
~WELL INFORMATION BLOCK
#MNEM.UNIT       DATA		            DESCRIPTION OF MNEMONIC
#---------    -------------            ------------------------
 STRT.FT  -2.000                         :START DEPTH
 STOP.FT  1322.400                       :STOP DEPTH
 STEP.FT  0.200                          :STEP    UP_HOLE  
 NULL.    -999.25                        :NULL VALUE
 COMP.    USGS                           :COMPANY
 WELL.    USGS 145                                                     :WELL
 FLD .    INL                            :FIELD\LOCATION
 LOC .                                   :LOCATION
 CNTY.    BUTTE                          :COUNTY
 STAT.    IDAHO                          :STATE
 CTRY.    USA                            :COUNTRY
 SRVC.    USGS                           :SERVICE COMPANY
 DATE.    07/16/2018                     :LOG DATE
 API .   CAL. 2017                           :API NUMBER
 LIC .    USGS                           :LICENSE NUMBER
~Curve Information Block
#MNEM.UNIT      API CODE     Curve Description
#---------    -------------  ------------------------
 DEPT     .FT        00 001 00 00          :  1  DEPTH   
 GAMMA    .API-GR    00 310 00 00          :  2  GAMMA RAY           
 NEUTRON  .API-N     00 000 00 00          :  3  SINGLE NEUTRON      
 POR(NEU) .PERCENT   00 330 00 00          :  4  NEUTRON POROSITY    
~Parameter Information Block
#MNEM.UNIT   Information     Description
#---------- ---------------  ------------------------
 FILE.      PROCESSED          :File Type
 FIID.      9057A              :File Type Identifier
 VERS.      3.60E              :System Version
 SER .      1                  :System Serial Number
 TRUK.      0.25               :Truck Calibration Number
 TOOL.        1077             :Tool Serial Number
 TIME.      1254               :Time    HrHrMinMin
 LAT .                         :Latitude
 LON .                         :Longitude
 LMF .      LSD                :Log Measured From
 DMF .      LSD                :Driller Measured From
 PD  .                         :Permanent Data
 PDEV.FT                       :Elevation Permanent Data
 EKB .FT                       :Elevation Kelly Bushing
 ELEV.FT                       :Elevation DF
 EGL .FT                       :Elevation Ground Level
 DRDP.FT    1368               :Driller's Depth
 CASD.FT    10.                :Casing Diameter
 CASB.FT    1328               :Casing Bottom
 CASX.      SURFACE            :Casing Type
 CAST.IN    .25                :Casing Thickness
 TNOC.                         :Time Circulation Stopped
 LOGU.      USGS               :Logging Unit
 RECB.      MJG                :Recorded By
 OSR1.      9095               :Other Services
 OSR2.       0024              :Other Services
 OSR3.                         :Other Services
 BS  .IN         3.9           :Bit Size
 MST .F     SH                 :Mean Surface Temperature
 TGRD.F                        :Temperature Gradiant
 MAGN.      0                  :Magnetic Declination
 MDEN.      2.65               :Density Matrix
 MATR.      SANDSTONE          :Neutron Matrix
 DTMT.      54                 :Delta T Matrix
 DTFL.                         :Delta T Fluid
 MUDS.      FLOW LINE          :Mud Sample Source
 MRS .      .179               :Mud Resistivity
 MTP .      68.5               :Mud Temperature
 MFRS.                         :Resistivity Mud Filtrate
 MFTP.                         :Temperature Mud Filtrate
 MCRS.                         :Resistivity Mud Cake
 MCTP.                         :Temperature Mud Cake
 FTYP.      AIR                :Fluid Type
 FD  .LB/G    NA               :Mud Weight
 DFV .S                        :Fluid Viscosity
 FPH .                         :Fuild PH
 ELCO.      99999              :Electron Cutoff
 CASL.IN    3.5                :Casing Logger
 LOTD.FT    1328               :Logger TD
 ARTM.      12:20              :Arrival Time
 DPTM.                         :Departure Time
 RIGN.                         :Rig Number
~Other Information
#MNEM.UNIT  Information      Description
#---------- ---------------  ------------------------
# -------------------------- 
~A DEPTH  GAMMA    NEUTRON  POR(NEU) 
# ...
 420.000     10.3   2868.1   6.0     
 420.200     10.3   2997.9   4.8     
 420.400     39.9   2739.6   7.3     
 420.600      3.0   2752.3   7.2     
 420.800     32.5   3002.2   4.7     
 421.000     17.7   3099.6   3.9     
 421.200      3.0   3078.4   4.1     
 421.400      3.0   2968.3   5.0     
 421.600     25.1   3031.8   4.5     
 421.800     21.4   3044.5   4.4     
 422.000     25.1   3048.8   4.3     
 422.200     28.8   2926.0   5.4     
 422.400     10.3   2854.0   6.2     
 422.600     14.0   2739.6   7.3     
 422.800     17.7   2968.3   5.0     
 423.000     14.0   2688.8   7.8     
 423.200     10.3   2766.5   7.0     
 423.400     43.6   2760.8   7.1     
 423.600     17.7   2959.8   5.1     
 423.800     25.1   2845.5   6.2     
 424.000      3.0   2743.9   7.3     
 424.200     36.2   2811.6   6.6     
 424.400     14.0   2697.3   7.7     
 424.600     32.5   2777.8   6.9     
 424.800      6.6   2409.4  10.7     
 425.000     21.4   2602.7   8.7     
 425.200     21.4   2616.8   8.5     
 425.400     10.3   2443.2  10.3     
 425.600     17.7   2354.3  11.4     
 425.800     25.1   2434.8  10.4     
 426.000     21.4   2295.0  12.1     
 426.200     25.1   2443.2  10.3     
 426.400      3.0   2489.8   9.8     
 426.600     32.5   2478.5   9.9     
 426.800     43.6   2604.1   8.7     
 427.000     30.0   2625.3   8.5     
 427.200     -0.7   2595.7   8.7     
 427.400     14.0   2523.7   9.5     
 427.600     25.1   2532.2   9.4     
 427.800     -0.7   2409.4  10.7     
 428.000     21.4   2417.8  10.6     
 428.200     14.0   2591.4   8.8     
 428.400     10.3   2633.8   8.4     
 428.600     14.0   2362.8  11.3     
 428.800     20.2   2553.3   9.2     
 429.000      3.0   2477.1   9.9     
 429.200     32.5   2731.2   7.4     
 429.400     25.1   2807.4   6.6     
 429.600     14.0   2676.1   7.9     
 429.800     17.7   2854.0   6.2     
 430.000     28.8   2602.7   8.7     
 430.200     10.3   2451.7  10.2     
 430.400     30.0   2384.0  11.0     
 430.600      3.0   2549.1   9.2     
 430.800     36.2   2481.3   9.9     
 431.000     21.4   2574.5   9.0     
 431.200     14.0   2439.0  10.4     
 431.400     28.8   2566.0   9.0     
 431.600     21.4   2619.7   8.5     
 431.800     10.3   2926.0   5.4     
 432.000     25.1   2887.8   5.8     
 432.200     35.0   3091.1   3.9     
 432.400     36.2   2951.4   5.2     
 432.600     17.7   2578.7   8.9     
 432.800     14.0   2807.4   6.6     
 433.000     17.7   2921.7   5.5     
 433.200     -0.7   2930.2   5.4     
 433.400     10.3   2955.6   5.1     
 433.600      6.6   2896.3   5.7     
 433.800     20.2   3027.6   4.5     
 434.000     10.3   3307.0   2.1     
 434.200     17.7   2981.0   4.9     
 434.400     14.0   3197.0   3.0     
 434.600     10.3   3137.7   3.5     
 434.800     10.3   2782.0   6.9     
 435.000     17.7   2913.3   5.6     
 435.200     21.4   3048.8   4.3     
 435.400     20.2   2870.9   6.0     
 435.600     14.0   3264.7   2.4     
 435.800     10.3   3031.8   4.5     
 436.000     39.9   2968.3   5.0     
 436.200     36.2   2896.3   5.7     
 436.400     14.0   2985.2   4.9     
 436.600     43.6   3116.5   3.7     
 436.800     25.1   2794.7   6.8     
 437.000     25.1   2904.8   5.7     
 437.200     49.7   2904.8   5.7     
 437.400     14.0   3010.6   4.6     
 437.600     17.7   3154.6   3.4     
 437.800     21.4   3053.0   4.3     
 438.000     10.3   3086.9   4.0     
 438.200     -8.1   3150.4   3.4     
 438.400     28.8   2783.4   6.9     
 438.600      3.0   3053.0   4.3     
 438.800      5.4   3222.4   2.8     
 439.000     28.8   3074.2   4.1     
 439.200     14.0   2972.5   5.0     
 439.400     14.0   3048.8   4.3     
 439.600     14.0   2875.1   6.0     
 439.800     -4.4   3112.3   3.8     
 440.000     10.3   2811.6   6.6     
 440.200     21.4   3158.8   3.4     
 440.400     20.2   3006.4   4.7     
 440.600     58.3   3154.6   3.4     
 440.800      6.6   3235.1   2.7     
 441.000     39.9   3230.8   2.7     
 441.200     25.1   3116.5   3.7     
 441.400     36.2   3192.7   3.1     
 441.600     14.0   3331.0   1.9     
 441.800     17.7   3256.2   2.5     
 442.000     25.1   3112.3   3.8     
 442.200     35.0   3332.5   1.9     
 442.400     17.7   3277.4   2.3     
 442.600     25.1   3294.3   2.2     
 442.800     21.4   3150.4   3.4     
 443.000     43.6   3099.6   3.9     
 443.200     10.3   3264.7   2.4     
 443.400     21.4   3342.3   1.8     
 443.600      6.6   3192.7   3.1     
 443.800     -9.4   3184.3   3.1     
 444.000     21.4   3125.0   3.7     
 444.200     32.5   2981.0   4.9     
 444.400     36.2   2942.9   5.3     
 444.600     10.3   2892.1   5.8     
 444.800     28.8   2811.6   6.6     
 445.000     43.6   2766.5   7.0     
 445.200     -4.4   2566.0   9.0     
 445.400     28.8   2676.1   7.9     
 445.600      5.4   2710.0   7.6     
 445.800     17.7   3069.9   4.1     
 446.000     21.4   2947.1   5.2     
 446.200     21.4   3048.8   4.3     
 446.400     39.9   3065.7   4.2     
 446.600     21.4   2868.1   6.0     
 446.800     32.5   2790.5   6.8     
 447.000     21.4   2921.7   5.5     
 447.200      5.4   3129.2   3.6     
 447.400      6.6   2917.5   5.5     
 447.600      6.6   2879.4   5.9     
 447.800     10.3   3031.8   4.5     
 448.000     17.7   3222.4   2.8     
 448.200     32.5   2972.5   5.0     
 448.400     -4.4   2930.2   5.4     
 448.600     -4.4   3091.1   3.9     
 448.800     15.3   3137.7   3.5     
 449.000      3.0   3082.6   4.0     
 449.200     36.2   3277.4   2.3     
 449.400     28.8   3209.7   2.9     
 449.600      6.6   2921.7   5.5     
 449.800      6.6   2845.5   6.2     
 450.000     10.3   3003.6   4.7     
 450.200     10.3   3061.5   4.2     
 450.400     10.3   3095.3   3.9     
 450.600     17.7   3086.9   4.0     
 450.800     32.5   3057.2   4.2     
 451.000     21.4   3116.5   3.7     
 451.200     25.1   2989.5   4.8     
 451.400      6.6   3053.0   4.3     
 451.600     17.7   3006.4   4.7     
 451.800      6.6   2885.0   5.9     
 452.000     -0.7   2782.0   6.9     
 452.200     15.3   2837.0   6.3     
 452.400     21.4   2917.5   5.5     
 452.600      3.0   2904.8   5.7     
 452.800     10.3   2807.4   6.6     
 453.000     17.7   3019.1   4.6     
 453.200     10.3   2993.7   4.8     
 453.400     -4.4   2890.7   5.8     
 453.600     28.8   3078.4   4.1     
 453.800      6.6   2726.9   7.4     
 454.000     20.2   3031.8   4.5     
 454.200     28.8   3010.6   4.6     
 454.400     14.0   3137.7   3.5     
 454.600     14.0   2972.5   5.0     
 454.800     28.8   3103.8   3.8     
 455.000     10.3   3173.0   3.2     
 455.200      6.6   3163.1   3.3     
 455.400      6.6   2926.0   5.4     
 455.600     30.0   3141.9   3.5     
 455.800     32.5   2955.6   5.1     
 456.000     21.4   2985.2   4.9     
 456.200     32.5   3158.8   3.4     
 456.400      6.6   3053.0   4.3     
 456.600      6.6   2783.4   6.9     
 456.800      6.6   2879.4   5.9     
 457.000     32.5   2858.2   6.1     
 457.200     36.2   2951.4   5.2     
 457.400     20.2   3006.4   4.7     
 457.600     32.5   3006.4   4.7     
 457.800     14.0   3112.3   3.8     
 458.000     21.4   3209.7   2.9     
 458.200     36.2   2955.6   5.1     
 458.400     17.7   3088.3   4.0     
 458.600     10.3   2938.7   5.3     
 458.800     36.2   3048.8   4.3     
 459.000      5.4   3137.7   3.5     
 459.200     21.4   3171.5   3.2     
 459.400     17.7   3209.7   2.9     
 459.600      3.0   3294.3   2.2     
 459.800     47.3   3252.0   2.5     
 460.000     10.3   3002.2   4.7     
 460.200     21.4   3020.5   4.6     
 460.400     17.7   2985.2   4.9     
 460.600     30.0   2930.2   5.4     
 460.800     17.7   2997.9   4.8     
 461.000     28.8   3137.7   3.5     
 461.200     39.9   3247.8   2.6     
 461.400      3.0   3078.4   4.1     
 461.600      6.6   2955.6   5.1     
 461.800     21.4   3077.0   4.1     
 462.000     25.1   2896.3   5.7     
