~Version Information
 VERS.                2.0:  CWLS LOG ASCII STANDARD -VERSION 2.0
 WRAP.                 NO:  ONE LINE PER DEPTH STEP
~WELL INFORMATION BLOCK
#MNEM.UNIT       DATA		            DESCRIPTION OF MNEMONIC
#---------    -------------            ------------------------
 STRT.FT  -2.000                         :START DEPTH
 STOP.FT  1322.400                       :STOP DEPTH
 STEP.FT  0.200                          :STEP    UP_HOLE  
 NULL.    -999.25                        :NULL VALUE
 COMP.    USGS                           :COMPANY
 WELL.    USGS 145                                                     :WELL
 FLD .    INL                            :FIELD\LOCATION
 LOC .                                   :LOCATION
 CNTY.    BUTTE                          :COUNTY
 STAT.    IDAHO                          :STATE
 CTRY.    USA                            :COUNTRY
 SRVC.    USGS                           :SERVICE COMPANY
 DATE.    07/16/2018                     :LOG DATE
 API .   CAL. 2017                           :API NUMBER
 LIC .    USGS                           :LICENSE NUMBER
~Curve Information Block
#MNEM.UNIT      API CODE     Curve Description
#---------    -------------  ------------------------
 DEPT     .FT        00 001 00 00          :  1  DEPTH   
 GAMMA    .API-GR    00 310 00 00          :  2  GAMMA RAY           
 NEUTRON  .API-N     00 000 00 00          :  3  SINGLE NEUTRON      
 POR(NEU) .PERCENT   00 330 00 00          :  4  NEUTRON POROSITY    
~Parameter Information Block
#MNEM.UNIT   Information     Description
#---------- ---------------  ------------------------
 FILE.      PROCESSED          :File Type
 FIID.      9057A              :File Type Identifier
 VERS.      3.60E              :System Version
 SER .      1                  :System Serial Number
 TRUK.      0.25               :Truck Calibration Number
 TOOL.        1077             :Tool Serial Number
 TIME.      1254               :Time    HrHrMinMin
 LAT .                         :Latitude
 LON .                         :Longitude
 LMF .      LSD                :Log Measured From
 DMF .      LSD                :Driller Measured From
 PD  .                         :Permanent Data
 PDEV.FT                       :Elevation Permanent Data
 EKB .FT                       :Elevation Kelly Bushing
 ELEV.FT                       :Elevation DF
 EGL .FT                       :Elevation Ground Level
 DRDP.FT    1368               :Driller's Depth
 CASD.FT    10.                :Casing Diameter
 CASB.FT    1328               :Casing Bottom
 CASX.      SURFACE            :Casing Type
 CAST.IN    .25                :Casing Thickness
 TNOC.                         :Time Circulation Stopped
 LOGU.      USGS               :Logging Unit
 RECB.      MJG                :Recorded By
 OSR1.      9095               :Other Services
 OSR2.       0024              :Other Services
 OSR3.                         :Other Services
 BS  .IN         3.9           :Bit Size
 MST .F     SH                 :Mean Surface Temperature
 TGRD.F                        :Temperature Gradiant
 MAGN.      0                  :Magnetic Declination
 MDEN.      2.65               :Density Matrix
 MATR.      SANDSTONE          :Neutron Matrix
 DTMT.      54                 :Delta T Matrix
 DTFL.                         :Delta T Fluid
 MUDS.      FLOW LINE          :Mud Sample Source
 MRS .      .179               :Mud Resistivity
 MTP .      68.5               :Mud Temperature
 MFRS.                         :Resistivity Mud Filtrate
 MFTP.                         :Temperature Mud Filtrate
 MCRS.                         :Resistivity Mud Cake
 MCTP.                         :Temperature Mud Cake
 FTYP.      AIR                :Fluid Type
 FD  .LB/G    NA               :Mud Weight
 DFV .S                        :Fluid Viscosity
 FPH .                         :Fuild PH
 ELCO.      99999              :Electron Cutoff
 CASL.IN    3.5                :Casing Logger
 LOTD.FT    1328               :Logger TD
 ARTM.      12:20              :Arrival Time
 DPTM.                         :Departure Time
 RIGN.                         :Rig Number
~Other Information
#MNEM.UNIT  Information      Description
#---------- ---------------  ------------------------
# -------------------------- 
~A DEPTH  GAMMA    NEUTRON  POR(NEU) 
# ...
 251.200     -8.1   2354.3  11.4     
 251.400      3.0   2557.6   9.1     
 251.600     17.7   2518.0   9.5     
 251.800      0.5   2561.8   9.1     
 252.000     -8.1   2451.7  10.2     
 252.200     -4.4   2379.7  11.1     
 252.400     10.3   2529.3   9.4     
 252.600     -4.4   2481.3   9.9     
 252.800     17.7   2502.5   9.7     
 253.000     -4.4   2447.5  10.3     
 253.200      6.6   2326.1  11.7     
 253.400      5.4   2523.7   9.5     
 253.600     -0.7   2379.7  11.1     
 253.800     25.1   2587.2   8.8     
 254.000     10.3   2478.5   9.9     
 254.200     15.3   2422.1  10.6     
 254.400     10.3   2388.2  11.0     
 254.600      3.0   2566.0   9.0     
 254.800     10.3   2557.6   9.1     
 255.000     15.3   2413.6  10.7     
 255.200      6.6   2515.2   9.6     
 255.400     28.8   2511.0   9.6     
 255.600     10.3   2371.3  11.2     
 255.800      5.4   2650.7   8.2     
 256.000     10.3   2515.2   9.6     
 256.200      3.0   2773.5   7.0     
 256.400     10.3   2664.8   8.1     
 256.600     -9.4   2671.9   8.0     
 256.800     17.7   2680.4   7.9     
 257.000     -8.1   2604.1   8.7     
 257.200     17.7   2851.1   6.2     
 257.400      0.5   2494.0   9.8     
 257.600     -0.7   2824.3   6.5     
 257.800      6.6   2591.4   8.8     
 258.000      3.0   2670.5   8.0     
 258.200     -9.4   2837.0   6.3     
 258.400     17.7   2854.0   6.2     
 258.600     21.4   2934.4   5.4     
 258.800     -0.7   2879.4   5.9     
 259.000     -4.4   2896.3   5.7     
 259.200      3.0   3023.3   4.5     
 259.400     25.1   2947.1   5.2     
 259.600      6.6   2856.8   6.1     
 259.800     15.3   2892.1   5.8     
 260.000     17.7   2837.0   6.3     
 260.200     -8.1   2883.6   5.9     
 260.400     21.4   3009.2   4.7     
 260.600      5.4   2968.3   5.0     
 260.800     10.3   2828.6   6.4     
 261.000     17.7   2989.5   4.8     
 261.200      6.6   2851.1   6.2     
 261.400      5.4   2968.3   5.0     
 261.600      3.0   2684.6   7.9     
 261.800     14.0   2511.0   9.6     
 262.000      6.6   2382.5  11.1     
 262.200     20.2   2015.6  15.5     
 262.400      3.0   1947.8  16.5     
 262.600     10.3   1829.3  18.2     
 262.800     21.4   1755.9  19.3     
 263.000     10.3   1710.7  19.9     
 263.200     32.5   1558.3  22.5     
 263.400     28.8   1833.5  18.2     
 263.600      6.6   1682.5  20.4     
 263.800     15.3   1693.8  20.2     
 264.000     14.0   1545.5  22.7     
 264.200     39.9   1765.7  19.1     
 264.400     36.2   2032.5  15.3     
 264.600     25.1   2113.0  14.3     
 264.800     36.2   2121.4  14.2     
 265.000     28.8   2350.1  11.4     
 265.200     -0.7   2540.6   9.3     
 265.400     15.3   2345.8  11.5     
 265.600     17.7   2625.3   8.5     
 265.800     -0.7   2612.6   8.6     
 266.000     17.7   2647.9   8.2     
 266.200      0.5   2680.4   7.9     
 266.400     10.3   2756.6   7.1     
 266.600     21.4   2642.3   8.3     
 266.800     -4.4   2760.8   7.1     
 267.000     -4.4   2917.5   5.5     
 267.200     -8.1   2773.5   7.0     
 267.400     -4.4   2930.2   5.4     
 267.600     -0.7   2738.2   7.3     
 267.800      5.4   2710.0   7.6     
 268.000     10.3   2650.7   8.2     
 268.200      3.0   2743.9   7.3     
 268.400      3.0   2698.7   7.7     
 268.600      0.5   2735.4   7.3     
 268.800     -8.1   2773.5   7.0     
 269.000      3.0   2900.5   5.7     
 269.200      3.0   2851.1   6.2     
 269.400     -4.4   2773.5   7.0     
 269.600     10.3   2875.1   6.0     
 269.800     -0.7   2765.0   7.1     
 270.000     10.3   2930.2   5.4     
 270.200     15.3   2972.5   5.0     
 270.400     -4.4   2938.7   5.3     
 270.600     21.4   2926.0   5.4     
 270.800     36.2   3156.0   3.4     
 271.000     20.2   2760.8   7.1     
 271.200      6.6   2997.9   4.8     
 271.400     10.3   2955.6   5.1     
 271.600     -4.4   2913.3   5.6     
 271.800      5.4   3065.7   4.2     
 272.000     10.3   3167.3   3.3     
 272.200      6.6   2904.8   5.7     
 272.400     -8.1   2839.9   6.3     
 272.600     10.3   3074.2   4.1     
 272.800      3.0   2921.7   5.5     
 273.000      3.0   2858.2   6.1     
 273.200      6.6   3031.8   4.5     
 273.400     10.3   2976.8   4.9     
 273.600     14.0   2887.8   5.8     
 273.800     28.8   2947.1   5.2     
 274.000     -4.4   2885.0   5.9     
 274.200      0.5   2879.4   5.9     
 274.400      3.0   2904.8   5.7     
 274.600      3.0   2866.7   6.0     
 274.800      6.6   3065.7   4.2     
 275.000     30.0   3061.5   4.2     
 275.200     14.0   3053.0   4.3     
 275.400      6.6   2875.1   6.0     
 275.600     17.7   3088.3   4.0     
 275.800      5.4   2875.1   6.0     
 276.000     14.0   2769.3   7.0     
 276.200     -8.1   3002.2   4.7     
 276.400    -11.8   3127.8   3.6     
 276.600     -4.4   2947.1   5.2     
 276.800     -4.4   3044.5   4.4     
 277.000     -0.7   3031.8   4.5     
 277.200     10.3   2896.3   5.7     
 277.400     10.3   2909.0   5.6     
 277.600     -8.1   3095.3   3.9     
 277.800      3.0   2985.2   4.9     
 278.000      3.0   2800.3   6.7     
 278.200      5.4   3112.3   3.8     
 278.400      3.0   3082.6   4.0     
 278.600      3.0   3099.6   3.9     
 278.800     17.7   3077.0   4.1     
 279.000     -9.4   2938.7   5.3     
 279.200     10.3   3048.8   4.3     
 279.400      3.0   2887.8   5.8     
 279.600      6.6   3105.2   3.8     
 279.800      0.5   3133.4   3.6     
 280.000     -4.4   2892.1   5.8     
 280.200     14.0   2930.2   5.4     
 280.400    -11.8   3150.4   3.4     
 280.600      0.5   2942.9   5.3     
 280.800     -8.1   3108.0   3.8     
 281.000     -4.4   2909.0   5.6     
 281.200     -4.4   2958.4   5.1     
 281.400      5.4   2900.5   5.7     
 281.600     -0.7   2760.8   7.1     
 281.800      3.0   2866.7   6.0     
 282.000     17.7   3189.9   3.1     
 282.200     10.3   2930.2   5.4     
 282.400     -0.7   2854.0   6.2     
 282.600      3.0   3036.0   4.4     
 282.800     10.3   2902.0   5.7     
 283.000    -14.3   2832.8   6.4     
 283.200      6.6   3044.5   4.4     
 283.400      6.6   2858.2   6.1     
 283.600     10.3   2896.3   5.7     
 283.800    -14.3   3010.6   4.6     
 284.000      3.0   2714.2   7.6     
 284.200     17.7   3091.1   3.9     
 284.400     -4.4   3184.3   3.1     
 284.600     35.0   3019.1   4.6     
 284.800     10.3   2964.1   5.1     
 285.000     -8.1   3069.9   4.1     
 285.200      3.0   2890.7   5.8     
 285.400     20.2   2875.1   6.0     
 285.600      3.0   2803.2   6.7     
 285.800      6.6   2909.0   5.6     
 286.000     14.0   3093.9   3.9     
 286.200     -4.4   2938.7   5.3     
 286.400     36.2   3141.9   3.5     
 286.600      6.6   3031.8   4.5     
 286.800     21.4   3009.2   4.7     
 287.000      0.5   3023.3   4.5     
 287.200     10.3   3099.6   3.9     
 287.400     17.7   2904.8   5.7     
 287.600     10.3   3122.1   3.7     
 287.800      5.4   3188.5   3.1     
 288.000     21.4   3205.4   3.0     
 288.200     10.3   3002.2   4.7     
 288.400      3.0   3189.9   3.1     
 288.600     20.2   3078.4   4.1     
 288.800     10.3   3014.9   4.6     
 289.000     -0.7   3061.5   4.2     
 289.200     10.3   2992.3   4.8     
 289.400     -4.4   3137.7   3.5     
 289.600     -0.7   3006.4   4.7     
 289.800      3.0   3040.3   4.4     
 290.000      3.0   3127.8   3.6     
 290.200     10.3   3023.3   4.5     
 290.400     14.0   2786.2   6.8     
 290.600      3.0   3010.6   4.6     
 290.800     -4.4   3229.4   2.7     
 291.000      5.4   3078.4   4.1     
 291.200     21.4   2989.5   4.8     
 291.400     -4.4   3065.7   4.2     
 291.600     25.1   3065.7   4.2     
 291.800      0.5   3137.7   3.5     
 292.000     14.0   3146.1   3.5     
 292.200     28.8   3048.8   4.3     
 292.400      6.6   3014.9   4.6     
 292.600     -9.4   2722.7   7.5     
 292.800      6.6   2900.5   5.7     
 293.000     14.0   3061.5   4.2     
 293.200     36.2   2822.9   6.5     
