~Version Information
 VERS.                2.0:  CWLS LOG ASCII STANDARD -VERSION 2.0
 WRAP.                 NO:  ONE LINE PER DEPTH STEP
~WELL INFORMATION BLOCK
#MNEM.UNIT       DATA		            DESCRIPTION OF MNEMONIC
#---------    -------------            ------------------------
 STRT.FT  -2.000                         :START DEPTH
 STOP.FT  1322.400                       :STOP DEPTH
 STEP.FT  0.200                          :STEP    UP_HOLE  
 NULL.    -999.25                        :NULL VALUE
 COMP.    USGS                           :COMPANY
 WELL.    USGS 145                                                     :WELL
 FLD .    INL                            :FIELD\LOCATION
 LOC .                                   :LOCATION
 CNTY.    BUTTE                          :COUNTY
 STAT.    IDAHO                          :STATE
 CTRY.    USA                            :COUNTRY
 SRVC.    USGS                           :SERVICE COMPANY
 DATE.    07/16/2018                     :LOG DATE
 API .   CAL. 2017                           :API NUMBER
 LIC .    USGS                           :LICENSE NUMBER
~Curve Information Block
#MNEM.UNIT      API CODE     Curve Description
#---------    -------------  ------------------------
 DEPT     .FT        00 001 00 00          :  1  DEPTH   
 GAMMA    .API-GR    00 310 00 00          :  2  GAMMA RAY           
 NEUTRON  .API-N     00 000 00 00          :  3  SINGLE NEUTRON      
 POR(NEU) .PERCENT   00 330 00 00          :  4  NEUTRON POROSITY    
~Parameter Information Block
#MNEM.UNIT   Information     Description
#---------- ---------------  ------------------------
 FILE.      PROCESSED          :File Type
 FIID.      9057A              :File Type Identifier
 VERS.      3.60E              :System Version
 SER .      1                  :System Serial Number
 TRUK.      0.25               :Truck Calibration Number
 TOOL.        1077             :Tool Serial Number
 TIME.      1254               :Time    HrHrMinMin
 LAT .                         :Latitude
 LON .                         :Longitude
 LMF .      LSD                :Log Measured From
 DMF .      LSD                :Driller Measured From
 PD  .                         :Permanent Data
 PDEV.FT                       :Elevation Permanent Data
 EKB .FT                       :Elevation Kelly Bushing
 ELEV.FT                       :Elevation DF
 EGL .FT                       :Elevation Ground Level
 DRDP.FT    1368               :Driller's Depth
 CASD.FT    10.                :Casing Diameter
 CASB.FT    1328               :Casing Bottom
 CASX.      SURFACE            :Casing Type
 CAST.IN    .25                :Casing Thickness
 TNOC.                         :Time Circulation Stopped
 LOGU.      USGS               :Logging Unit
 RECB.      MJG                :Recorded By
 OSR1.      9095               :Other Services
 OSR2.       0024              :Other Services
 OSR3.                         :Other Services
 BS  .IN         3.9           :Bit Size
 MST .F     SH                 :Mean Surface Temperature
 TGRD.F                        :Temperature Gradiant
 MAGN.      0                  :Magnetic Declination
 MDEN.      2.65               :Density Matrix
 MATR.      SANDSTONE          :Neutron Matrix
 DTMT.      54                 :Delta T Matrix
 DTFL.                         :Delta T Fluid
 MUDS.      FLOW LINE          :Mud Sample Source
 MRS .      .179               :Mud Resistivity
 MTP .      68.5               :Mud Temperature
 MFRS.                         :Resistivity Mud Filtrate
 MFTP.                         :Temperature Mud Filtrate
 MCRS.                         :Resistivity Mud Cake
 MCTP.                         :Temperature Mud Cake
 FTYP.      AIR                :Fluid Type
 FD  .LB/G    NA               :Mud Weight
 DFV .S                        :Fluid Viscosity
 FPH .                         :Fuild PH
 ELCO.      99999              :Electron Cutoff
 CASL.IN    3.5                :Casing Logger
 LOTD.FT    1328               :Logger TD
 ARTM.      12:20              :Arrival Time
 DPTM.                         :Departure Time
 RIGN.                         :Rig Number
~Other Information
#MNEM.UNIT  Information      Description
#---------- ---------------  ------------------------
# -------------------------- 
~A DEPTH  GAMMA    NEUTRON  POR(NEU) 
# ...
  82.400     14.0   3082.6   4.0     
  82.600     25.1   2642.3   8.3     
  82.800     17.7   2732.6   7.4     
  83.000     25.1   2743.9   7.3     
  83.200      6.6   2722.7   7.5     
  83.400     25.1   2636.6   8.3     
  83.600     25.1   2743.9   7.3     
  83.800     17.7   2786.2   6.8     
  84.000      3.0   2738.2   7.3     
  84.200     35.0   2650.7   8.2     
  84.400      3.0   2856.8   6.1     
  84.600     25.1   3091.1   3.9     
  84.800     14.0   2820.1   6.5     
  85.000     28.8   2687.4   7.8     
  85.200     20.2   2519.5   9.5     
  85.400     14.0   2904.8   5.7     
  85.600     -8.1   2738.2   7.3     
  85.800     35.0   2739.6   7.3     
  86.000     28.8   2789.0   6.8     
  86.200     35.0   2845.5   6.2     
  86.400     28.8   2760.8   7.1     
  86.600     28.8   2839.9   6.3     
  86.800     15.3   2642.3   8.3     
  87.000      6.6   2731.2   7.4     
  87.200     25.1   2450.3  10.2     
  87.400     39.9   2417.8  10.6     
  87.600     14.0   2337.4  11.6     
  87.800     17.7   2447.5  10.3     
  88.000     44.8   2443.2  10.3     
  88.200     32.5   2450.3  10.2     
  88.400     30.0   2447.5  10.3     
  88.600     10.3   2455.9  10.2     
  88.800     17.7   2405.1  10.8     
  89.000      0.5   2561.8   9.1     
  89.200     39.9   2393.8  10.9     
  89.400     30.0   2566.0   9.0     
  89.600     21.4   2604.1   8.7     
  89.800     36.2   2354.3  11.4     
  90.000     25.1   2464.4  10.1     
  90.200     21.4   2358.5  11.3     
  90.400     32.5   2337.4  11.6     
  90.600     49.7   2337.4  11.6     
  90.800     32.5   2337.4  11.6     
  91.000     43.6   2320.4  11.8     
  91.200     20.2   2235.8  12.8     
  91.400     28.8   2348.7  11.5     
  91.600     20.2   2248.5  12.7     
  91.800     21.4   2345.8  11.5     
  92.000     10.3   2433.4  10.4     
  92.200     20.2   2561.8   9.1     
  92.400     43.6   2360.0  11.3     
  92.600     32.5   2578.7   8.9     
  92.800     20.2   2676.1   7.9     
  93.000     54.6   2348.7  11.5     
  93.200     49.7   2489.8   9.8     
  93.400      3.0   2578.7   8.9     
  93.600     39.9   2885.0   5.9     
  93.800     30.0   2684.6   7.9     
  94.000     21.4   3146.1   3.5     
  94.200     10.3   2896.3   5.7     
  94.400     32.5   2845.5   6.2     
  94.600     25.1   2873.7   6.0     
  94.800     35.0   2731.2   7.4     
  95.000     28.8   2870.9   6.0     
  95.200     32.5   2811.6   6.6     
  95.400     25.1   2756.6   7.1     
  95.600     21.4   2732.6   7.4     
  95.800     32.5   2587.2   8.8     
  96.000     39.9   2794.7   6.8     
  96.200      3.0   2839.9   6.3     
  96.400     15.3   2841.3   6.3     
  96.600     10.3   2862.4   6.1     
  96.800      6.6   2856.8   6.1     
  97.000     35.0   2875.1   6.0     
  97.200     21.4   2866.7   6.0     
  97.400     25.1   2755.2   7.2     
  97.600      5.4   2921.7   5.5     
  97.800     14.0   2647.9   8.2     
  98.000     20.2   2909.0   5.6     
  98.200      3.0   2765.0   7.1     
  98.400     36.2   2868.1   6.0     
  98.600     20.2   3099.6   3.9     
  98.800     14.0   3061.5   4.2     
  99.000     10.3   2760.8   7.1     
  99.200      5.4   2951.4   5.2     
  99.400     25.1   2743.9   7.3     
  99.600     20.2   2710.0   7.6     
  99.800     10.3   2739.6   7.3     
 100.000     14.0   2681.8   7.9     
 100.200      5.4   2612.6   8.6     
 100.400     28.8   2845.5   6.2     
 100.600     32.5   2769.3   7.0     
 100.800     44.8   2790.5   6.8     
 101.000     17.7   3139.1   3.5     
 101.200     35.0   2574.5   9.0     
 101.400      3.0   2760.8   7.1     
 101.600     43.6   2743.9   7.3     
 101.800     25.1   2705.8   7.6     
 102.000     21.4   2663.4   8.1     
 102.200      3.0   2647.9   8.2     
 102.400     30.0   2760.8   7.1     
 102.600     32.5   2732.6   7.4     
 102.800     20.2   2739.6   7.3     
 103.000     25.1   2828.6   6.4     
 103.200      6.6   2636.6   8.3     
 103.400     35.0   2748.1   7.2     
 103.600     -8.1   2714.2   7.6     
 103.800      6.6   2726.9   7.4     
 104.000     35.0   2633.8   8.4     
 104.200     17.7   2794.7   6.8     
 104.400     15.3   2786.2   6.8     
 104.600     25.1   2667.7   8.0     
 104.800     10.3   2766.5   7.0     
 105.000     15.3   2820.1   6.5     
 105.200      3.0   3006.4   4.7     
 105.400     28.8   2806.0   6.6     
 105.600     10.3   2815.9   6.5     
 105.800      6.6   2755.2   7.2     
 106.000      0.5   2892.1   5.8     
 106.200     14.0   2892.1   5.8     
 106.400     36.2   2721.3   7.5     
 106.600     10.3   2820.1   6.5     
 106.800     17.7   2837.0   6.3     
 107.000     36.2   2642.3   8.3     
 107.200     10.3   2870.9   6.0     
 107.400     21.4   2907.6   5.6     
 107.600     30.0   2815.9   6.5     
 107.800     17.7   2845.5   6.2     
 108.000     28.8   2907.6   5.6     
 108.200     35.0   2887.8   5.8     
 108.400     32.5   2921.7   5.5     
 108.600     25.1   2839.9   6.3     
 108.800     25.1   2917.5   5.5     
 109.000     17.7   2806.0   6.6     
 109.200      5.4   2655.0   8.2     
 109.400     32.5   2832.8   6.4     
 109.600     17.7   2670.5   8.0     
 109.800     44.8   2752.3   7.2     
 110.000     32.5   2803.2   6.7     
 110.200     50.9   2687.4   7.8     
 110.400     30.0   2667.7   8.0     
 110.600     32.5   2743.9   7.3     
 110.800     20.2   2697.3   7.7     
 111.000     10.3   2862.4   6.1     
 111.200     36.2   2772.1   7.0     
 111.400     35.0   2959.8   5.1     
 111.600     21.4   2803.2   6.7     
 111.800     25.1   2862.4   6.1     
 112.000     -9.4   2794.7   6.8     
 112.200     21.4   2574.5   9.0     
 112.400     25.1   2773.5   7.0     
 112.600     32.5   2968.3   5.0     
 112.800     36.2   3071.3   4.1     
 113.000     -9.4   2879.4   5.9     
 113.200     14.0   2913.3   5.6     
 113.400     17.7   2828.6   6.4     
 113.600     15.3   2989.5   4.8     
 113.800     10.3   2930.2   5.4     
 114.000     49.7   2849.7   6.2     
 114.200     32.5   2955.6   5.1     
 114.400     36.2   3060.0   4.2     
 114.600     49.7   2820.1   6.5     
 114.800     39.9   3065.7   4.2     
 115.000     28.8   3043.1   4.4     
 115.200     20.2   2828.6   6.4     
 115.400     21.4   2670.5   8.0     
 115.600     10.3   2913.3   5.6     
 115.800     17.7   2693.1   7.8     
 116.000     39.9   2800.3   6.7     
 116.200      5.4   2756.6   7.1     
 116.400     25.1   2811.6   6.6     
 116.600     43.6   2777.8   6.9     
 116.800      5.4   2527.9   9.4     
 117.000     36.2   2896.3   5.7     
 117.200     47.3   2621.1   8.5     
 117.400     10.3   2820.1   6.5     
 117.600     39.9   2800.3   6.7     
 117.800     15.3   2735.4   7.3     
 118.000     17.7   2909.0   5.6     
 118.200     10.3   2653.5   8.2     
 118.400     39.9   2680.4   7.9     
 118.600      3.0   2715.6   7.5     
 118.800     39.9   2832.8   6.4     
 119.000     32.5   2904.8   5.7     
 119.200     58.3   2885.0   5.9     
 119.400     25.1   3002.2   4.7     
 119.600     21.4   2760.8   7.1     
 119.800     -0.7   2766.5   7.0     
 120.000     15.3   2782.0   6.9     
 120.200      6.6   2676.1   7.9     
 120.400     20.2   2858.2   6.1     
 120.600     28.8   2612.6   8.6     
 120.800     -4.4   2540.6   9.3     
 121.000     15.3   2616.8   8.5     
 121.200     10.3   2676.1   7.9     
 121.400      3.0   2478.5   9.9     
 121.600     44.8   2468.6  10.0     
 121.800     21.4   2501.1   9.7     
 122.000     25.1   2358.5  11.3     
 122.200     15.3   2168.0  13.6     
 122.400     -8.1   2365.6  11.3     
 122.600      5.4   2180.7  13.5     
 122.800      6.6   2337.4  11.6     
 123.000     17.7   2213.2  13.1     
 123.200     10.3   2269.6  12.4     
 123.400     17.7   2193.4  13.3     
 123.600     47.3   2100.3  14.4     
 123.800     20.2   2163.8  13.7     
 124.000     32.5   2049.4  15.0     
 124.200      5.4   2134.1  14.0     
 124.400      6.6   2151.1  13.8     
