~Version Information
 VERS.                2.0:  CWLS LOG ASCII STANDARD -VERSION 2.0
 WRAP.                 NO:  ONE LINE PER DEPTH STEP
~WELL INFORMATION BLOCK
#MNEM.UNIT       DATA		            DESCRIPTION OF MNEMONIC
#---------    -------------            ------------------------
 STRT.FT  -2.000                         :START DEPTH
 STOP.FT  1322.400                       :STOP DEPTH
 STEP.FT  0.200                          :STEP    UP_HOLE  
 NULL.    -999.25                        :NULL VALUE
 COMP.    USGS                           :COMPANY
 WELL.    USGS 145                                                     :WELL
 FLD .    INL                            :FIELD\LOCATION
 LOC .                                   :LOCATION
 CNTY.    BUTTE                          :COUNTY
 STAT.    IDAHO                          :STATE
 CTRY.    USA                            :COUNTRY
 SRVC.    USGS                           :SERVICE COMPANY
 DATE.    07/16/2018                     :LOG DATE
 API .   CAL. 2017                           :API NUMBER
 LIC .    USGS                           :LICENSE NUMBER
~Curve Information Block
#MNEM.UNIT      API CODE     Curve Description
#---------    -------------  ------------------------
 DEPT     .FT        00 001 00 00          :  1  DEPTH   
 GAMMA    .API-GR    00 310 00 00          :  2  GAMMA RAY           
 NEUTRON  .API-N     00 000 00 00          :  3  SINGLE NEUTRON      
 POR(NEU) .PERCENT   00 330 00 00          :  4  NEUTRON POROSITY    
~Parameter Information Block
#MNEM.UNIT   Information     Description
#---------- ---------------  ------------------------
 FILE.      PROCESSED          :File Type
 FIID.      9057A              :File Type Identifier
 VERS.      3.60E              :System Version
 SER .      1                  :System Serial Number
 TRUK.      0.25               :Truck Calibration Number
 TOOL.        1077             :Tool Serial Number
 TIME.      1254               :Time    HrHrMinMin
 LAT .                         :Latitude
 LON .                         :Longitude
 LMF .      LSD                :Log Measured From
 DMF .      LSD                :Driller Measured From
 PD  .                         :Permanent Data
 PDEV.FT                       :Elevation Permanent Data
 EKB .FT                       :Elevation Kelly Bushing
 ELEV.FT                       :Elevation DF
 EGL .FT                       :Elevation Ground Level
 DRDP.FT    1368               :Driller's Depth
 CASD.FT    10.                :Casing Diameter
 CASB.FT    1328               :Casing Bottom
 CASX.      SURFACE            :Casing Type
 CAST.IN    .25                :Casing Thickness
 TNOC.                         :Time Circulation Stopped
 LOGU.      USGS               :Logging Unit
 RECB.      MJG                :Recorded By
 OSR1.      9095               :Other Services
 OSR2.       0024              :Other Services
 OSR3.                         :Other Services
 BS  .IN         3.9           :Bit Size
 MST .F     SH                 :Mean Surface Temperature
 TGRD.F                        :Temperature Gradiant
 MAGN.      0                  :Magnetic Declination
 MDEN.      2.65               :Density Matrix
 MATR.      SANDSTONE          :Neutron Matrix
 DTMT.      54                 :Delta T Matrix
 DTFL.                         :Delta T Fluid
 MUDS.      FLOW LINE          :Mud Sample Source
 MRS .      .179               :Mud Resistivity
 MTP .      68.5               :Mud Temperature
 MFRS.                         :Resistivity Mud Filtrate
 MFTP.                         :Temperature Mud Filtrate
 MCRS.                         :Resistivity Mud Cake
 MCTP.                         :Temperature Mud Cake
 FTYP.      AIR                :Fluid Type
 FD  .LB/G    NA               :Mud Weight
 DFV .S                        :Fluid Viscosity
 FPH .                         :Fuild PH
 ELCO.      99999              :Electron Cutoff
 CASL.IN    3.5                :Casing Logger
 LOTD.FT    1328               :Logger TD
 ARTM.      12:20              :Arrival Time
 DPTM.                         :Departure Time
 RIGN.                         :Rig Number
~Other Information
#MNEM.UNIT  Information      Description
#---------- ---------------  ------------------------
# -------------------------- 
~A DEPTH  GAMMA    NEUTRON  POR(NEU) 
# ...
 926.400     25.1    487.0  67.0     
 926.600     28.8    415.0  91.6     
 926.800     14.0    461.5  72.3     
 927.000     10.3    448.8  77.2     
 927.200     39.9    643.6  51.4     
 927.400     -4.4    547.6  59.4     
 927.600     14.0    643.6  51.4     
 927.800     10.3    571.6  56.8     
 928.000     28.8    618.2  53.1     
 928.200      3.0    592.8  54.7     
 928.400     -0.7    537.8  60.5     
 928.600     -4.4    618.2  53.1     
 928.800     30.0    635.2  52.0     
 929.000     14.0    558.9  58.2     
 929.200     10.3    635.2  52.0     
 929.400     17.7    707.1  47.3     
 929.600     14.0    719.8  46.5     
 929.800     10.3    889.2  38.7     
 930.000     21.4    918.9  37.7     
 930.200      0.5    935.8  37.1     
 930.400    -15.5    993.7  35.0     
 930.600     14.0   1100.9  31.9     
 930.800     17.7   1274.5  27.8     
 931.000     21.4   1164.5  30.1     
 931.200     47.3   1206.8  29.2     
 931.400     28.8   1388.9  25.4     
 931.600     20.2   1308.4  27.1     
 931.800     14.0   1249.1  28.3     
 932.000    -15.5   1326.8  26.7     
 932.200      6.6   1283.0  27.6     
 932.400      6.6   1283.0  27.6     
 932.600     25.1   1287.3  27.5     
 932.800     -0.7   1342.3  26.4     
 933.000      0.5   1257.6  28.1     
 933.200     10.3   1189.9  29.5     
 933.400      3.0   1202.6  29.3     
 933.600     -4.4   1333.8  26.6     
 933.800     -0.7   1355.0  26.1     
 934.000     -4.4   1249.1  28.3     
 934.200     -0.7   1300.0  27.3     
 934.400     10.3   1308.4  27.1     
 934.600      5.4   1215.3  29.0     
 934.800      6.6   1253.4  28.2     
 935.000     10.3   1106.6  31.7     
 935.200     17.7   1037.4  33.7     
 935.400     32.5   1045.9  33.5     
 935.600     10.3    906.2  38.1     
 935.800     -0.7    762.2  44.1     
 936.000     10.3    677.5  49.2     
 936.200      3.0    563.2  57.7     
 936.400     14.0    705.7  47.4     
 936.600      3.0    622.5  52.8     
 936.800      3.0    592.8  54.7     
 937.000     -0.7    669.0  49.8     
 937.200     -0.7    643.6  51.4     
 937.400      6.6    664.8  50.0     
 937.600     15.3    605.5  53.9     
 937.800     -0.7    542.0  60.0     
 938.000      6.6    677.5  49.2     
 938.200      3.0    707.1  47.3     
 938.400     14.0    694.4  48.1     
 938.600      6.6    690.2  48.4     
 938.800     -0.7    647.9  51.1     
 939.000     10.3    715.6  46.8     
 939.200     21.4    739.6  45.2     
 939.400    -11.8    762.2  44.1     
 939.600      3.0    647.9  51.1     
 939.800      6.6    783.4  43.2     
 940.000     -8.1    741.0  45.1     
 940.200     17.7    796.1  42.6     
 940.400     35.0    914.6  37.8     
 940.600     10.3    940.0  36.9     
 940.800      6.6    931.6  37.2     
 941.000      6.6   1054.4  33.2     
 941.200      6.6   1088.2  32.3     
 941.400     21.4   1156.0  30.3     
 941.600      3.0   1033.2  33.8     
 941.800     10.3   1067.1  32.9     
 942.000     -8.1   1113.6  31.5     
 942.200      6.6   1067.1  32.9     
 942.400     -0.7   1037.4  33.7     
 942.600      3.0   1130.6  31.0     
 942.800     17.7   1007.8  34.6     
 943.000    -15.5   1041.7  33.6     
 943.200     -4.4   1020.5  34.2     
 943.400     25.1   1134.8  30.9     
 943.600     14.0   1088.2  32.3     
 943.800      6.6   1112.2  31.6     
 944.000      3.0   1189.9  29.5     
 944.200     -0.7   1228.0  28.7     
 944.400     28.8   1257.6  28.1     
 944.600     17.7   1236.4  28.6     
 944.800     15.3   1050.1  33.4     
 945.000      3.0   1219.5  28.9     
 945.200     17.7   1315.5  27.0     
 945.400     17.7   1304.2  27.2     
 945.600     25.1   1249.1  28.3     
 945.800     -4.4   1185.6  29.6     
 946.000     -4.4   1181.4  29.7     
 946.200     -4.4   1206.8  29.2     
 946.400     15.3   1261.8  28.1     
 946.600      3.0   1490.5  23.6     
 946.800     14.0   1270.3  27.9     
 947.000      6.6   1257.6  28.1     
 947.200     21.4   1181.4  29.7     
 947.400      3.0   1130.6  31.0     
 947.600    -11.8   1300.0  27.3     
 947.800     10.3   1194.1  29.4     
 948.000     -0.7   1309.8  27.1     
 948.200      6.6   1232.2  28.7     
 948.400      6.6   1232.2  28.7     
 948.600      3.0   1435.5  24.6     
 948.800     14.0   1211.0  29.1     
 949.000     14.0   1291.5  27.4     
 949.200     20.2   1291.5  27.4     
 949.400     28.8   1164.5  30.1     
 949.600     -4.4   1355.0  26.1     
 949.800     17.7   1367.7  25.9     
 950.000     -4.4   1308.4  27.1     
 950.200      3.0   1223.7  28.8     
 950.400     14.0   1287.3  27.5     
 950.600      3.0   1172.9  29.9     
 950.800     20.2   1202.6  29.3     
 951.000     -4.4   1377.6  25.7     
 951.200      3.0   1283.0  27.6     
 951.400     21.4   1219.5  28.9     
 951.600     10.3   1329.6  26.7     
 951.800     21.4   1232.2  28.7     
 952.000      6.6   1240.7  28.5     
 952.200     -9.4   1367.7  25.9     
 952.400     10.3   1228.0  28.7     
 952.600      3.0   1242.1  28.5     
 952.800     14.0   1198.3  29.4     
 953.000      6.6   1228.0  28.7     
 953.200     -4.4   1261.8  28.1     
 953.400     -4.4   1232.2  28.7     
 953.600     20.2   1198.3  29.4     
 953.800      3.0   1194.1  29.4     
 954.000      3.0   1146.1  30.6     
 954.200     -0.7   1211.0  29.1     
 954.400     14.0   1012.0  34.5     
 954.600     -4.4   1105.2  31.8     
 954.800      3.0   1058.6  33.1     
 955.000     14.0    999.3  34.8     
 955.200     20.2    783.4  43.2     
 955.400      3.0    829.9  41.1     
 955.600      3.0    643.6  51.4     
 955.800     14.0    702.9  47.6     
 956.000     10.3    487.0  67.0     
 956.200     17.7    542.0  60.0     
 956.400     28.8    563.2  57.7     
 956.600      0.5    525.1  61.9     
 956.800     17.7    567.4  57.2     
 957.000     -0.7    581.5  55.7     
 957.200     21.4    571.6  56.8     
 957.400     10.3    694.4  48.1     
 957.600     10.3    732.5  45.7     
 957.800      6.6    889.2  38.7     
 958.000      3.0   1016.3  34.3     
 958.200     -9.4   1067.1  32.9     
 958.400     -4.4   1106.6  31.7     
 958.600     14.0   1071.3  32.7     
 958.800     14.0   1228.0  28.7     
 959.000     -0.7   1253.4  28.2     
 959.200     14.0   1067.1  32.9     
 959.400     21.4   1029.0  34.0     
 959.600     10.3    927.3  37.4     
 959.800     10.3    925.9  37.4     
 960.000     -0.7    885.0  38.9     
 960.200     -0.7    868.0  39.5     
 960.400     10.3    711.4  47.0     
 960.600      3.0    774.9  43.6     
 960.800     -4.4    745.3  44.9     
 961.000      3.0    635.2  52.0     
 961.200     -0.7    707.1  47.3     
 961.400      0.5    666.2  50.0     
 961.600     10.3    618.2  53.1     
 961.800      6.6    542.0  60.0     
 962.000     10.3    719.8  46.5     
 962.200     36.2    630.9  52.2     
 962.400     21.4    652.1  50.9     
 962.600     25.1    622.5  52.8     
 962.800     25.1    654.9  50.7     
 963.000      3.0    694.4  48.1     
 963.200     -0.7    694.4  48.1     
 963.400     10.3    846.9  40.3     
 963.600      3.0    829.9  41.1     
 963.800     28.8    829.9  41.1     
 964.000     14.0    766.4  43.9     
 964.200      3.0    918.9  37.7     
 964.400     15.3    920.3  37.6     
 964.600     14.0    944.3  36.7     
 964.800     -0.7    880.8  39.0     
 965.000     21.4    935.8  37.1     
 965.200     -4.4    969.7  35.8     
 965.400     10.3    851.1  40.1     
 965.600     14.0    897.7  38.4     
 965.800     -0.7    745.3  44.9     
 966.000     10.3    893.5  38.6     
 966.200     14.0    868.0  39.5     
 966.400     21.4    889.2  38.7     
 966.600     -0.7    749.5  44.7     
 966.800     28.8    702.9  47.6     
 967.000     21.4    614.0  53.3     
 967.200     25.1    753.7  44.5     
 967.400     30.0    702.9  47.6     
 967.600     28.8    677.5  49.2     
 967.800     39.9    694.4  48.1     
 968.000     17.7    758.0  44.3     
 968.200     50.9    914.6  37.8     
 968.400     14.0    914.6  37.8     
