~Version Information
 VERS.                2.0:  CWLS LOG ASCII STANDARD -VERSION 2.0
 WRAP.                 NO:  ONE LINE PER DEPTH STEP
~WELL INFORMATION BLOCK
#MNEM.UNIT       DATA		            DESCRIPTION OF MNEMONIC
#---------    -------------            ------------------------
 STRT.FT  -2.000                         :START DEPTH
 STOP.FT  1322.400                       :STOP DEPTH
 STEP.FT  0.200                          :STEP    UP_HOLE  
 NULL.    -999.25                        :NULL VALUE
 COMP.    USGS                           :COMPANY
 WELL.    USGS 145                                                     :WELL
 FLD .    INL                            :FIELD\LOCATION
 LOC .                                   :LOCATION
 CNTY.    BUTTE                          :COUNTY
 STAT.    IDAHO                          :STATE
 CTRY.    USA                            :COUNTRY
 SRVC.    USGS                           :SERVICE COMPANY
 DATE.    07/16/2018                     :LOG DATE
 API .   CAL. 2017                           :API NUMBER
 LIC .    USGS                           :LICENSE NUMBER
~Curve Information Block
#MNEM.UNIT      API CODE     Curve Description
#---------    -------------  ------------------------
 DEPT     .FT        00 001 00 00          :  1  DEPTH   
 GAMMA    .API-GR    00 310 00 00          :  2  GAMMA RAY           
 NEUTRON  .API-N     00 000 00 00          :  3  SINGLE NEUTRON      
 POR(NEU) .PERCENT   00 330 00 00          :  4  NEUTRON POROSITY    
~Parameter Information Block
#MNEM.UNIT   Information     Description
#---------- ---------------  ------------------------
 FILE.      PROCESSED          :File Type
 FIID.      9057A              :File Type Identifier
 VERS.      3.60E              :System Version
 SER .      1                  :System Serial Number
 TRUK.      0.25               :Truck Calibration Number
 TOOL.        1077             :Tool Serial Number
 TIME.      1254               :Time    HrHrMinMin
 LAT .                         :Latitude
 LON .                         :Longitude
 LMF .      LSD                :Log Measured From
 DMF .      LSD                :Driller Measured From
 PD  .                         :Permanent Data
 PDEV.FT                       :Elevation Permanent Data
 EKB .FT                       :Elevation Kelly Bushing
 ELEV.FT                       :Elevation DF
 EGL .FT                       :Elevation Ground Level
 DRDP.FT    1368               :Driller's Depth
 CASD.FT    10.                :Casing Diameter
 CASB.FT    1328               :Casing Bottom
 CASX.      SURFACE            :Casing Type
 CAST.IN    .25                :Casing Thickness
 TNOC.                         :Time Circulation Stopped
 LOGU.      USGS               :Logging Unit
 RECB.      MJG                :Recorded By
 OSR1.      9095               :Other Services
 OSR2.       0024              :Other Services
 OSR3.                         :Other Services
 BS  .IN         3.9           :Bit Size
 MST .F     SH                 :Mean Surface Temperature
 TGRD.F                        :Temperature Gradiant
 MAGN.      0                  :Magnetic Declination
 MDEN.      2.65               :Density Matrix
 MATR.      SANDSTONE          :Neutron Matrix
 DTMT.      54                 :Delta T Matrix
 DTFL.                         :Delta T Fluid
 MUDS.      FLOW LINE          :Mud Sample Source
 MRS .      .179               :Mud Resistivity
 MTP .      68.5               :Mud Temperature
 MFRS.                         :Resistivity Mud Filtrate
 MFTP.                         :Temperature Mud Filtrate
 MCRS.                         :Resistivity Mud Cake
 MCTP.                         :Temperature Mud Cake
 FTYP.      AIR                :Fluid Type
 FD  .LB/G    NA               :Mud Weight
 DFV .S                        :Fluid Viscosity
 FPH .                         :Fuild PH
 ELCO.      99999              :Electron Cutoff
 CASL.IN    3.5                :Casing Logger
 LOTD.FT    1328               :Logger TD
 ARTM.      12:20              :Arrival Time
 DPTM.                         :Departure Time
 RIGN.                         :Rig Number
~Other Information
#MNEM.UNIT  Information      Description
#---------- ---------------  ------------------------
# -------------------------- 
~A DEPTH  GAMMA    NEUTRON  POR(NEU) 
# ...
 504.400     10.3   3133.4   3.6     
 504.600     10.3   3065.7   4.2     
 504.800     -0.7   2790.5   6.8     
 505.000     -4.4   3006.4   4.7     
 505.200      5.4   3074.2   4.1     
 505.400      3.0   2955.6   5.1     
 505.600    -11.8   2887.8   5.8     
 505.800     28.8   3108.0   3.8     
 506.000      3.0   2964.1   5.1     
 506.200      6.6   3171.5   3.2     
 506.400     -4.4   3173.0   3.2     
 506.600     10.3   2790.5   6.8     
 506.800     10.3   3002.2   4.7     
 507.000      5.4   3065.7   4.2     
 507.200     -0.7   2693.1   7.8     
 507.400     25.1   2769.3   7.0     
 507.600      6.6   2896.3   5.7     
 507.800     28.8   2693.1   7.8     
 508.000     10.3   2924.5   5.5     
 508.200     -0.7   2705.8   7.6     
 508.400     -0.7   2909.0   5.6     
 508.600     14.0   2688.8   7.8     
 508.800      0.5   3099.6   3.9     
 509.000      3.0   2934.4   5.4     
 509.200     32.5   2926.0   5.4     
 509.400      3.0   2993.7   4.8     
 509.600     14.0   2972.5   5.0     
 509.800      3.0   2851.1   6.2     
 510.000      3.0   2904.8   5.7     
 510.200     14.0   2820.1   6.5     
 510.400    -14.3   2807.4   6.6     
 510.600      6.6   2972.5   5.0     
 510.800     28.8   3133.4   3.6     
 511.000     10.3   2938.7   5.3     
 511.200     10.3   2930.2   5.4     
 511.400     -8.1   2811.6   6.6     
 511.600     -0.7   2722.7   7.5     
 511.800     17.7   2566.0   9.0     
 512.000     10.3   2591.4   8.8     
 512.200      0.5   2337.4  11.6     
 512.400     -4.4   2121.4  14.2     
 512.600     54.6   2053.7  15.0     
 512.800     21.4   2015.6  15.5     
 513.000     25.1   1969.0  16.2     
 513.200     32.5   1840.5  18.1     
 513.400     43.6   2096.0  14.5     
 513.600     47.3   2256.9  12.6     
 513.800     64.5   2307.7  11.9     
 514.000     58.3   2379.7  11.1     
 514.200     17.7   2269.6  12.4     
 514.400     44.8   2223.0  13.0     
 514.600     17.7   2057.9  14.9     
 514.800     10.3   2231.5  12.9     
 515.000     15.3   1976.0  16.1     
 515.200      3.0   2333.1  11.6     
 515.400      6.6   2231.5  12.9     
 515.600     20.2   2455.9  10.2     
 515.800     10.3   2430.5  10.5     
 516.000     21.4   2409.4  10.7     
 516.200     25.1   2303.5  12.0     
 516.400     14.0   2337.4  11.6     
 516.600     21.4   2196.2  13.3     
 516.800     25.1   2566.0   9.0     
 517.000     21.4   2422.1  10.6     
 517.200      0.5   2642.3   8.3     
 517.400     10.3   2659.2   8.1     
 517.600     17.7   2900.5   5.7     
 517.800     20.2   2722.7   7.5     
 518.000     -4.4   2722.7   7.5     
 518.200      3.0   2769.3   7.0     
 518.400     35.0   2529.3   9.4     
 518.600     32.5   2765.0   7.1     
 518.800     21.4   2671.9   8.0     
 519.000     25.1   2773.5   7.0     
 519.200     32.5   2704.4   7.7     
 519.400     14.0   2633.8   8.4     
 519.600      0.5   2739.6   7.3     
 519.800     14.0   2735.4   7.3     
 520.000     17.7   2518.0   9.5     
 520.200     20.2   2748.1   7.2     
 520.400     -0.7   2790.5   6.8     
 520.600     28.8   2726.9   7.4     
 520.800     20.2   2841.3   6.3     
 521.000     25.1   2680.4   7.9     
 521.200     21.4   2851.1   6.2     
 521.400     20.2   2739.6   7.3     
 521.600     21.4   2748.1   7.2     
 521.800     10.3   2738.2   7.3     
 522.000     20.2   3006.4   4.7     
 522.200      6.6   2790.5   6.8     
 522.400      6.6   2687.4   7.8     
 522.600     20.2   2671.9   8.0     
 522.800      6.6   2921.7   5.5     
 523.000     25.1   2885.0   5.9     
 523.200     -0.7   2815.9   6.5     
 523.400     10.3   2687.4   7.8     
 523.600     15.3   2485.6   9.8     
 523.800     -0.7   2570.3   9.0     
 524.000     21.4   2360.0  11.3     
 524.200     39.9   2358.5  11.3     
 524.400     10.3   2451.7  10.2     
 524.600     14.0   2292.2  12.1     
 524.800      5.4   2464.4  10.1     
 525.000     21.4   2790.5   6.8     
 525.200     10.3   2862.4   6.1     
 525.400     25.1   2930.2   5.4     
 525.600     25.1   2773.5   7.0     
 525.800     28.8   2947.1   5.2     
 526.000      5.4   2811.6   6.6     
 526.200      3.0   3095.3   3.9     
 526.400     14.0   2952.8   5.2     
 526.600     49.7   2985.2   4.9     
 526.800      6.6   3027.6   4.5     
 527.000     36.2   2935.8   5.3     
 527.200     15.3   2752.3   7.2     
 527.400     10.3   2879.4   5.9     
 527.600      3.0   2749.5   7.2     
 527.800     39.9   2968.3   5.0     
 528.000     14.0   3006.4   4.7     
 528.200     21.4   2845.5   6.2     
 528.400      0.5   2964.1   5.1     
 528.600     21.4   3154.6   3.4     
 528.800     14.0   3127.8   3.6     
 529.000     35.0   3044.5   4.4     
 529.200      6.6   2918.9   5.5     
 529.400     15.3   3031.8   4.5     
 529.600     -8.1   2828.6   6.4     
 529.800      3.0   2591.4   8.8     
 530.000     20.2   2828.6   6.4     
 530.200     32.5   2578.7   8.9     
 530.400     14.0   2580.1   8.9     
 530.600     20.2   2731.2   7.4     
 530.800     17.7   2472.9  10.0     
 531.000     -0.7   2580.1   8.9     
 531.200     15.3   2629.5   8.4     
 531.400     14.0   2710.0   7.6     
 531.600      3.0   2873.7   6.0     
 531.800      5.4   2824.3   6.5     
 532.000     10.3   2900.5   5.7     
 532.200      6.6   2749.5   7.2     
 532.400     20.2   2837.0   6.3     
 532.600     32.5   2858.2   6.1     
 532.800     28.8   2512.4   9.6     
 533.000     20.2   2997.9   4.8     
 533.200     -0.7   2756.6   7.1     
 533.400      3.0   2760.8   7.1     
 533.600     10.3   2917.5   5.5     
 533.800      3.0   2837.0   6.3     
 534.000     10.3   2839.9   6.3     
 534.200     20.2   2714.2   7.6     
 534.400     14.0   3048.8   4.3     
 534.600     14.0   2766.5   7.0     
 534.800     20.2   2790.5   6.8     
 535.000     25.1   2866.7   6.0     
 535.200      3.0   2879.4   5.9     
 535.400     39.9   2858.2   6.1     
 535.600     -0.7   3020.5   4.6     
 535.800     10.3   2900.5   5.7     
 536.000     15.3   2739.6   7.3     
 536.200     -0.7   2873.7   6.0     
 536.400     21.4   2748.1   7.2     
 536.600      5.4   2765.0   7.1     
 536.800     36.2   2625.3   8.5     
 537.000     10.3   2701.5   7.7     
 537.200     10.3   2570.3   9.0     
 537.400     36.2   2292.2  12.1     
 537.600     25.1   2286.6  12.2     
 537.800     21.4   2176.5  13.5     
 538.000     14.0   2032.5  15.3     
 538.200     15.3   1994.4  15.8     
 538.400     -0.7   1850.4  17.9     
 538.600     17.7   1597.8  21.8     
 538.800     10.3   1719.2  19.8     
 539.000     32.5   1816.5  18.4     
 539.200     17.7   1936.5  16.7     
 539.400      0.5   2244.2  12.7     
 539.600     14.0   2172.2  13.6     
 539.800     10.3   2354.3  11.4     
 540.000      5.4   2206.1  13.2     
 540.200     25.1   2252.7  12.6     
 540.400     14.0   2275.3  12.3     
 540.600     35.0   2290.8  12.2     
 540.800     17.7   2523.7   9.5     
 541.000     10.3   2275.3  12.3     
 541.200     10.3   2392.4  10.9     
 541.400     20.2   2244.2  12.7     
 541.600     14.0   2439.0  10.4     
 541.800     25.1   2485.6   9.8     
 542.000     14.0   2464.4  10.1     
 542.200     15.3   2478.5   9.9     
 542.400     17.7   2494.0   9.8     
 542.600     14.0   2400.9  10.8     
 542.800      6.6   2461.6  10.1     
 543.000      6.6   2566.0   9.0     
 543.200      0.5   2602.7   8.7     
 543.400     17.7   2489.8   9.8     
 543.600     39.9   2180.7  13.5     
 543.800     10.3   2512.4   9.6     
 544.000     -0.7   2367.0  11.2     
 544.200     44.8   2290.8  12.2     
 544.400     14.0   2326.1  11.7     
 544.600      6.6   2532.2   9.4     
 544.800     21.4   2532.2   9.4     
 545.000     17.7   2535.0   9.4     
 545.200     -4.4   2422.1  10.6     
 545.400      6.6   2502.5   9.7     
 545.600     10.3   2721.3   7.5     
 545.800     17.7   2489.8   9.8     
 546.000     49.7   2494.0   9.8     
 546.200     14.0   2235.8  12.8     
 546.400     -0.7   2328.9  11.7     
