~Version Information
 VERS.                2.0:  CWLS LOG ASCII STANDARD -VERSION 2.0
 WRAP.                 NO:  ONE LINE PER DEPTH STEP
~WELL INFORMATION BLOCK
#MNEM.UNIT       DATA		            DESCRIPTION OF MNEMONIC
#---------    -------------            ------------------------
 STRT.FT  -2.200                         :START DEPTH
 STOP.FT  1323.200                       :STOP DEPTH
 STEP.FT  0.200                          :STEP    UP_HOLE  
 NULL.    -999.25                        :NULL VALUE
 COMP.    USGS                           :COMPANY
 WELL.    USGS 145                                                     :WELL
 FLD .    INL                            :FIELD\LOCATION
 LOC .                                   :LOCATION
 CNTY.    BUTTE                          :COUNTY
 STAT.    IDAHO                          :STATE
 CTRY.    USA                            :COUNTRY
 SRVC.    USGS                           :SERVICE COMPANY
 DATE.    07/16/2018                     :LOG DATE
 API .   CAL. 2017                           :API NUMBER
 LIC .    USGS                           :LICENSE NUMBER
~Curve Information Block
#MNEM.UNIT      API CODE     Curve Description
#---------    -------------  ------------------------
 DEPT     .FT        00 001 00 00          :  1  DEPTH   
 DEN(SS)  .CPS       00 350 00 00          :  2  SHORT SPACED DENS   
 DEN(LS)  .CPS       00 350 00 00          :  3  LONG SPACED DENSITY 
~Parameter Information Block
#MNEM.UNIT   Information     Description
#---------- ---------------  ------------------------
 FILE.      PROCESSED          :File Type
 FIID.      0024A              :File Type Identifier
 VERS.      3.60E              :System Version
 SER .      1                  :System Serial Number
 TRUK.      0.25               :Truck Calibration Number
 TOOL.         776             :Tool Serial Number
 TIME.      1403               :Time    HrHrMinMin
 LAT .                         :Latitude
 LON .                         :Longitude
 LMF .      LSD                :Log Measured From
 DMF .      LSD                :Driller Measured From
 PD  .                         :Permanent Data
 PDEV.FT                       :Elevation Permanent Data
 EKB .FT                       :Elevation Kelly Bushing
 ELEV.FT                       :Elevation DF
 EGL .FT                       :Elevation Ground Level
 DRDP.FT    1368               :Driller's Depth
 CASD.FT    10.                :Casing Diameter
 CASB.FT    1328               :Casing Bottom
 CASX.      SURFACE            :Casing Type
 CAST.IN    .25                :Casing Thickness
 TNOC.                         :Time Circulation Stopped
 LOGU.      USGS               :Logging Unit
 RECB.      MJG                :Recorded By
 OSR1.      9095               :Other Services
 OSR2.       9057              :Other Services
 OSR3.                         :Other Services
 BS  .IN         3.9           :Bit Size
 MST .F     SH                 :Mean Surface Temperature
 TGRD.F                        :Temperature Gradiant
 MAGN.      0                  :Magnetic Declination
 MDEN.      2.65               :Density Matrix
 MATR.      SANDSTONE          :Neutron Matrix
 DTMT.      54                 :Delta T Matrix
 DTFL.                         :Delta T Fluid
 MUDS.      FLOW LINE          :Mud Sample Source
 MRS .      .179               :Mud Resistivity
 MTP .      68.5               :Mud Temperature
 MFRS.                         :Resistivity Mud Filtrate
 MFTP.                         :Temperature Mud Filtrate
 MCRS.                         :Resistivity Mud Cake
 MCTP.                         :Temperature Mud Cake
 FTYP.      AIR                :Fluid Type
 FD  .LB/G    NA               :Mud Weight
 DFV .S                        :Fluid Viscosity
 FPH .                         :Fuild PH
 ELCO.      99999              :Electron Cutoff
 CASL.IN    3.5                :Casing Logger
 LOTD.FT    1328               :Logger TD
 ARTM.      12:20              :Arrival Time
 DPTM.                         :Departure Time
 RIGN.                         :Rig Number
~Other Information
#MNEM.UNIT  Information      Description
#---------- ---------------  ------------------------
# -------------------------- 
~A DEPTH  DEN(SS) DEN(LS) 
  -2.200  -999.25 -999.25 
  -2.000  -999.25 -999.25 
  -1.800  -999.25 -999.25 
  -1.600  -999.25 -999.25 
  -1.400  -999.25 -999.25 
  -1.200  -999.25 -999.25 
  -1.000  -999.25 -999.25 
  -0.800  -999.25 -999.25 
  -0.600  -999.25 -999.25 
  -0.400  -999.25 -999.25 
  -0.200  -999.25 -999.25 
   0.000  -999.25 -999.25 
   0.200  -999.25 -999.25 
   0.400  -999.25 -999.25 
   0.600  -999.25 -999.25 
   0.800  -999.25 -999.25 
   1.000  -999.25 -999.25 
   1.200  -999.25 -999.25 
   1.400  -999.25 -999.25 
   1.600  -999.25 -999.25 
   1.800  -999.25 -999.25 
   2.000  -999.25 -999.25 
   2.200  -999.25 -999.25 
   2.400  -999.25 -999.25 
   2.600  -999.25 -999.25 
   2.800  -999.25 18502.50
   3.000  -999.25 18410.00
   3.200  155425.00 18397.50
   3.400  155667.50 17983.33
   3.600  154772.50 18205.00
   3.800  155616.67 18540.00
   4.000  154632.50 18027.50
   4.200  155327.50 17575.00
   4.400  154817.50 17673.33
   4.600  154962.50 17695.00
   4.800  154806.67 17542.50
   5.000  154785.00 17932.50
   5.200  154010.00 17772.50
   5.400  154317.50 17750.00
   5.600  153765.00 17705.00
   5.800  154680.00 17767.50
   6.000  154602.50 17547.50
   6.200  153827.50 17240.00
   6.400  155002.50 17530.00
   6.600  154135.00 17432.50
   6.800  155080.00 17625.00
   7.000  154020.00 17710.00
   7.200  154640.00 17412.50
   7.400  154447.50 17750.00
   7.600  154182.50 17635.00
   7.800  154596.67 17755.00
   8.000  154260.00 17700.00
   8.200  154197.50 17210.00
   8.400  154672.50 18043.33
   8.600  154767.50 17322.50
   8.800  154056.67 17420.00
   9.000  155130.00 17575.00
   9.200  153810.00 18057.50
   9.400  153917.50 17983.33
   9.600  154262.50 18210.00
   9.800  154086.67 18317.50
  10.000  153727.50 18027.50
  10.200  153785.00 17556.67
  10.400  153812.50 17710.00
  10.600  153510.00 18142.50
  10.800  153745.00 18392.50
  11.000  153652.50 17755.00
  11.200  154022.50 18013.33
  11.400  154235.00 18165.00
  11.600  153353.33 17835.00
  11.800  153122.50 17757.50
  12.000  153992.50 17707.50
  12.200  154007.50 17866.67
  12.400  154295.00 17695.00
  12.600  153836.67 17572.50
  12.800  154422.50 17537.50
  13.000  153167.50 17542.50
  13.200  152840.00 17823.33
  13.400  153415.00 17880.00
  13.600  153563.33 17930.00
  13.800  153147.50 18055.00
  14.000  153530.00 17470.00
  14.200  153985.00 17796.67
  14.400  152755.00 18105.00
  14.600  153400.00 17670.00
  14.800  153895.00 17877.50
  15.000  153565.00 17712.50
  15.200  153605.00 17790.00
  15.400  152842.50 17952.50
  15.600  154453.33 17842.50
  15.800  153610.00 17725.00
  16.000  153380.00 17582.50
  16.200  153480.00 17833.33
  16.400  154295.00 17575.00
  16.600  152966.67 17705.00
  16.800  152770.00 17587.50
  17.000  153602.50 17255.00
  17.200  153302.50 18206.67
  17.400  153695.00 17687.50
  17.600  153206.67 17402.50
  17.800  153307.50 17987.50
  18.000  153042.50 17812.50
  18.200  153665.00 18106.67
  18.400  153442.50 17935.00
  18.600  153360.00 17857.50
  18.800  152955.00 17877.50
  19.000  154325.00 17636.67
  19.200  153225.00 17870.00
  19.400  153730.00 17812.50
  19.600  153165.00 17935.00
  19.800  153245.00 17900.00
  20.000  152872.50 18426.67
  20.200  153980.00 17957.50
  20.400  154726.67 17415.00
  20.600  152895.00 17982.50
  20.800  152595.00 17612.50
  21.000  153365.00 17903.33
  21.200  153100.00 17750.00
  21.400  152933.33 17882.50
  21.600  152532.50 17680.00
  21.800  153205.00 17767.50
  22.000  153560.00 18003.33
  22.200  153742.50 17975.00
  22.400  153186.67 17675.00
  22.600  153082.50 17735.00
  22.800  152862.50 17555.00
  23.000  153005.00 18120.00
  23.200  153167.50 17977.50
  23.400  152590.00 17817.50
  23.600  152927.50 17952.50
  23.800  152595.00 17787.50
  24.000  153125.00 17720.00
  24.200  153782.50 17802.50
  24.400  152703.33 17147.50
  24.600  152707.50 17820.00
  24.800  152600.00 17657.50
  25.000  152485.00 18030.00
  25.200  152575.00 17927.50
  25.400  153370.00 17835.00
  25.600  152860.00 17930.00
  25.800  152612.50 18262.50
  26.000  152782.50 18173.33
  26.200  152805.00 18097.50
  26.400  152763.33 17550.00
  26.600  152832.50 17622.50
  26.800  151960.00 18182.50
  27.000  151902.50 17930.00
  27.200  152335.00 18220.00
  27.400  152000.00 17642.50
  27.600  152450.00 17995.00
  27.800  152360.00 18116.67
  28.000  152080.00 17902.50
  28.200  152963.33 17775.00
  28.400  151990.00 17815.00
  28.600  152250.00 17730.00
  28.800  152407.50 17813.33
  29.000  151920.00 17772.50
  29.200  152176.67 17815.00
  29.400  151997.50 17937.50
  29.600  151720.00 18175.00
  29.800  152322.50 18263.33
  30.000  152195.00 18002.50
  30.200  151813.33 17892.50
  30.400  152070.00 17860.00
  30.600  152530.00 17755.00
  30.800  151987.50 18003.33
  31.000  152455.00 18320.00
  31.200  152596.67 18390.00
  31.400  151760.00 17560.00
  31.600  151307.50 18387.50
  31.800  152167.50 18246.67
  32.000  151800.00 18270.00
  32.200  152623.33 18042.50
  32.400  151712.50 18385.00
  32.600  151077.50 17946.67
  32.800  151520.00 18147.50
  33.000  151780.00 18142.50
  33.200  151535.00 18355.00
  33.400  151332.50 17992.50
  33.600  150692.50 18480.00
  33.800  151105.00 18347.50
  34.000  151516.67 17792.50
  34.200  151322.50 18010.00
  34.400  151682.50 18190.00
  34.600  151317.50 17783.33
  34.800  150875.00 18625.00
  35.000  151843.33 18227.50
  35.200  149902.50 18655.00
  35.400  151270.00 18342.50
  35.600  150932.50 18496.67
  35.800  151035.00 18605.00
  36.000  151190.00 18697.50
  36.200  151232.50 19150.00
  36.400  151555.00 19207.50
  36.600  151030.00 18646.67
  36.800  151675.00 19030.00
  37.000  151370.00 18945.00
  37.200  151315.00 18735.00
  37.400  151620.00 18587.50
  37.600  151037.50 18693.33
  37.800  151470.00 19097.50
  38.000  152426.67 18930.00
  38.200  152007.50 19027.50
  38.400  151235.00 18832.50
  38.600  151720.00 18890.00
  38.800  151830.00 18870.00
  39.000  151033.33 19145.00
  39.200  151312.50 18892.50
  39.400  151795.00 19017.50
  39.600  151652.50 18950.00
  39.800  152007.50 18792.50
  40.000  151813.33 19137.50
  40.200  151675.00 19047.50
  40.400  151365.00 18900.00
  40.600  152720.00 19220.00
  40.800  151882.50 18697.50
  41.000  151496.67 19187.50
  41.200  151582.50 19122.50
  41.400  152240.00 18780.00
  41.600  152140.00 18790.00
  41.800  152063.33 18690.00
  42.000  152250.00 18907.50
  42.200  151542.50 19142.50
  42.400  152742.50 19173.33
  42.600  152062.50 18982.50
  42.800  151766.67 19005.00
  43.000  151630.00 18947.50
  43.200  151562.50 19262.50
  43.400  152080.00 19046.67
  43.600  152767.50 19150.00
  43.800  152036.67 19142.50
  44.000  152545.00 19217.50
  44.200  151987.50 18810.00
  44.400  153090.00 19410.00
  44.600  151932.50 19147.50
  44.800  151703.33 18915.00
  45.000  151910.00 19190.00
  45.200  151845.00 18950.00
  45.400  151950.00 18826.67
  45.600  151777.50 19035.00
  45.800  151943.33 18957.50
  46.000  151492.50 18917.50
  46.200  151255.00 18997.50
  46.400  151630.00 18706.67
  46.600  151457.50 18782.50
  46.800  151793.33 19072.50
  47.000  150997.50 18635.00
  47.200  152180.00 18692.50
  47.400  151375.00 18353.33
  47.600  152302.50 18837.50
  47.800  151076.67 18670.00
  48.000  151610.00 18550.00
  48.200  151312.50 18805.00
  48.400  151822.50 18920.00
  48.600  151857.50 18672.50
  48.800  151530.00 18495.00
  49.000  152022.50 18865.00
  49.200  151745.00 18780.00
  49.400  151067.50 19212.50
  49.600  151606.67 18785.00
  49.800  150752.50 18945.00
  50.000  150687.50 19025.00
  50.200  151897.50 18663.33
  50.400  150787.50 18865.00
  50.600  150680.00 18987.50
  50.800  151072.50 18275.00
  51.000  151605.00 19155.00
  51.200  151710.00 18760.00
  51.400  151672.50 19215.00
  51.600  151926.67 19132.50
  51.800  151115.00 18360.00
  52.000  151182.50 18950.00
  52.200  151062.50 18533.33
  52.400  150552.50 18790.00
  52.600  150426.67 18812.50
  52.800  150862.50 19030.00
  53.000  151315.00 18587.50
  53.200  149940.00 18810.00
