~Version Information
 VERS.                2.0:  CWLS LOG ASCII STANDARD -VERSION 2.0
 WRAP.                 NO:  ONE LINE PER DEPTH STEP
~WELL INFORMATION BLOCK
#MNEM.UNIT       DATA		            DESCRIPTION OF MNEMONIC
#---------    -------------            ------------------------
 STRT.FT  -2.200                         :START DEPTH
 STOP.FT  1323.200                       :STOP DEPTH
 STEP.FT  0.200                          :STEP    UP_HOLE  
 NULL.    -999.25                        :NULL VALUE
 COMP.    USGS                           :COMPANY
 WELL.    USGS 145                                                     :WELL
 FLD .    INL                            :FIELD\LOCATION
 LOC .                                   :LOCATION
 CNTY.    BUTTE                          :COUNTY
 STAT.    IDAHO                          :STATE
 CTRY.    USA                            :COUNTRY
 SRVC.    USGS                           :SERVICE COMPANY
 DATE.    07/16/2018                     :LOG DATE
 API .   CAL. 2017                           :API NUMBER
 LIC .    USGS                           :LICENSE NUMBER
~Curve Information Block
#MNEM.UNIT      API CODE     Curve Description
#---------    -------------  ------------------------
 DEPT     .FT        00 001 00 00          :  1  DEPTH   
 DEN(SS)  .CPS       00 350 00 00          :  2  SHORT SPACED DENS   
 DEN(LS)  .CPS       00 350 00 00          :  3  LONG SPACED DENSITY 
~Parameter Information Block
#MNEM.UNIT   Information     Description
#---------- ---------------  ------------------------
 FILE.      PROCESSED          :File Type
 FIID.      0024A              :File Type Identifier
 VERS.      3.60E              :System Version
 SER .      1                  :System Serial Number
 TRUK.      0.25               :Truck Calibration Number
 TOOL.         776             :Tool Serial Number
 TIME.      1403               :Time    HrHrMinMin
 LAT .                         :Latitude
 LON .                         :Longitude
 LMF .      LSD                :Log Measured From
 DMF .      LSD                :Driller Measured From
 PD  .                         :Permanent Data
 PDEV.FT                       :Elevation Permanent Data
 EKB .FT                       :Elevation Kelly Bushing
 ELEV.FT                       :Elevation DF
 EGL .FT                       :Elevation Ground Level
 DRDP.FT    1368               :Driller's Depth
 CASD.FT    10.                :Casing Diameter
 CASB.FT    1328               :Casing Bottom
 CASX.      SURFACE            :Casing Type
 CAST.IN    .25                :Casing Thickness
 TNOC.                         :Time Circulation Stopped
 LOGU.      USGS               :Logging Unit
 RECB.      MJG                :Recorded By
 OSR1.      9095               :Other Services
 OSR2.       9057              :Other Services
 OSR3.                         :Other Services
 BS  .IN         3.9           :Bit Size
 MST .F     SH                 :Mean Surface Temperature
 TGRD.F                        :Temperature Gradiant
 MAGN.      0                  :Magnetic Declination
 MDEN.      2.65               :Density Matrix
 MATR.      SANDSTONE          :Neutron Matrix
 DTMT.      54                 :Delta T Matrix
 DTFL.                         :Delta T Fluid
 MUDS.      FLOW LINE          :Mud Sample Source
 MRS .      .179               :Mud Resistivity
 MTP .      68.5               :Mud Temperature
 MFRS.                         :Resistivity Mud Filtrate
 MFTP.                         :Temperature Mud Filtrate
 MCRS.                         :Resistivity Mud Cake
 MCTP.                         :Temperature Mud Cake
 FTYP.      AIR                :Fluid Type
 FD  .LB/G    NA               :Mud Weight
 DFV .S                        :Fluid Viscosity
 FPH .                         :Fuild PH
 ELCO.      99999              :Electron Cutoff
 CASL.IN    3.5                :Casing Logger
 LOTD.FT    1328               :Logger TD
 ARTM.      12:20              :Arrival Time
 DPTM.                         :Departure Time
 RIGN.                         :Rig Number
~Other Information
#MNEM.UNIT  Information      Description
#---------- ---------------  ------------------------
# -------------------------- 
~A DEPTH  DEN(SS) DEN(LS) 
# ...
 163.800  152743.33 19040.00
 164.000  153512.50 19260.00
 164.200  153777.50 19170.00
 164.400  153106.67 19055.00
 164.600  153832.50 19306.67
 164.800  153195.00 18910.00
 165.000  153276.67 18690.00
 165.200  152625.00 19266.67
 165.400  153312.50 18835.00
 165.600  152916.67 19077.50
 165.800  153837.50 18947.50
 166.000  153717.50 18590.00
 166.200  153590.00 18750.00
 166.400  152953.33 18935.00
 166.600  153222.50 18770.00
 166.800  153065.00 18710.00
 167.000  153396.67 19172.50
 167.200  153505.00 18773.33
 167.400  153655.00 18747.50
 167.600  153276.67 18840.00
 167.800  153562.50 18426.67
 168.000  153642.50 19122.50
 168.200  153873.33 18840.00
 168.400  154032.50 18786.67
 168.600  153010.00 18582.50
 168.800  153453.33 19017.50
 169.000  154155.00 18910.00
 169.200  153545.00 18782.50
 169.400  153586.67 19160.00
 169.600  153720.00 18816.67
 169.800  153127.50 19005.00
 170.000  153500.00 18857.50
 170.200  153655.00 19013.33
 170.400  153382.50 18850.00
 170.600  153810.00 18767.50
 170.800  154022.50 19000.00
 171.000  153915.00 18882.50
 171.200  153960.00 18977.50
 171.400  153147.50 19386.67
 171.600  153585.00 18837.50
 171.800  153966.67 19530.00
 172.000  154765.00 18400.00
 172.200  154062.50 19195.00
 172.400  153646.67 18855.00
 172.600  153842.50 19010.00
 172.800  154080.00 18857.50
 173.000  155123.33 19142.50
 173.200  153762.50 18990.00
 173.400  153700.00 19127.50
 173.600  153403.33 19285.00
 173.800  154180.00 19303.33
 174.000  154045.00 19210.00
 174.200  153973.33 19415.00
 174.400  154790.00 19653.33
 174.600  154085.00 19950.00
 174.800  153803.33 19897.50
 175.000  153862.50 19883.33
 175.200  154427.50 20110.00
 175.400  154360.00 19772.50
 175.600  154305.00 20090.00
 175.800  153700.00 20300.00
 176.000  155205.00 20610.00
 176.200  156003.33 20937.50
 176.400  156667.50 21306.67
 176.600  156302.50 22362.50
 176.800  157260.00 23040.00
 177.000  158427.50 23686.67
 177.200  158262.50 23485.00
 177.400  156926.67 24235.00
 177.600  157135.00 25503.33
 177.800  156755.00 25702.50
 178.000  157060.00 26285.00
 178.200  157582.50 26703.33
 178.400  157715.00 26832.50
 178.600  157056.67 27055.00
 178.800  156752.50 26926.67
 179.000  156525.00 26970.00
 179.200  155656.67 26775.00
 179.400  157407.50 26436.67
 179.600  156435.00 25940.00
 179.800  156976.67 25672.50
 180.000  155980.00 25790.00
 180.200  156867.50 25610.00
 180.400  156630.00 25490.00
 180.600  157087.50 24673.33
 180.800  157760.00 24725.00
 181.000  156576.67 24722.50
 181.200  157432.50 24923.33
 181.400  157587.50 25045.00
 181.600  155980.00 25762.50
 181.800  156355.00 25680.00
 182.000  155782.50 25905.00
 182.200  157276.67 26832.50
 182.400  153487.50 26383.33
 182.600  154232.50 28185.00
 182.800  153360.00 28290.00
 183.000  153690.00 28085.00
 183.200  153690.00 28666.67
 183.400  154055.00 28555.00
 183.600  153760.00 27925.00
 183.800  154497.50 27763.33
 184.000  154645.00 26885.00
 184.200  154656.67 26330.00
 184.400  155522.50 26176.67
 184.600  156420.00 25495.00
 184.800  157250.00 25395.00
 185.000  157092.50 24500.00
 185.200  156195.00 24040.00
 185.400  157143.33 23512.50
 185.600  157167.50 22656.67
 185.800  156495.00 22132.50
 186.000  155883.33 21342.50
 186.200  156122.50 20280.00
 186.400  155917.50 20532.50
 186.600  156550.00 20465.00
 186.800  156485.00 20580.00
 187.000  157542.50 21095.00
 187.200  158456.67 22085.00
 187.400  157762.50 22816.67
 187.600  157230.00 23710.00
 187.800  157620.00 24557.50
 188.000  157482.50 25043.33
 188.200  157792.50 24657.50
 188.400  157870.00 24667.50
 188.600  157477.50 24610.00
 188.800  157470.00 24410.00
 189.000  157403.33 24990.00
 189.200  157685.00 24443.33
 189.400  157480.00 24597.50
 189.600  157853.33 24540.00
 189.800  157060.00 25096.67
 190.000  157932.50 24287.50
 190.200  157933.33 24512.50
 190.400  158375.00 24567.50
 190.600  157752.50 24430.00
 190.800  158555.00 24305.00
 191.000  157950.00 24480.00
 191.200  157397.50 25186.67
 191.400  158000.00 24690.00
 191.600  157596.67 24820.00
 191.800  157847.50 25336.67
 192.000  157572.50 24435.00
 192.200  158010.00 24615.00
 192.400  158360.00 24920.00
 192.600  157012.50 25337.50
 192.800  158310.00 25587.50
 193.000  157385.00 25300.00
 193.200  157535.00 25962.50
 193.400  157093.33 26307.50
 193.600  156992.50 26560.00
 193.800  156965.00 26915.00
 194.000  156743.33 27780.00
 194.200  156790.00 27866.67
 194.400  157237.50 27257.50
 194.600  156556.67 27122.50
 194.800  156932.50 26580.00
 195.000  156675.00 26740.00
 195.200  157616.67 25120.00
 195.400  157407.50 24610.00
 195.600  156462.50 24407.50
 195.800  156240.00 22905.00
 196.000  155690.00 22430.00
 196.200  155352.50 21205.00
 196.400  155143.33 19872.50
 196.600  154572.50 19687.50
 196.800  153525.00 19313.33
 197.000  153277.50 19525.00
 197.200  151863.33 19112.50
 197.400  152875.00 19470.00
 197.600  153560.00 18755.00
 197.800  152723.33 18587.50
 198.000  152300.00 18456.67
 198.200  151565.00 18105.00
 198.400  152370.00 18170.00
 198.600  151527.50 18293.33
 198.800  152207.50 18430.00
 199.000  152676.67 18660.00
 199.200  152335.00 18830.00
 199.400  152135.00 18230.00
 199.600  152400.00 18645.00
 199.800  152550.00 18193.33
 200.000  151832.50 18532.50
 200.200  151680.00 18205.00
 200.400  152212.50 18170.00
 200.600  150997.50 18445.00
 200.800  151600.00 17770.00
 201.000  152180.00 17806.67
 201.200  152500.00 18345.00
 201.400  152160.00 17817.50
 201.600  151852.50 18306.67
 201.800  151915.00 18280.00
 202.000  152230.00 18272.50
 202.200  152197.50 18440.00
 202.400  152262.50 18525.00
 202.600  152636.67 18217.50
 202.800  151667.50 18416.67
 203.000  152067.50 18535.00
 203.200  152170.00 18267.50
 203.400  152032.50 18273.33
 203.600  152517.50 18512.50
 203.800  152193.33 17910.00
 204.000  151810.00 18610.00
 204.200  152697.50 18465.00
 204.400  152310.00 18455.00
 204.600  151885.00 18482.50
 204.800  152260.00 18460.00
 205.000  151682.50 18507.50
 205.200  151850.00 17986.67
 205.400  151910.00 18462.50
 205.600  151403.33 18290.00
 205.800  150905.00 18077.50
 206.000  151567.50 18106.67
 206.200  151682.50 18067.50
 206.400  152490.00 18132.50
 206.600  151597.50 18440.00
 206.800  151270.00 18602.50
 207.000  151756.67 17855.00
 207.200  152257.50 18513.33
 207.400  151970.00 18515.00
 207.600  152136.67 18080.00
 207.800  152142.50 18183.33
 208.000  151590.00 18615.00
 208.200  151043.33 18650.00
 208.400  152222.50 18920.00
 208.600  152327.50 18255.00
 208.800  151763.33 18492.50
 209.000  151610.00 18573.33
 209.200  151855.00 18847.50
 209.400  151296.67 18470.00
 209.600  151862.50 18410.00
 209.800  152095.00 18952.50
 210.000  151376.67 18802.50
 210.200  151467.50 18560.00
 210.400  152132.50 19170.00
 210.600  151713.33 19050.00
 210.800  152260.00 19480.00
 211.000  152102.50 18902.50
 211.200  151516.67 18780.00
 211.400  151290.00 19436.67
 211.600  151382.50 19210.00
 211.800  152183.33 19442.50
 212.000  152907.50 19373.33
 212.200  152262.50 19612.50
 212.400  151436.67 20090.00
 212.600  152427.50 19906.67
 212.800  152235.00 19745.00
 213.000  151810.00 19822.50
 213.200  152175.00 19795.00
 213.400  151477.50 20260.00
 213.600  151680.00 20055.00
 213.800  152433.33 19530.00
 214.000  152185.00 19453.33
 214.200  150657.50 19430.00
 214.400  151676.67 19317.50
 214.600  151997.50 18793.33
 214.800  151462.50 19170.00
 215.000  151243.33 18832.50
 215.200  150700.00 19156.67
 215.400  151752.50 19042.50
 215.600  150473.33 19012.50
 215.800  151510.00 18673.33
 216.000  150495.00 19130.00
 216.200  150246.67 19077.50
 216.400  150510.00 19066.67
 216.600  150980.00 19495.00
 216.800  151860.00 20105.00
 217.000  153245.00 20660.00
 217.200  154620.00 21720.00
 217.400  156080.00 22172.50
 217.600  155322.50 23196.67
 217.800  155427.50 24082.50
 218.000  155976.67 24042.50
 218.200  156692.50 24126.67
 218.400  156665.00 24042.50
 218.600  157390.00 24590.00
 218.800  155640.00 24370.00
