~Version Information
 VERS.                2.0:  CWLS LOG ASCII STANDARD -VERSION 2.0
 WRAP.                 NO:  ONE LINE PER DEPTH STEP
~WELL INFORMATION BLOCK
#MNEM.UNIT       DATA		            DESCRIPTION OF MNEMONIC
#---------    -------------            ------------------------
 STRT.FT  -2.200                         :START DEPTH
 STOP.FT  1323.200                       :STOP DEPTH
 STEP.FT  0.200                          :STEP    UP_HOLE  
 NULL.    -999.25                        :NULL VALUE
 COMP.    USGS                           :COMPANY
 WELL.    USGS 145                                                     :WELL
 FLD .    INL                            :FIELD\LOCATION
 LOC .                                   :LOCATION
 CNTY.    BUTTE                          :COUNTY
 STAT.    IDAHO                          :STATE
 CTRY.    USA                            :COUNTRY
 SRVC.    USGS                           :SERVICE COMPANY
 DATE.    07/16/2018                     :LOG DATE
 API .   CAL. 2017                           :API NUMBER
 LIC .    USGS                           :LICENSE NUMBER
~Curve Information Block
#MNEM.UNIT      API CODE     Curve Description
#---------    -------------  ------------------------
 DEPT     .FT        00 001 00 00          :  1  DEPTH   
 DEN(SS)  .CPS       00 350 00 00          :  2  SHORT SPACED DENS   
 DEN(LS)  .CPS       00 350 00 00          :  3  LONG SPACED DENSITY 
~Parameter Information Block
#MNEM.UNIT   Information     Description
#---------- ---------------  ------------------------
 FILE.      PROCESSED          :File Type
 FIID.      0024A              :File Type Identifier
 VERS.      3.60E              :System Version
 SER .      1                  :System Serial Number
 TRUK.      0.25               :Truck Calibration Number
 TOOL.         776             :Tool Serial Number
 TIME.      1403               :Time    HrHrMinMin
 LAT .                         :Latitude
 LON .                         :Longitude
 LMF .      LSD                :Log Measured From
 DMF .      LSD                :Driller Measured From
 PD  .                         :Permanent Data
 PDEV.FT                       :Elevation Permanent Data
 EKB .FT                       :Elevation Kelly Bushing
 ELEV.FT                       :Elevation DF
 EGL .FT                       :Elevation Ground Level
 DRDP.FT    1368               :Driller's Depth
 CASD.FT    10.                :Casing Diameter
 CASB.FT    1328               :Casing Bottom
 CASX.      SURFACE            :Casing Type
 CAST.IN    .25                :Casing Thickness
 TNOC.                         :Time Circulation Stopped
 LOGU.      USGS               :Logging Unit
 RECB.      MJG                :Recorded By
 OSR1.      9095               :Other Services
 OSR2.       9057              :Other Services
 OSR3.                         :Other Services
 BS  .IN         3.9           :Bit Size
 MST .F     SH                 :Mean Surface Temperature
 TGRD.F                        :Temperature Gradiant
 MAGN.      0                  :Magnetic Declination
 MDEN.      2.65               :Density Matrix
 MATR.      SANDSTONE          :Neutron Matrix
 DTMT.      54                 :Delta T Matrix
 DTFL.                         :Delta T Fluid
 MUDS.      FLOW LINE          :Mud Sample Source
 MRS .      .179               :Mud Resistivity
 MTP .      68.5               :Mud Temperature
 MFRS.                         :Resistivity Mud Filtrate
 MFTP.                         :Temperature Mud Filtrate
 MCRS.                         :Resistivity Mud Cake
 MCTP.                         :Temperature Mud Cake
 FTYP.      AIR                :Fluid Type
 FD  .LB/G    NA               :Mud Weight
 DFV .S                        :Fluid Viscosity
 FPH .                         :Fuild PH
 ELCO.      99999              :Electron Cutoff
 CASL.IN    3.5                :Casing Logger
 LOTD.FT    1328               :Logger TD
 ARTM.      12:20              :Arrival Time
 DPTM.                         :Departure Time
 RIGN.                         :Rig Number
~Other Information
#MNEM.UNIT  Information      Description
#---------- ---------------  ------------------------
# -------------------------- 
~A DEPTH  DEN(SS) DEN(LS) 
# ...
 108.600  154697.50 23557.50
 108.800  154312.50 23456.67
 109.000  154352.50 23525.00
 109.200  153886.67 23905.00
 109.400  154217.50 24367.50
 109.600  154842.50 24127.50
 109.800  154190.00 24480.00
 110.000  154812.50 24640.00
 110.200  154793.33 24300.00
 110.400  154557.50 24562.50
 110.600  154402.50 24642.50
 110.800  153992.50 24763.33
 111.000  154107.50 24597.50
 111.200  154740.00 24797.50
 111.400  153830.00 24520.00
 111.600  154110.00 24775.00
 111.800  154157.50 24626.67
 112.000  154560.00 25265.00
 112.200  154223.33 24662.50
 112.400  154322.50 24802.50
 112.600  154172.50 24536.67
 112.800  153415.00 24657.50
 113.000  153993.33 24807.50
 113.200  153537.50 25070.00
 113.400  153747.50 24160.00
 113.600  153916.67 24782.50
 113.800  153830.00 24773.33
 114.000  153870.00 24692.50
 114.200  154076.67 24676.67
 114.400  153402.50 24955.00
 114.600  153610.00 24322.50
 114.800  153392.50 23510.00
 115.000  153200.00 23347.50
 115.200  152226.67 22750.00
 115.400  150382.50 22335.00
 115.600  148866.67 20893.33
 115.800  148107.50 19987.50
 116.000  147736.67 19713.33
 116.200  146910.00 18812.50
 116.400  146996.67 18765.00
 116.600  146872.50 18526.67
 116.800  146122.50 18617.50
 117.000  147860.00 18446.67
 117.200  146610.00 18065.00
 117.400  147083.33 17823.33
 117.600  147355.00 18247.50
 117.800  147133.33 17860.00
 118.000  147185.00 18477.50
 118.200  147360.00 18085.00
 118.400  148235.00 17923.33
 118.600  148352.50 18302.50
 118.800  148683.33 17916.67
 119.000  149200.00 18302.50
 119.200  148360.00 18056.67
 119.400  148290.00 17625.00
 119.600  149776.67 18285.00
 119.800  149060.00 17983.33
 120.000  147677.50 18245.00
 120.200  147310.00 18110.00
 120.400  148037.50 18187.50
 120.600  148073.33 18236.67
 120.800  148075.00 18552.50
 121.000  148413.33 18006.67
 121.200  148210.00 17637.50
 121.400  147620.00 17915.00
 121.600  147562.50 17900.00
 121.800  148237.50 18125.00
 122.000  148080.00 17776.67
 122.200  149027.50 18177.50
 122.400  148126.67 17916.67
 122.600  149172.50 18207.50
 122.800  148853.33 18190.00
 123.000  149442.50 18485.00
 123.200  149586.67 18855.00
 123.400  149637.50 18853.33
 123.600  149205.00 18217.50
 123.800  149150.00 18610.00
 124.000  148935.00 18490.00
 124.200  148630.00 18610.00
 124.400  149492.50 18455.00
 124.600  149096.67 18253.33
 124.800  150987.50 18235.00
 125.000  149420.00 18385.00
 125.200  149972.50 19123.33
 125.400  149675.00 18515.00
 125.600  149806.67 18126.67
 125.800  149270.00 18195.00
 126.000  149326.67 18583.33
 126.200  148962.50 18672.50
 126.400  149376.67 18476.67
 126.600  149365.00 18182.50
 126.800  150070.00 18145.00
 127.000  150000.00 18830.00
 127.200  150115.00 17967.50
 127.400  150003.33 18166.67
 127.600  149010.00 18105.00
 127.800  149010.00 18303.33
 128.000  149142.50 18592.50
 128.200  149166.67 18145.00
 128.400  149987.50 18740.00
 128.600  149372.50 18187.50
 128.800  149363.33 17956.67
 129.000  150140.00 18072.50
 129.200  150000.00 18453.33
 129.400  149675.00 18305.00
 129.600  149623.33 17905.00
 129.800  149865.00 18343.33
 130.000  149600.00 18385.00
 130.200  150286.67 17983.33
 130.400  150395.00 18127.50
 130.600  149943.33 18000.00
 130.800  150332.50 18162.50
 131.000  150406.67 18136.67
 131.200  150355.00 18490.00
 131.400  150363.33 18110.00
 131.600  149612.50 17893.33
 131.800  149925.00 17790.00
 132.000  150150.00 18246.67
 132.200  150102.50 18040.00
 132.400  149800.00 18180.00
 132.600  150350.00 18240.00
 132.800  149696.67 18400.00
 133.000  150605.00 18856.67
 133.200  151230.00 18362.50
 133.400  151086.67 19100.00
 133.600  151332.50 18990.00
 133.800  151860.00 19173.33
 134.000  151735.00 19185.00
 134.200  151556.67 19296.67
 134.400  152067.50 19082.50
 134.600  151556.67 19092.50
 134.800  152197.50 19333.33
 135.000  152632.50 19507.50
 135.200  152640.00 19106.67
 135.400  152687.50 19095.00
 135.600  153320.00 19756.67
 135.800  152292.50 20080.00
 136.000  152893.33 20795.00
 136.200  154097.50 21626.67
 136.400  153572.50 22567.50
 136.600  153080.00 23050.00
 136.800  153567.50 23625.00
 137.000  153593.33 23400.00
 137.200  153460.00 23482.50
 137.400  153443.33 23462.50
 137.600  154030.00 23333.33
 137.800  153782.50 22605.00
 138.000  154360.00 22363.33
 138.200  152620.00 22545.00
 138.400  153006.67 22306.67
 138.600  153247.50 21295.00
 138.800  154333.33 21122.50
 139.000  152145.00 20050.00
 139.200  151915.00 19552.50
 139.400  151640.00 19820.00
 139.600  151607.50 19700.00
 139.800  152550.00 19260.00
 140.000  152072.50 19682.50
 140.200  151500.00 19472.50
 140.400  152772.50 19903.33
 140.600  152852.50 19547.50
 140.800  151193.33 19583.33
 141.000  151637.50 19320.00
 141.200  152353.33 19490.00
 141.400  151590.00 19430.00
 141.600  151286.67 18852.50
 141.800  152285.00 19346.67
 142.000  152112.50 19390.00
 142.200  151473.33 19336.67
 142.400  152107.50 19235.00
 142.600  151746.67 19646.67
 142.800  151612.50 19212.50
 143.000  152856.67 19077.50
 143.200  151402.50 18956.67
 143.400  152132.50 19085.00
 143.600  151356.67 18867.50
 143.800  151117.50 19233.33
 144.000  151822.50 19007.50
 144.200  151210.00 19052.50
 144.400  151230.00 19190.00
 144.600  150912.50 19452.50
 144.800  151470.00 18690.00
 145.000  151085.00 19390.00
 145.200  150705.00 18615.00
 145.400  151803.33 19065.00
 145.600  150915.00 18785.00
 145.800  150995.00 18720.00
 146.000  151005.00 19150.00
 146.200  150556.67 18862.50
 146.400  151222.50 18663.33
 146.600  151040.00 18757.50
 146.800  151813.33 18927.50
 147.000  151217.50 18543.33
 147.200  151012.50 18567.50
 147.400  150736.67 18642.50
 147.600  150907.50 18820.00
 147.800  150832.50 18702.50
 148.000  150536.67 18507.50
 148.200  150897.50 18270.00
 148.400  150797.50 18383.33
 148.600  150482.50 18555.00
 148.800  150543.33 18780.00
 149.000  150435.00 18750.00
 149.200  151095.00 18992.50
 149.400  150963.33 18502.50
 149.600  151432.50 18663.33
 149.800  151330.00 18810.00
 150.000  151753.33 18597.50
 150.200  150597.50 19406.67
 150.400  151110.00 18925.00
 150.600  151120.00 18860.00
 150.800  151110.00 18700.00
 151.000  150777.50 18885.00
 151.200  150736.67 18662.50
 151.400  150577.50 18210.00
 151.600  150487.50 18217.50
 151.800  150566.67 18290.00
 152.000  150600.00 18282.50
 152.200  150842.50 18186.67
 152.400  150945.00 18555.00
 152.600  150423.33 18145.00
 152.800  150880.00 18310.00
 153.000  150275.00 18077.50
 153.200  150556.67 18297.50
 153.400  150550.00 18300.00
 153.600  150632.50 18452.50
 153.800  150546.67 18545.00
 154.000  151305.00 18103.33
 154.200  151517.50 18365.00
 154.400  150973.33 18422.50
 154.600  151127.50 18166.67
 154.800  151160.00 18402.50
 155.000  151566.67 18740.00
 155.200  151815.00 18877.50
 155.400  151937.50 18556.67
 155.600  152087.50 18887.50
 155.800  152563.33 18895.00
 156.000  153050.00 18490.00
 156.200  153250.00 19252.50
 156.400  153083.33 19665.00
 156.600  152685.00 19386.67
 156.800  153717.50 19215.00
 157.000  153680.00 19360.00
 157.200  153155.00 19753.33
 157.400  153267.50 19692.50
 157.600  153723.33 19552.50
 157.800  153780.00 19516.67
 158.000  153817.50 19360.00
 158.200  153186.67 19810.00
 158.400  153520.00 19800.00
 158.600  154530.00 20005.00
 158.800  153400.00 19987.50
 159.000  153825.00 20203.33
 159.200  154200.00 19982.50
 159.400  153546.67 19652.50
 159.600  154110.00 19375.00
 159.800  153642.50 19363.33
 160.000  154187.50 19975.00
 160.200  153396.67 19530.00
 160.400  153782.50 19756.67
 160.600  154507.50 19037.50
 160.800  153520.00 19262.50
 161.000  152850.00 19716.67
 161.200  153862.50 19527.50
 161.400  154046.67 19152.50
 161.600  152937.50 19200.00
 161.800  152952.50 19442.50
 162.000  152693.33 19382.50
 162.200  152722.50 19150.00
 162.400  153262.50 18977.50
 162.600  153260.00 18872.50
 162.800  153117.50 19156.67
 163.000  152930.00 19087.50
 163.200  153806.67 19370.00
 163.400  153637.50 19030.00
 163.600  153725.00 19082.50
