~Version Information
 VERS.                2.0:  CWLS LOG ASCII STANDARD -VERSION 2.0
 WRAP.                 NO:  ONE LINE PER DEPTH STEP
~WELL INFORMATION BLOCK
#MNEM.UNIT       DATA		            DESCRIPTION OF MNEMONIC
#---------    -------------            ------------------------
 STRT.FT  -2.200                         :START DEPTH
 STOP.FT  1323.200                       :STOP DEPTH
 STEP.FT  0.200                          :STEP    UP_HOLE  
 NULL.    -999.25                        :NULL VALUE
 COMP.    USGS                           :COMPANY
 WELL.    USGS 145                                                     :WELL
 FLD .    INL                            :FIELD\LOCATION
 LOC .                                   :LOCATION
 CNTY.    BUTTE                          :COUNTY
 STAT.    IDAHO                          :STATE
 CTRY.    USA                            :COUNTRY
 SRVC.    USGS                           :SERVICE COMPANY
 DATE.    07/16/2018                     :LOG DATE
 API .   CAL. 2017                           :API NUMBER
 LIC .    USGS                           :LICENSE NUMBER
~Curve Information Block
#MNEM.UNIT      API CODE     Curve Description
#---------    -------------  ------------------------
 DEPT     .FT        00 001 00 00          :  1  DEPTH   
 DEN(SS)  .CPS       00 350 00 00          :  2  SHORT SPACED DENS   
 DEN(LS)  .CPS       00 350 00 00          :  3  LONG SPACED DENSITY 
~Parameter Information Block
#MNEM.UNIT   Information     Description
#---------- ---------------  ------------------------
 FILE.      PROCESSED          :File Type
 FIID.      0024A              :File Type Identifier
 VERS.      3.60E              :System Version
 SER .      1                  :System Serial Number
 TRUK.      0.25               :Truck Calibration Number
 TOOL.         776             :Tool Serial Number
 TIME.      1403               :Time    HrHrMinMin
 LAT .                         :Latitude
 LON .                         :Longitude
 LMF .      LSD                :Log Measured From
 DMF .      LSD                :Driller Measured From
 PD  .                         :Permanent Data
 PDEV.FT                       :Elevation Permanent Data
 EKB .FT                       :Elevation Kelly Bushing
 ELEV.FT                       :Elevation DF
 EGL .FT                       :Elevation Ground Level
 DRDP.FT    1368               :Driller's Depth
 CASD.FT    10.                :Casing Diameter
 CASB.FT    1328               :Casing Bottom
 CASX.      SURFACE            :Casing Type
 CAST.IN    .25                :Casing Thickness
 TNOC.                         :Time Circulation Stopped
 LOGU.      USGS               :Logging Unit
 RECB.      MJG                :Recorded By
 OSR1.      9095               :Other Services
 OSR2.       9057              :Other Services
 OSR3.                         :Other Services
 BS  .IN         3.9           :Bit Size
 MST .F     SH                 :Mean Surface Temperature
 TGRD.F                        :Temperature Gradiant
 MAGN.      0                  :Magnetic Declination
 MDEN.      2.65               :Density Matrix
 MATR.      SANDSTONE          :Neutron Matrix
 DTMT.      54                 :Delta T Matrix
 DTFL.                         :Delta T Fluid
 MUDS.      FLOW LINE          :Mud Sample Source
 MRS .      .179               :Mud Resistivity
 MTP .      68.5               :Mud Temperature
 MFRS.                         :Resistivity Mud Filtrate
 MFTP.                         :Temperature Mud Filtrate
 MCRS.                         :Resistivity Mud Cake
 MCTP.                         :Temperature Mud Cake
 FTYP.      AIR                :Fluid Type
 FD  .LB/G    NA               :Mud Weight
 DFV .S                        :Fluid Viscosity
 FPH .                         :Fuild PH
 ELCO.      99999              :Electron Cutoff
 CASL.IN    3.5                :Casing Logger
 LOTD.FT    1328               :Logger TD
 ARTM.      12:20              :Arrival Time
 DPTM.                         :Departure Time
 RIGN.                         :Rig Number
~Other Information
#MNEM.UNIT  Information      Description
#---------- ---------------  ------------------------
# -------------------------- 
~A DEPTH  DEN(SS) DEN(LS) 
# ...
 274.200  150670.00 20612.50
 274.400  151016.67 20400.00
 274.600  151822.50 20553.33
 274.800  151312.50 20607.50
 275.000  151546.67 20662.50
 275.200  151290.00 21230.00
 275.400  151070.00 21165.00
 275.600  150913.33 21205.00
 275.800  151040.00 20705.00
 276.000  150812.50 21326.67
 276.200  151140.00 21112.50
 276.400  150296.67 21736.67
 276.600  151492.50 21257.50
 276.800  150943.33 20615.00
 277.000  151745.00 21502.50
 277.200  151800.00 21493.33
 277.400  151552.50 21457.50
 277.600  152140.00 21912.50
 277.800  151800.00 22100.00
 278.000  152332.50 21415.00
 278.200  152256.67 21930.00
 278.400  152835.00 21823.33
 278.600  152630.00 21970.00
 278.800  152873.33 21977.50
 279.000  152817.50 22233.33
 279.200  152687.50 22195.00
 279.400  152820.00 22380.00
 279.600  152182.50 21773.33
 279.800  152827.50 21745.00
 280.000  153116.67 22350.00
 280.200  152997.50 22270.00
 280.400  152792.50 21787.50
 280.600  154180.00 21570.00
 280.800  152857.50 21920.00
 281.000  153460.00 21972.50
 281.200  153653.33 21835.00
 281.400  153477.50 22000.00
 281.600  154382.50 22175.00
 281.800  153673.33 21945.00
 282.000  154117.50 22086.67
 282.200  153425.00 21772.50
 282.400  153353.33 22057.50
 282.600  154232.50 22440.00
 282.800  154777.50 22187.50
 283.000  153890.00 22167.50
 283.200  154552.50 22406.67
 283.400  154492.50 21982.50
 283.600  155300.00 22332.50
 283.800  154330.00 22190.00
 284.000  154827.50 22262.50
 284.200  155330.00 22587.50
 284.400  154830.00 21773.33
 284.600  155002.50 22275.00
 284.800  154583.33 22055.00
 285.000  155537.50 22136.67
 285.200  154787.50 22227.50
 285.400  155030.00 22315.00
 285.600  154715.00 22020.00
 285.800  154445.00 22247.50
 286.000  154466.67 22492.50
 286.200  154732.50 22450.00
 286.400  155307.50 22363.33
 286.600  154757.50 22390.00
 286.800  155070.00 23102.50
 287.000  154690.00 23483.33
 287.200  154962.50 24225.00
 287.400  156456.67 24925.00
 287.600  157452.50 25046.67
 287.800  158067.50 26047.50
 288.000  157450.00 27480.00
 288.200  156950.00 28443.33
 288.400  158615.00 29167.50
 288.600  158420.00 28432.50
 288.800  158372.50 28976.67
 289.000  157397.50 28460.00
 289.200  158323.33 28507.50
 289.400  156982.50 29110.00
 289.600  157615.00 29410.00
 289.800  157683.33 29040.00
 290.000  157680.00 29253.33
 290.200  158235.00 29035.00
 290.400  158200.00 28280.00
 290.600  157015.00 28433.33
 290.800  157837.50 28567.50
 291.000  158913.33 28470.00
 291.200  157320.00 28136.67
 291.400  158105.00 29000.00
 291.600  158443.33 28815.00
 291.800  157297.50 28770.00
 292.000  157135.00 28720.00
 292.200  157493.33 28977.50
 292.400  156955.00 28626.67
 292.600  157622.50 28905.00
 292.800  157696.67 29102.50
 293.000  157632.50 28476.67
 293.200  157672.50 29345.00
 293.400  158116.67 28132.50
 293.600  158220.00 29130.00
 293.800  158465.00 28847.50
 294.000  157936.67 28985.00
 294.200  157215.00 29706.67
 294.400  157547.50 29257.50
 294.600  157440.00 28780.00
 294.800  157930.00 28180.00
 295.000  158340.00 27942.50
 295.200  159310.00 28102.50
 295.400  157597.50 26970.00
 295.600  157892.50 26607.50
 295.800  157123.33 26327.50
 296.000  157117.50 26376.67
 296.200  156255.00 25682.50
 296.400  156060.00 24870.00
 296.600  155367.50 23930.00
 296.800  155392.50 22820.00
 297.000  156020.00 22237.50
 297.200  154897.50 22346.67
 297.400  153945.00 22045.00
 297.600  154573.33 21865.00
 297.800  154800.00 21903.33
 298.000  153870.00 21955.00
 298.200  153613.33 22167.50
 298.400  153602.50 22456.67
 298.600  155232.50 22357.50
 298.800  153793.33 22550.00
 299.000  154925.00 22562.50
 299.200  154395.00 22536.67
 299.400  154425.00 22415.00
 299.600  154123.33 22625.00
 299.800  154985.00 22536.67
 300.000  155020.00 22392.50
 300.200  156090.00 22682.50
 300.400  154812.50 23130.00
 300.600  154805.00 22387.50
 300.800  155820.00 22595.00
 301.000  154375.00 22960.00
 301.200  155330.00 22925.00
 301.400  155330.00 22720.00
 301.600  155645.00 22540.00
 301.800  154130.00 22320.00
 302.000  154330.00 22455.00
 302.200  155060.00 21993.33
 302.400  155525.00 22067.50
 302.600  155240.00 22242.50
 302.800  154847.50 21493.33
 303.000  154405.00 22105.00
 303.200  153970.00 21767.50
 303.400  155267.50 21690.00
 303.600  154780.00 21912.50
 303.800  154836.67 22137.50
 304.000  153830.00 22170.00
 304.200  154717.50 22080.00
 304.400  154526.67 21755.00
 304.600  154940.00 22163.33
 304.800  154777.50 22030.00
 305.000  153883.33 22372.50
 305.200  155320.00 22233.33
 305.400  155395.00 22560.00
 305.600  153780.00 22512.50
 305.800  154287.50 21753.33
 306.000  154677.50 22270.00
 306.200  154726.67 22457.50
 306.400  154945.00 22396.67
 306.600  155297.50 22510.00
 306.800  155716.67 22137.50
 307.000  155365.00 22916.67
 307.200  155182.50 23307.50
 307.400  156190.00 23805.00
 307.600  157370.00 24203.33
 307.800  158332.50 24847.50
 308.000  156920.00 25290.00
 308.200  157462.50 26953.33
 308.400  158577.50 27542.50
 308.600  158413.33 28632.50
 308.800  157982.50 28166.67
 309.000  157132.50 28447.50
 309.200  158160.00 28822.50
 309.400  157235.00 28540.00
 309.600  157757.50 28785.00
 309.800  158513.33 28657.50
 310.000  157722.50 28476.67
 310.200  158410.00 28792.50
 310.400  158356.67 28707.50
 310.600  157892.50 28196.67
 310.800  159280.00 28247.50
 311.000  158016.67 28320.00
 311.200  157657.50 28200.00
 311.400  158205.00 28182.50
 311.600  158440.00 28515.00
 311.800  158162.50 28243.33
 312.000  157627.50 28050.00
 312.200  157830.00 28267.50
 312.400  158757.50 28150.00
 312.600  158092.50 28035.00
 312.800  157260.00 27692.50
 313.000  157610.00 27936.67
 313.200  157157.50 28532.50
 313.400  157700.00 27897.50
 313.600  157482.50 27596.67
 313.800  158032.50 27827.50
 314.000  158056.67 28035.00
 314.200  157572.50 28010.00
 314.400  157372.50 27516.67
 314.600  157287.50 27300.00
 314.800  157893.33 27870.00
 315.000  157622.50 27832.50
 315.200  157680.00 27365.00
 315.400  157935.00 27235.00
 315.600  157405.00 27803.33
 315.800  157490.00 26765.00
 316.000  158160.00 25742.50
 316.200  157435.00 25153.33
 316.400  156065.00 24322.50
 316.600  155710.00 23820.00
 316.800  154772.50 22596.67
 317.000  153865.00 21350.00
 317.200  154163.33 21505.00
 317.400  155540.00 22706.67
 317.600  156582.50 23380.00
 317.800  156750.00 23840.00
 318.000  157632.50 25096.67
 318.200  157195.00 26130.00
 318.400  157996.67 27145.00
 318.600  157487.50 27556.67
 318.800  157232.50 27732.50
 319.000  157990.00 27585.00
 319.200  157292.50 27516.67
 319.400  157992.50 27640.00
 319.600  157953.33 28000.00
 319.800  158350.00 27233.33
 320.000  157772.50 27980.00
 320.200  158633.33 27560.00
 320.400  157700.00 28450.00
 320.600  157982.50 27565.00
 320.800  157826.67 28350.00
 321.000  157205.00 28530.00
 321.200  157472.50 27845.00
 321.400  157490.00 28485.00
 321.600  158247.50 27920.00
 321.800  157190.00 28427.50
 322.000  157456.67 28140.00
 322.200  157417.50 27886.67
 322.400  158207.50 27975.00
 322.600  157763.33 28047.50
 322.800  158927.50 27856.67
 323.000  157227.50 28225.00
 323.200  158656.67 27950.00
 323.400  157917.50 27896.67
 323.600  158650.00 27770.00
 323.800  158493.33 27367.50
 324.000  157607.50 28066.67
 324.200  157545.00 27735.00
 324.400  158370.00 27787.50
 324.600  158275.00 27916.67
 324.800  157640.00 27870.00
 325.000  156933.33 28022.50
 325.200  157172.50 26963.33
 325.400  157832.50 27640.00
 325.600  157310.00 27765.00
 325.800  157932.50 26646.67
 326.000  157037.50 26030.00
 326.200  157416.67 25360.00
 326.400  157377.50 24880.00
 326.600  156475.00 23855.00
 326.800  156753.33 23162.50
 327.000  156002.50 21470.00
 327.200  155595.00 21272.50
 327.400  155250.00 21025.00
 327.600  155167.50 20540.00
 327.800  155452.50 20670.00
 328.000  156000.00 21290.00
 328.200  155782.50 21083.33
 328.400  155835.00 20767.50
 328.600  155003.33 20895.00
 328.800  154797.50 20880.00
 329.000  156102.50 20847.50
 329.200  155600.00 20805.00
