~Version Information
 VERS.                2.0:  CWLS LOG ASCII STANDARD -VERSION 2.0
 WRAP.                 NO:  ONE LINE PER DEPTH STEP
~WELL INFORMATION BLOCK
#MNEM.UNIT       DATA		            DESCRIPTION OF MNEMONIC
#---------    -------------            ------------------------
 STRT.FT  -2.200                         :START DEPTH
 STOP.FT  1323.200                       :STOP DEPTH
 STEP.FT  0.200                          :STEP    UP_HOLE  
 NULL.    -999.25                        :NULL VALUE
 COMP.    USGS                           :COMPANY
 WELL.    USGS 145                                                     :WELL
 FLD .    INL                            :FIELD\LOCATION
 LOC .                                   :LOCATION
 CNTY.    BUTTE                          :COUNTY
 STAT.    IDAHO                          :STATE
 CTRY.    USA                            :COUNTRY
 SRVC.    USGS                           :SERVICE COMPANY
 DATE.    07/16/2018                     :LOG DATE
 API .   CAL. 2017                           :API NUMBER
 LIC .    USGS                           :LICENSE NUMBER
~Curve Information Block
#MNEM.UNIT      API CODE     Curve Description
#---------    -------------  ------------------------
 DEPT     .FT        00 001 00 00          :  1  DEPTH   
 DEN(SS)  .CPS       00 350 00 00          :  2  SHORT SPACED DENS   
 DEN(LS)  .CPS       00 350 00 00          :  3  LONG SPACED DENSITY 
~Parameter Information Block
#MNEM.UNIT   Information     Description
#---------- ---------------  ------------------------
 FILE.      PROCESSED          :File Type
 FIID.      0024A              :File Type Identifier
 VERS.      3.60E              :System Version
 SER .      1                  :System Serial Number
 TRUK.      0.25               :Truck Calibration Number
 TOOL.         776             :Tool Serial Number
 TIME.      1403               :Time    HrHrMinMin
 LAT .                         :Latitude
 LON .                         :Longitude
 LMF .      LSD                :Log Measured From
 DMF .      LSD                :Driller Measured From
 PD  .                         :Permanent Data
 PDEV.FT                       :Elevation Permanent Data
 EKB .FT                       :Elevation Kelly Bushing
 ELEV.FT                       :Elevation DF
 EGL .FT                       :Elevation Ground Level
 DRDP.FT    1368               :Driller's Depth
 CASD.FT    10.                :Casing Diameter
 CASB.FT    1328               :Casing Bottom
 CASX.      SURFACE            :Casing Type
 CAST.IN    .25                :Casing Thickness
 TNOC.                         :Time Circulation Stopped
 LOGU.      USGS               :Logging Unit
 RECB.      MJG                :Recorded By
 OSR1.      9095               :Other Services
 OSR2.       9057              :Other Services
 OSR3.                         :Other Services
 BS  .IN         3.9           :Bit Size
 MST .F     SH                 :Mean Surface Temperature
 TGRD.F                        :Temperature Gradiant
 MAGN.      0                  :Magnetic Declination
 MDEN.      2.65               :Density Matrix
 MATR.      SANDSTONE          :Neutron Matrix
 DTMT.      54                 :Delta T Matrix
 DTFL.                         :Delta T Fluid
 MUDS.      FLOW LINE          :Mud Sample Source
 MRS .      .179               :Mud Resistivity
 MTP .      68.5               :Mud Temperature
 MFRS.                         :Resistivity Mud Filtrate
 MFTP.                         :Temperature Mud Filtrate
 MCRS.                         :Resistivity Mud Cake
 MCTP.                         :Temperature Mud Cake
 FTYP.      AIR                :Fluid Type
 FD  .LB/G    NA               :Mud Weight
 DFV .S                        :Fluid Viscosity
 FPH .                         :Fuild PH
 ELCO.      99999              :Electron Cutoff
 CASL.IN    3.5                :Casing Logger
 LOTD.FT    1328               :Logger TD
 ARTM.      12:20              :Arrival Time
 DPTM.                         :Departure Time
 RIGN.                         :Rig Number
~Other Information
#MNEM.UNIT  Information      Description
#---------- ---------------  ------------------------
# -------------------------- 
~A DEPTH  DEN(SS) DEN(LS) 
# ...
 605.400  141842.50 9027.50 
 605.600  143715.00 8810.00 
 605.800  141065.00 8985.00 
 606.000  141136.67 9200.00 
 606.200  140670.00 8815.00 
 606.400  139583.33 8702.50 
 606.600  139745.00 8490.00 
 606.800  139340.00 8512.50 
 607.000  139790.00 8582.50 
 607.200  139600.00 9033.33 
 607.400  139060.00 8690.00 
 607.600  139183.33 8685.00 
 607.800  140125.00 8866.67 
 608.000  140252.50 8640.00 
 608.200  139410.00 8575.00 
 608.400  139560.00 8626.67 
 608.600  139180.00 9002.50 
 608.800  139153.33 8452.50 
 609.000  138972.50 8816.67 
 609.200  138970.00 8647.50 
 609.400  139020.00 8600.00 
 609.600  139447.50 8980.00 
 609.800  139505.00 8550.00 
 610.000  139010.00 8480.00 
 610.200  139752.50 8756.67 
 610.400  139207.50 8617.50 
 610.600  139510.00 8850.00 
 610.800  139710.00 8693.33 
 611.000  138625.00 8895.00 
 611.200  139320.00 8730.00 
 611.400  141452.50 8723.33 
 611.600  143160.00 8912.50 
 611.800  140873.33 8942.50 
 612.000  139470.00 8956.67 
 612.200  139177.50 8922.50 
 612.400  139206.67 8727.50 
 612.600  139437.50 8533.33 
 612.800  138987.50 8650.00 
 613.000  138363.33 8655.00 
 613.200  138277.50 8640.00 
 613.400  138502.50 8322.50 
 613.600  138703.33 8412.50 
 613.800  138397.50 8503.33 
 614.000  138047.50 8500.00 
 614.200  138670.00 8512.50 
 614.400  138775.00 8383.33 
 614.600  138885.00 8610.00 
 614.800  139020.00 8667.50 
 615.000  138145.00 8650.00 
 615.200  137880.00 8637.50 
 615.400  137466.67 8527.50 
 615.600  137240.00 8316.67 
 615.800  136202.50 8580.00 
 616.000  136770.00 8487.50 
 616.200  137890.00 8950.00 
 616.400  138935.00 8810.00 
 616.600  139696.67 8586.67 
 616.800  138557.50 8652.50 
 617.000  137496.67 8760.00 
 617.200  137550.00 8303.33 
 617.400  136572.50 8605.00 
 617.600  136406.67 8807.50 
 617.800  137152.50 8460.00 
 618.000  138047.50 8352.50 
 618.200  137300.00 8500.00 
 618.400  137247.50 8263.33 
 618.600  137955.00 8622.50 
 618.800  136940.00 8580.00 
 619.000  138030.00 8646.67 
 619.200  137477.50 8467.50 
 619.400  137670.00 8335.00 
 619.600  137272.50 8343.33 
 619.800  137192.50 8542.50 
 620.000  137773.33 8760.00 
 620.200  137625.00 8703.33 
 620.400  137572.50 8370.00 
 620.600  137773.33 8905.00 
 620.800  137732.50 8246.67 
 621.000  137900.00 8587.50 
 621.200  138896.67 8562.50 
 621.400  139390.00 8633.33 
 621.600  141390.00 9230.00 
 621.800  144336.67 10465.00
 622.000  151550.00 12006.67
 622.200  155617.50 14215.00
 622.400  155643.33 16720.00
 622.600  154992.50 15276.67
 622.800  154422.50 12587.50
 623.000  151280.00 11137.50
 623.200  147662.50 11393.33
 623.400  146742.50 11700.00
 623.600  150853.33 10690.00
 623.800  152987.50 10473.33
 624.000  150715.00 10747.50
 624.200  147843.33 10867.50
 624.400  146235.00 10943.33
 624.600  147137.50 10650.00
 624.800  149676.67 10580.00
 625.000  149552.50 10210.00
 625.200  147892.50 10025.00
 625.400  146913.33 9976.67 
 625.600  145967.50 10052.50
 625.800  144540.00 9502.50 
 626.000  143332.50 9460.00 
 626.200  143355.00 9640.00 
 626.400  143100.00 9430.00 
 626.600  143605.00 9306.67 
 626.800  143567.50 9282.50 
 627.000  143133.33 9605.00 
 627.200  143495.00 9330.00 
 627.400  143105.00 9257.50 
 627.600  141743.33 9327.50 
 627.800  141290.00 8723.33 
 628.000  141285.00 8700.00 
 628.200  140233.33 8567.50 
 628.400  138620.00 8846.67 
 628.600  139055.00 8755.00 
 628.800  139366.67 8650.00 
 629.000  138480.00 8580.00 
 629.200  138632.50 8802.50 
 629.400  138423.33 8862.50 
 629.600  139867.50 8426.67 
 629.800  139972.50 8705.00 
 630.000  140113.33 8782.50 
 630.200  139242.50 8866.67 
 630.400  140027.50 8987.50 
 630.600  140066.67 8582.50 
 630.800  140987.50 8750.00 
 631.000  140767.50 8475.00 
 631.200  139083.33 8435.00 
 631.400  139782.50 8646.67 
 631.600  139220.00 8632.50 
 631.800  138493.33 8307.50 
 632.000  137987.50 8270.00 
 632.200  138435.00 8097.50 
 632.400  138240.00 8435.00 
 632.600  138015.00 8380.00 
 632.800  137897.50 8090.00 
 633.000  137333.33 8287.50 
 633.200  137325.00 8216.67 
 633.400  137972.50 8405.00 
 633.600  137633.33 8362.50 
 633.800  138192.50 8303.33 
 634.000  137845.00 8445.00 
 634.200  137820.00 8582.50 
 634.400  138422.50 8063.33 
 634.600  137410.00 8212.50 
 634.800  135710.00 8382.50 
 635.000  135240.00 8196.67 
 635.200  136620.00 8240.00 
 635.400  136226.67 8440.00 
 635.600  138007.50 8633.33 
 635.800  140065.00 8717.50 
 636.000  141113.33 8522.50 
 636.200  142022.50 9010.00 
 636.400  142657.50 9560.00 
 636.600  144766.67 9707.50 
 636.800  146860.00 9546.67 
 637.000  148230.00 9860.00 
 637.200  146360.00 9836.67 
 637.400  142757.50 9802.50 
 637.600  142470.00 9227.50 
 637.800  142455.00 8943.33 
 638.000  142025.00 8982.50 
 638.200  142540.00 8900.00 
 638.400  142867.50 9140.00 
 638.600  142902.50 8762.50 
 638.800  142166.67 8865.00 
 639.000  141975.00 8893.33 
 639.200  141300.00 10040.00
 639.400  144833.33 10937.50
 639.600  152197.50 10460.00
 639.800  152107.50 10570.00
 640.000  146780.00 10345.00
 640.200  143007.50 10053.33
 640.400  142057.50 9200.00 
 640.600  141603.33 8940.00 
 640.800  141857.50 9096.67 
 641.000  141885.00 8805.00 
 641.200  140610.00 9162.50 
 641.400  140702.50 8836.67 
 641.600  141260.00 9102.50 
 641.800  141336.67 9137.50 
 642.000  141990.00 8810.00 
 642.200  141677.50 8897.50 
 642.400  142016.67 8932.50 
 642.600  140810.00 8996.67 
 642.800  139790.00 8537.50 
 643.000  140263.33 8570.00 
 643.200  139272.50 8693.33 
 643.400  138450.00 8475.00 
 643.600  138690.00 8667.50 
 643.800  138205.00 8863.33 
 644.000  139420.00 8260.00 
 644.200  139450.00 8512.50 
 644.400  140100.00 8570.00 
 644.600  138622.50 8282.50 
 644.800  139533.33 8530.00 
 645.000  138340.00 8530.00 
 645.200  138280.00 8215.00 
 645.400  138170.00 8135.00 
 645.600  137585.00 8463.33 
 645.800  137492.50 8350.00 
 646.000  137893.33 8292.50 
 646.200  138275.00 8233.33 
 646.400  138370.00 8460.00 
 646.600  138316.67 8450.00 
 646.800  138522.50 8370.00 
 647.000  138350.00 8145.00 
 647.200  138946.67 8205.00 
 647.400  138282.50 8343.33 
 647.600  139070.00 8167.50 
 647.800  138736.67 8456.67 
 648.000  140462.50 8677.50 
 648.200  141030.00 8632.50 
 648.400  141797.50 9017.50 
 648.600  142617.50 8990.00 
 648.800  142510.00 9365.00 
 649.000  144516.67 9360.00 
 649.200  146722.50 9495.00 
 649.400  146226.67 9517.50 
 649.600  145520.00 9450.00 
 649.800  145245.00 9452.50 
 650.000  145550.00 9570.00 
 650.200  144272.50 9450.00 
 650.400  144340.00 9300.00 
 650.600  144970.00 9245.00 
 650.800  144947.50 9156.67 
 651.000  144690.00 9465.00 
 651.200  144176.67 9620.00 
 651.400  145742.50 9593.33 
 651.600  145545.00 9297.50 
 651.800  144460.00 9807.50 
 652.000  144880.00 10116.67
 652.200  147470.00 9767.50 
 652.400  149313.33 9500.00 
 652.600  146597.50 9500.00 
 652.800  144637.50 9352.50 
 653.000  144056.67 9387.50 
 653.200  144532.50 9213.33 
 653.400  144382.50 9185.00 
 653.600  144353.33 9362.50 
 653.800  144267.50 9330.00 
 654.000  144602.50 9527.50 
 654.200  145316.67 9770.00 
 654.400  145270.00 9223.33 
 654.600  145347.50 9367.50 
 654.800  143460.00 9462.50 
 655.000  142437.50 9166.67 
 655.200  141535.00 8887.50 
 655.400  142173.33 8880.00 
 655.600  141902.50 8746.67 
 655.800  140930.00 8735.00 
 656.000  142433.33 8660.00 
 656.200  141642.50 8793.33 
 656.400  142410.00 8957.50 
 656.600  140523.33 8722.50 
 656.800  140827.50 8780.00 
 657.000  140237.50 8862.50 
 657.200  141273.33 8775.00 
 657.400  141755.00 8536.67 
 657.600  141690.00 8552.50 
 657.800  141636.67 9075.00 
 658.000  142315.00 9460.00 
 658.200  142515.00 9237.50 
 658.400  144916.67 8916.67 
 658.600  145600.00 9105.00 
 658.800  146496.67 9832.50 
 659.000  147657.50 10363.33
 659.200  149750.00 10672.50
 659.400  152343.33 11105.00
 659.600  154055.00 11826.67
 659.800  155065.00 12477.50
 660.000  154560.00 12535.00
 660.200  154415.00 12626.67
 660.400  153522.50 12222.50
