~Version Information
 VERS.                2.0:  CWLS LOG ASCII STANDARD -VERSION 2.0
 WRAP.                 NO:  ONE LINE PER DEPTH STEP
~WELL INFORMATION BLOCK
#MNEM.UNIT       DATA		            DESCRIPTION OF MNEMONIC
#---------    -------------            ------------------------
 STRT.FT  -2.200                         :START DEPTH
 STOP.FT  1323.200                       :STOP DEPTH
 STEP.FT  0.200                          :STEP    UP_HOLE  
 NULL.    -999.25                        :NULL VALUE
 COMP.    USGS                           :COMPANY
 WELL.    USGS 145                                                     :WELL
 FLD .    INL                            :FIELD\LOCATION
 LOC .                                   :LOCATION
 CNTY.    BUTTE                          :COUNTY
 STAT.    IDAHO                          :STATE
 CTRY.    USA                            :COUNTRY
 SRVC.    USGS                           :SERVICE COMPANY
 DATE.    07/16/2018                     :LOG DATE
 API .   CAL. 2017                           :API NUMBER
 LIC .    USGS                           :LICENSE NUMBER
~Curve Information Block
#MNEM.UNIT      API CODE     Curve Description
#---------    -------------  ------------------------
 DEPT     .FT        00 001 00 00          :  1  DEPTH   
 DEN(SS)  .CPS       00 350 00 00          :  2  SHORT SPACED DENS   
 DEN(LS)  .CPS       00 350 00 00          :  3  LONG SPACED DENSITY 
~Parameter Information Block
#MNEM.UNIT   Information     Description
#---------- ---------------  ------------------------
 FILE.      PROCESSED          :File Type
 FIID.      0024A              :File Type Identifier
 VERS.      3.60E              :System Version
 SER .      1                  :System Serial Number
 TRUK.      0.25               :Truck Calibration Number
 TOOL.         776             :Tool Serial Number
 TIME.      1403               :Time    HrHrMinMin
 LAT .                         :Latitude
 LON .                         :Longitude
 LMF .      LSD                :Log Measured From
 DMF .      LSD                :Driller Measured From
 PD  .                         :Permanent Data
 PDEV.FT                       :Elevation Permanent Data
 EKB .FT                       :Elevation Kelly Bushing
 ELEV.FT                       :Elevation DF
 EGL .FT                       :Elevation Ground Level
 DRDP.FT    1368               :Driller's Depth
 CASD.FT    10.                :Casing Diameter
 CASB.FT    1328               :Casing Bottom
 CASX.      SURFACE            :Casing Type
 CAST.IN    .25                :Casing Thickness
 TNOC.                         :Time Circulation Stopped
 LOGU.      USGS               :Logging Unit
 RECB.      MJG                :Recorded By
 OSR1.      9095               :Other Services
 OSR2.       9057              :Other Services
 OSR3.                         :Other Services
 BS  .IN         3.9           :Bit Size
 MST .F     SH                 :Mean Surface Temperature
 TGRD.F                        :Temperature Gradiant
 MAGN.      0                  :Magnetic Declination
 MDEN.      2.65               :Density Matrix
 MATR.      SANDSTONE          :Neutron Matrix
 DTMT.      54                 :Delta T Matrix
 DTFL.                         :Delta T Fluid
 MUDS.      FLOW LINE          :Mud Sample Source
 MRS .      .179               :Mud Resistivity
 MTP .      68.5               :Mud Temperature
 MFRS.                         :Resistivity Mud Filtrate
 MFTP.                         :Temperature Mud Filtrate
 MCRS.                         :Resistivity Mud Cake
 MCTP.                         :Temperature Mud Cake
 FTYP.      AIR                :Fluid Type
 FD  .LB/G    NA               :Mud Weight
 DFV .S                        :Fluid Viscosity
 FPH .                         :Fuild PH
 ELCO.      99999              :Electron Cutoff
 CASL.IN    3.5                :Casing Logger
 LOTD.FT    1328               :Logger TD
 ARTM.      12:20              :Arrival Time
 DPTM.                         :Departure Time
 RIGN.                         :Rig Number
~Other Information
#MNEM.UNIT  Information      Description
#---------- ---------------  ------------------------
# -------------------------- 
~A DEPTH  DEN(SS) DEN(LS) 
# ...
 439.800  150027.50 11515.00
 440.000  150130.00 11396.67
 440.200  149632.50 11682.50
 440.400  150006.67 11780.00
 440.600  149445.00 11470.00
 440.800  150063.33 11223.33
 441.000  149985.00 11210.00
 441.200  149630.00 11283.33
 441.400  148900.00 11215.00
 441.600  149846.67 10933.33
 441.800  149672.50 11277.50
 442.000  149106.67 11143.33
 442.200  149917.50 11127.50
 442.400  148993.33 10920.00
 442.600  149210.00 11295.00
 442.800  148846.67 11090.00
 443.000  149325.00 11353.33
 443.200  149322.50 11347.50
 443.400  149490.00 11266.67
 443.600  149142.50 11005.00
 443.800  148673.33 11173.33
 444.000  148860.00 10987.50
 444.200  148756.67 11086.67
 444.400  148920.00 11535.00
 444.600  148853.33 11333.33
 444.800  148850.00 11092.50
 445.000  149310.00 11273.33
 445.200  148730.00 11192.50
 445.400  149793.33 11483.33
 445.600  149487.50 11572.50
 445.800  150343.33 11803.33
 446.000  149965.00 11610.00
 446.200  149660.00 11326.67
 446.400  148002.50 10385.00
 446.600  145410.00 9970.00 
 446.800  142930.00 9483.33 
 447.000  140055.00 9307.50 
 447.200  139073.33 8586.67 
 447.400  139275.00 8487.50 
 447.600  138563.33 8396.67 
 447.800  138170.00 8667.50 
 448.000  138236.67 8460.00 
 448.200  138175.00 8275.00 
 448.400  137956.67 8540.00 
 448.600  138002.50 8632.50 
 448.800  136963.33 8353.33 
 449.000  137077.50 8297.50 
 449.200  136890.00 8263.33 
 449.400  137217.50 8210.00 
 449.600  137633.33 8260.00 
 449.800  137367.50 8423.33 
 450.000  136667.50 8280.00 
 450.200  137250.00 8430.00 
 450.400  136662.50 8200.00 
 450.600  137443.33 8160.00 
 450.800  137867.50 8202.50 
 451.000  137443.33 8280.00 
 451.200  137547.50 8517.50 
 451.400  137366.67 8176.67 
 451.600  137345.00 8302.50 
 451.800  136980.00 8260.00 
 452.000  136675.00 8395.00 
 452.200  137380.00 8263.33 
 452.400  137317.50 8152.50 
 452.600  137593.33 8216.67 
 452.800  137460.00 8152.50 
 453.000  137273.33 8512.50 
 453.200  136385.00 8236.67 
 453.400  137430.00 8275.00 
 453.600  136680.00 7966.67 
 453.800  137265.00 8240.00 
 454.000  136483.33 7913.33 
 454.200  136832.50 8350.00 
 454.400  136913.33 8103.33 
 454.600  137252.50 8355.00 
 454.800  136626.67 8106.67 
 455.000  137792.50 8157.50 
 455.200  137200.00 8160.00 
 455.400  137647.50 8070.00 
 455.600  137876.67 8416.67 
 455.800  137385.00 8030.00 
 456.000  137473.33 8123.33 
 456.200  137982.50 8310.00 
 456.400  137726.67 8050.00 
 456.600  137807.50 8453.33 
 456.800  137450.00 8232.50 
 457.000  137073.33 8090.00 
 457.200  137815.00 8165.00 
 457.400  137836.67 8136.67 
 457.600  138450.00 8522.50 
 457.800  139413.33 8260.00 
 458.000  138190.00 8622.50 
 458.200  137633.33 8183.33 
 458.400  138142.50 8157.50 
 458.600  138453.33 8356.67 
 458.800  138952.50 8692.50 
 459.000  139063.33 8550.00 
 459.200  139535.00 8623.33 
 459.400  138715.00 8412.50 
 459.600  139163.33 8573.33 
 459.800  138625.00 8580.00 
 460.000  139266.67 8426.67 
 460.200  138292.50 8387.50 
 460.400  139686.67 8616.67 
 460.600  138810.00 8352.50 
 460.800  139833.33 8890.00 
 461.000  138712.50 8462.50 
 461.200  140386.67 8720.00 
 461.400  139000.00 8650.00 
 461.600  139243.33 8433.33 
 461.800  139515.00 8750.00 
 462.000  139150.00 8803.33 
 462.200  139412.50 8697.50 
 462.400  138720.00 8527.50 
 462.600  138875.00 8866.67 
 462.800  139460.00 8452.50 
 463.000  140336.67 8590.00 
 463.200  141490.00 9272.50 
 463.400  142856.67 9816.67 
 463.600  147670.00 9932.50 
 463.800  149323.33 10373.33
 464.000  148792.50 10387.50
 464.200  146360.00 10300.00
 464.400  145332.50 10310.00
 464.600  146636.67 10203.33
 464.800  148980.00 10235.00
 465.000  148566.67 9946.67 
 465.200  147225.00 10217.50
 465.400  145250.00 9827.50 
 465.600  145042.50 9693.33 
 465.800  145605.00 9540.00 
 466.000  145273.33 9573.33 
 466.200  144555.00 9505.00 
 466.400  144326.67 9236.67 
 466.600  143302.50 9137.50 
 466.800  142256.67 9106.67 
 467.000  141385.00 8737.50 
 467.200  140293.33 8863.33 
 467.400  139675.00 8532.50 
 467.600  138983.33 8350.00 
 467.800  139550.00 9160.00 
 468.000  140880.00 9616.67 
 468.200  142305.00 9712.50 
 468.400  146380.00 10590.00
 468.600  147895.00 10680.00
 468.800  149295.00 11142.50
 469.000  148793.33 11120.00
 469.200  148712.50 11307.50
 469.400  148423.33 10863.33
 469.600  147957.50 10845.00
 469.800  147336.67 11213.33
 470.000  147292.50 10840.00
 470.200  147543.33 10836.67
 470.400  146340.00 10595.00
 470.600  146093.33 10746.67
 470.800  146362.50 10817.50
 471.000  147016.67 10610.00
 471.200  149597.50 11282.50
 471.400  150130.00 12467.50
 471.600  151710.00 13340.00
 471.800  154332.50 13567.50
 472.000  154776.67 13583.33
 472.200  154015.00 13450.00
 472.400  152573.33 13016.67
 472.600  151835.00 12765.00
 472.800  151660.00 12453.33
 473.000  151507.50 12812.50
 473.200  151346.67 13023.33
 473.400  152880.00 13595.00
 473.600  154216.67 13713.33
 473.800  156237.50 13987.50
 474.000  155526.67 14076.67
 474.200  154677.50 13870.00
 474.400  153936.67 13430.00
 474.600  153757.50 13080.00
 474.800  153772.50 12957.50
 475.000  152810.00 12356.67
 475.200  152680.00 11907.50
 475.400  151650.00 12423.33
 475.600  151127.50 12507.50
 475.800  152963.33 12056.67
 476.000  152265.00 12205.00
 476.200  152036.67 11976.67
 476.400  151660.00 11590.00
 476.600  149550.00 11046.67
 476.800  147357.50 10815.00
 477.000  146036.67 10180.00
 477.200  145537.50 9772.50 
 477.400  144193.33 9420.00 
 477.600  141345.00 9106.67 
 477.800  140522.50 8812.50 
 478.000  139190.00 8826.67 
 478.200  139485.00 8832.50 
 478.400  139023.33 8410.00 
 478.600  137565.00 8872.50 
 478.800  138010.00 8873.33 
 479.000  138127.50 8502.50 
 479.200  137883.33 8636.67 
 479.400  137860.00 8495.00 
 479.600  137673.33 8553.33 
 479.800  136992.50 8542.50 
 480.000  137110.00 8516.67 
 480.200  137352.50 8542.50 
 480.400  137316.67 8572.50 
 480.600  137320.00 8390.00 
 480.800  136707.50 8367.50 
 481.000  136273.33 8546.67 
 481.200  136502.50 8567.50 
 481.400  135673.33 8406.67 
 481.600  137005.00 8590.00 
 481.800  136813.33 8266.67 
 482.000  137397.50 8270.00 
 482.200  137006.67 8543.33 
 482.400  137515.00 8677.50 
 482.600  137396.67 8546.67 
 482.800  137715.00 8362.50 
 483.000  137566.67 8373.33 
 483.200  137797.50 8480.00 
 483.400  138240.00 8356.67 
 483.600  137885.00 8687.50 
 483.800  139406.67 8665.00 
 484.000  140765.00 8816.67 
 484.200  141165.00 9257.50 
 484.400  142636.67 9593.33 
 484.600  146890.00 9890.00 
 484.800  148693.33 10213.33
 485.000  148242.50 10802.50
 485.200  148030.00 10780.00
 485.400  148667.50 10770.00
 485.600  148746.67 9920.00 
 485.800  147480.00 9885.00 
 486.000  144296.67 9560.00 
 486.200  143345.00 9057.50 
 486.400  143036.67 9183.33 
 486.600  140300.00 10727.50
 486.800  144243.33 17257.50
 487.000  155725.00 21473.33
 487.200  136447.50 23995.00
 487.400  152690.00 27073.33
 487.600  156457.50 29080.00
 487.800  157650.00 24910.00
 488.000  157750.00 19812.50
 488.200  156723.33 16710.00
 488.400  155222.50 14865.00
 488.600  153830.00 13113.33
 488.800  153082.50 12592.50
 489.000  154363.33 12590.00
 489.200  153650.00 12375.00
 489.400  153223.33 12643.33
 489.600  153832.50 12307.50
 489.800  154023.33 12613.33
 490.000  152662.50 12942.50
 490.200  154323.33 12297.50
 490.400  153647.50 12570.00
 490.600  153057.50 12727.50
 490.800  154060.00 12843.33
 491.000  154085.00 12615.00
 491.200  154036.67 12713.33
 491.400  153552.50 12890.00
 491.600  153740.00 12483.33
 491.800  152732.50 12370.00
 492.000  152436.67 11720.00
 492.200  152305.00 11855.00
 492.400  151730.00 11543.33
 492.600  150640.00 11370.00
 492.800  150200.00 11270.00
 493.000  150595.00 11422.50
 493.200  150006.67 11537.50
 493.400  150185.00 11580.00
 493.600  152520.00 11567.50
 493.800  152140.00 11663.33
 494.000  151705.00 11850.00
 494.200  151176.67 11613.33
 494.400  151330.00 11595.00
 494.600  150673.33 11250.00
 494.800  149720.00 11625.00
