~Version Information
 VERS.                2.0:  CWLS LOG ASCII STANDARD -VERSION 2.0
 WRAP.                 NO:  ONE LINE PER DEPTH STEP
~WELL INFORMATION BLOCK
#MNEM.UNIT       DATA		            DESCRIPTION OF MNEMONIC
#---------    -------------            ------------------------
 STRT.FT  -2.200                         :START DEPTH
 STOP.FT  1323.200                       :STOP DEPTH
 STEP.FT  0.200                          :STEP    UP_HOLE  
 NULL.    -999.25                        :NULL VALUE
 COMP.    USGS                           :COMPANY
 WELL.    USGS 145                                                     :WELL
 FLD .    INL                            :FIELD\LOCATION
 LOC .                                   :LOCATION
 CNTY.    BUTTE                          :COUNTY
 STAT.    IDAHO                          :STATE
 CTRY.    USA                            :COUNTRY
 SRVC.    USGS                           :SERVICE COMPANY
 DATE.    07/16/2018                     :LOG DATE
 API .   CAL. 2017                           :API NUMBER
 LIC .    USGS                           :LICENSE NUMBER
~Curve Information Block
#MNEM.UNIT      API CODE     Curve Description
#---------    -------------  ------------------------
 DEPT     .FT        00 001 00 00          :  1  DEPTH   
 DEN(SS)  .CPS       00 350 00 00          :  2  SHORT SPACED DENS   
 DEN(LS)  .CPS       00 350 00 00          :  3  LONG SPACED DENSITY 
~Parameter Information Block
#MNEM.UNIT   Information     Description
#---------- ---------------  ------------------------
 FILE.      PROCESSED          :File Type
 FIID.      0024A              :File Type Identifier
 VERS.      3.60E              :System Version
 SER .      1                  :System Serial Number
 TRUK.      0.25               :Truck Calibration Number
 TOOL.         776             :Tool Serial Number
 TIME.      1403               :Time    HrHrMinMin
 LAT .                         :Latitude
 LON .                         :Longitude
 LMF .      LSD                :Log Measured From
 DMF .      LSD                :Driller Measured From
 PD  .                         :Permanent Data
 PDEV.FT                       :Elevation Permanent Data
 EKB .FT                       :Elevation Kelly Bushing
 ELEV.FT                       :Elevation DF
 EGL .FT                       :Elevation Ground Level
 DRDP.FT    1368               :Driller's Depth
 CASD.FT    10.                :Casing Diameter
 CASB.FT    1328               :Casing Bottom
 CASX.      SURFACE            :Casing Type
 CAST.IN    .25                :Casing Thickness
 TNOC.                         :Time Circulation Stopped
 LOGU.      USGS               :Logging Unit
 RECB.      MJG                :Recorded By
 OSR1.      9095               :Other Services
 OSR2.       9057              :Other Services
 OSR3.                         :Other Services
 BS  .IN         3.9           :Bit Size
 MST .F     SH                 :Mean Surface Temperature
 TGRD.F                        :Temperature Gradiant
 MAGN.      0                  :Magnetic Declination
 MDEN.      2.65               :Density Matrix
 MATR.      SANDSTONE          :Neutron Matrix
 DTMT.      54                 :Delta T Matrix
 DTFL.                         :Delta T Fluid
 MUDS.      FLOW LINE          :Mud Sample Source
 MRS .      .179               :Mud Resistivity
 MTP .      68.5               :Mud Temperature
 MFRS.                         :Resistivity Mud Filtrate
 MFTP.                         :Temperature Mud Filtrate
 MCRS.                         :Resistivity Mud Cake
 MCTP.                         :Temperature Mud Cake
 FTYP.      AIR                :Fluid Type
 FD  .LB/G    NA               :Mud Weight
 DFV .S                        :Fluid Viscosity
 FPH .                         :Fuild PH
 ELCO.      99999              :Electron Cutoff
 CASL.IN    3.5                :Casing Logger
 LOTD.FT    1328               :Logger TD
 ARTM.      12:20              :Arrival Time
 DPTM.                         :Departure Time
 RIGN.                         :Rig Number
~Other Information
#MNEM.UNIT  Information      Description
#---------- ---------------  ------------------------
# -------------------------- 
~A DEPTH  DEN(SS) DEN(LS) 
# ...
 771.000  115602.50 2120.00 
 771.200  114255.00 1987.50 
 771.400  113610.00 1935.00 
 771.600  113082.50 1800.00 
 771.800  112770.00 1897.50 
 772.000  111685.00 2016.67 
 772.200  113257.50 1890.00 
 772.400  113466.66 1990.00 
 772.600  113695.00 1842.50 
 772.800  111800.00 1872.50 
 773.000  111017.50 1863.33 
 773.200  110947.50 2027.50 
 773.400  111426.66 1775.00 
 773.600  112050.00 2040.00 
 773.800  110282.50 1727.50 
 774.000  110727.50 1800.00 
 774.200  112625.00 1887.50 
 774.400  113433.34 1907.50 
 774.600  113235.00 1915.00 
 774.800  111692.50 1970.00 
 775.000  111165.00 1940.00 
 775.200  110970.00 1835.00 
 775.400  110610.00 1840.00 
 775.600  109555.00 1740.00 
 775.800  109907.50 1833.33 
 776.000  110110.00 1827.50 
 776.200  109923.34 1797.50 
 776.400  109197.50 1800.00 
 776.600  108282.50 1652.50 
 776.800  108032.50 1583.33 
 777.000  108642.50 1605.00 
 777.200  107246.66 1820.00 
 777.400  106625.00 1700.00 
 777.600  106705.00 1627.50 
 777.800  106117.50 1680.00 
 778.000  105715.00 1667.50 
 778.200  104690.00 1520.00 
 778.400  105147.50 1697.50 
 778.600  104180.00 1392.50 
 778.800  104032.50 1520.00 
 779.000  103950.00 1575.00 
 779.200  104743.34 1525.00 
 779.400  104030.00 1620.00 
 779.600  105337.50 1535.00 
 779.800  105025.00 1506.67 
 780.000  106105.00 1592.50 
 780.200  106153.34 1560.00 
 780.400  105687.50 1725.00 
 780.600  106095.00 1753.33 
 780.800  106167.50 1707.50 
 781.000  106146.66 1567.50 
 781.200  106240.00 1595.00 
 781.400  105647.50 1652.50 
 781.600  105715.00 1730.00 
 781.800  106477.50 1500.00 
 782.000  105580.00 1625.00 
 782.200  105585.00 1667.50 
 782.400  105815.00 1530.00 
 782.600  105807.50 1743.33 
 782.800  105665.00 1607.50 
 783.000  106640.00 1610.00 
 783.200  105612.50 1610.00 
 783.400  106315.00 1660.00 
 783.600  105907.50 1563.33 
 783.800  106982.50 1762.50 
 784.000  107426.66 1660.00 
 784.200  108437.50 1795.00 
 784.400  109687.50 1727.50 
 784.600  110820.00 1850.00 
 784.800  111470.00 1865.00 
 785.000  112113.34 1915.00 
 785.200  111730.00 1800.00 
 785.400  112537.50 1850.00 
 785.600  112482.50 1766.67 
 785.800  112980.00 1970.00 
 786.000  112840.00 1942.50 
 786.200  112360.00 1795.00 
 786.400  112365.00 1876.67 
 786.600  111525.00 1855.00 
 786.800  111513.34 1845.00 
 787.000  111675.00 1837.50 
 787.200  111385.00 1872.50 
 787.400  111377.50 1710.00 
 787.600  111227.50 1777.50 
 787.800  111640.00 1667.50 
 788.000  110312.50 1697.50 
 788.200  110140.00 1662.50 
 788.400  108342.50 1746.67 
 788.600  107570.00 1692.50 
 788.800  108203.34 1600.00 
 789.000  107152.50 1545.00 
 789.200  106652.50 1685.00 
 789.400  106117.50 1610.00 
 789.600  105870.00 1527.50 
 789.800  106103.34 1452.50 
 790.000  106305.00 1657.50 
 790.200  105842.50 1640.00 
 790.400  106892.50 1620.00 
 790.600  106330.00 1617.50 
 790.800  106590.00 1590.00 
 791.000  106940.00 1615.00 
 791.200  106480.00 1525.00 
 791.400  107780.00 1700.00 
 791.600  108597.50 1655.00 
 791.800  111123.34 1767.50 
 792.000  113707.50 1925.00 
 792.200  114685.00 1890.00 
 792.400  114740.00 1950.00 
 792.600  113630.00 1877.50 
 792.800  112606.66 1917.50 
 793.000  112327.50 1905.00 
 793.200  112395.00 1862.50 
 793.400  113060.00 1863.33 
 793.600  112410.00 1802.50 
 793.800  113570.00 1862.50 
 794.000  112107.50 1890.00 
 794.200  111127.50 1835.00 
 794.400  111792.50 1833.33 
 794.600  111412.50 1817.50 
 794.800  111086.66 1887.50 
 795.000  110837.50 1665.00 
 795.200  110592.50 1840.00 
 795.400  110097.50 1723.33 
 795.600  110975.00 1802.50 
 795.800  110500.00 1867.50 
 796.000  110987.50 1800.00 
 796.200  109900.00 1920.00 
 796.400  110352.50 1736.67 
 796.600  110202.50 1790.00 
 796.800  110546.66 1762.50 
 797.000  109715.00 1752.50 
 797.200  108747.50 1592.50 
 797.400  110142.50 1793.33 
 797.600  109422.50 1682.50 
 797.800  109176.66 1677.50 
 798.000  108870.00 1695.00 
 798.200  108335.00 1642.50 
 798.400  107587.50 1756.67 
 798.600  108017.50 1717.50 
 798.800  108026.66 1705.00 
 799.000  108070.00 1715.00 
 799.200  109110.00 1717.50 
 799.400  110380.00 1806.67 
 799.600  113125.00 1842.50 
 799.800  116116.66 1867.50 
 800.000  119197.50 2075.00 
 800.200  121622.50 2093.33 
 800.400  122920.00 2135.00 
 800.600  122576.66 2122.50 
 800.800  121657.50 2155.00 
 801.000  122240.00 2075.00 
 801.200  122110.00 2133.33 
 801.400  121675.00 2287.50 
 801.600  121246.66 2137.50 
 801.800  121422.50 2057.50 
 802.000  121537.50 1995.00 
 802.200  121355.00 2190.00 
 802.400  121450.00 2180.00 
 802.600  121066.66 2135.00 
 802.800  120790.00 2102.50 
 803.000  121770.00 2277.50 
 803.200  121330.00 2190.00 
 803.400  121210.00 2046.67 
 803.600  120910.00 2292.50 
 803.800  120910.00 2247.50 
 804.000  121365.00 2185.00 
 804.200  121000.00 2027.50 
 804.400  120652.50 2070.00 
 804.600  120982.50 2060.00 
 804.800  121436.66 2090.00 
 805.000  120080.00 2010.00 
 805.200  120560.00 2115.00 
 805.400  120562.50 2130.00 
 805.600  120620.00 2042.50 
 805.800  120320.00 2080.00 
 806.000  121155.00 2002.50 
 806.200  120622.50 2132.50 
 806.400  120280.00 2150.00 
 806.600  120182.50 2035.00 
 806.800  119903.34 2067.50 
 807.000  120147.50 2177.50 
 807.200  119660.00 2082.50 
 807.400  119430.00 2096.67 
 807.600  119760.00 2082.50 
 807.800  119776.66 2065.00 
 808.000  119810.00 2035.00 
 808.200  117202.50 1935.00 
 808.400  113980.00 1796.67 
 808.600  110422.50 1855.00 
 808.800  107660.00 1827.50 
 809.000  106292.50 1817.50 
 809.200  106702.50 1673.33 
 809.400  107315.00 1742.50 
 809.600  109816.66 1732.50 
 809.800  113175.00 1815.00 
 810.000  117250.00 1922.50 
 810.200  119127.50 2140.00 
 810.400  119955.00 2057.50 
 810.600  119410.00 2012.50 
 810.800  119927.50 2000.00 
 811.000  119635.00 1987.50 
 811.200  118830.00 2016.67 
 811.400  118987.50 1820.00 
 811.600  117746.66 2040.00 
 811.800  117530.00 2015.00 
 812.000  118347.50 1962.50 
 812.200  117392.50 1966.67 
 812.400  117352.50 1852.50 
 812.600  117286.66 1965.00 
 812.800  116687.50 1915.00 
 813.000  116045.00 1965.00 
 813.200  115362.50 1990.00 
 813.400  115525.00 2080.00 
 813.600  115583.34 2025.00 
 813.800  116485.00 1927.50 
 814.000  116002.50 2010.00 
 814.200  115892.50 1950.00 
 814.400  115810.00 1910.00 
 814.600  116330.00 1972.50 
 814.800  116062.50 1867.50 
 815.000  116530.00 2060.00 
 815.200  117110.00 2023.33 
 815.400  116962.50 1932.50 
 815.600  116696.66 2055.00 
 815.800  116935.00 1892.50 
 816.000  118002.50 1997.50 
 816.200  117352.50 1973.33 
 816.400  118345.00 1975.00 
 816.600  119376.66 1977.50 
 816.800  120947.50 2060.00 
 817.000  120835.00 2115.00 
 817.200  120942.50 2150.00 
 817.400  121020.00 2140.00 
 817.600  120770.00 2102.50 
 817.800  120847.50 2157.50 
 818.000  119370.00 1935.00 
 818.200  116902.50 1893.33 
 818.400  113340.00 1925.00 
 818.600  110096.66 1772.50 
 818.800  108042.50 1752.50 
 819.000  107472.50 1637.50 
 819.200  106667.50 1576.67 
 819.400  106770.00 1600.00 
 819.600  105416.66 1710.00 
 819.800  106930.00 1647.50 
 820.000  105670.00 1610.00 
 820.200  106285.00 1740.00 
 820.400  105662.50 1547.50 
 820.600  105220.00 1577.50 
 820.800  105027.50 1580.00 
 821.000  105097.50 1700.00 
 821.200  105470.00 1660.00 
 821.400  105342.50 1535.00 
 821.600  105583.34 1705.00 
 821.800  105520.00 1582.50 
 822.000  105527.50 1560.00 
 822.200  105155.00 1570.00 
 822.400  105175.00 1562.50 
 822.600  105380.00 1655.00 
 822.800  105837.50 1632.50 
 823.000  105150.00 1615.00 
 823.200  105502.50 1520.00 
 823.400  105625.00 1627.50 
 823.600  106236.66 1577.50 
 823.800  106387.50 1585.00 
 824.000  107045.00 1720.00 
 824.200  108290.00 1560.00 
 824.400  108202.50 1622.50 
 824.600  109003.34 1810.00 
 824.800  110495.00 1790.00 
 825.000  110822.50 1765.00 
 825.200  111400.00 1903.33 
 825.400  113075.00 1912.50 
 825.600  114990.00 1997.50 
 825.800  115330.00 1950.00 
 826.000  115627.50 2007.50 
