~Version Information
 VERS.                2.0:  CWLS LOG ASCII STANDARD -VERSION 2.0
 WRAP.                 NO:  ONE LINE PER DEPTH STEP
~WELL INFORMATION BLOCK
#MNEM.UNIT       DATA		            DESCRIPTION OF MNEMONIC
#---------    -------------            ------------------------
 STRT.FT  -2.200                         :START DEPTH
 STOP.FT  1323.200                       :STOP DEPTH
 STEP.FT  0.200                          :STEP    UP_HOLE  
 NULL.    -999.25                        :NULL VALUE
 COMP.    USGS                           :COMPANY
 WELL.    USGS 145                                                     :WELL
 FLD .    INL                            :FIELD\LOCATION
 LOC .                                   :LOCATION
 CNTY.    BUTTE                          :COUNTY
 STAT.    IDAHO                          :STATE
 CTRY.    USA                            :COUNTRY
 SRVC.    USGS                           :SERVICE COMPANY
 DATE.    07/16/2018                     :LOG DATE
 API .   CAL. 2017                           :API NUMBER
 LIC .    USGS                           :LICENSE NUMBER
~Curve Information Block
#MNEM.UNIT      API CODE     Curve Description
#---------    -------------  ------------------------
 DEPT     .FT        00 001 00 00          :  1  DEPTH   
 DEN(SS)  .CPS       00 350 00 00          :  2  SHORT SPACED DENS   
 DEN(LS)  .CPS       00 350 00 00          :  3  LONG SPACED DENSITY 
~Parameter Information Block
#MNEM.UNIT   Information     Description
#---------- ---------------  ------------------------
 FILE.      PROCESSED          :File Type
 FIID.      0024A              :File Type Identifier
 VERS.      3.60E              :System Version
 SER .      1                  :System Serial Number
 TRUK.      0.25               :Truck Calibration Number
 TOOL.         776             :Tool Serial Number
 TIME.      1403               :Time    HrHrMinMin
 LAT .                         :Latitude
 LON .                         :Longitude
 LMF .      LSD                :Log Measured From
 DMF .      LSD                :Driller Measured From
 PD  .                         :Permanent Data
 PDEV.FT                       :Elevation Permanent Data
 EKB .FT                       :Elevation Kelly Bushing
 ELEV.FT                       :Elevation DF
 EGL .FT                       :Elevation Ground Level
 DRDP.FT    1368               :Driller's Depth
 CASD.FT    10.                :Casing Diameter
 CASB.FT    1328               :Casing Bottom
 CASX.      SURFACE            :Casing Type
 CAST.IN    .25                :Casing Thickness
 TNOC.                         :Time Circulation Stopped
 LOGU.      USGS               :Logging Unit
 RECB.      MJG                :Recorded By
 OSR1.      9095               :Other Services
 OSR2.       9057              :Other Services
 OSR3.                         :Other Services
 BS  .IN         3.9           :Bit Size
 MST .F     SH                 :Mean Surface Temperature
 TGRD.F                        :Temperature Gradiant
 MAGN.      0                  :Magnetic Declination
 MDEN.      2.65               :Density Matrix
 MATR.      SANDSTONE          :Neutron Matrix
 DTMT.      54                 :Delta T Matrix
 DTFL.                         :Delta T Fluid
 MUDS.      FLOW LINE          :Mud Sample Source
 MRS .      .179               :Mud Resistivity
 MTP .      68.5               :Mud Temperature
 MFRS.                         :Resistivity Mud Filtrate
 MFTP.                         :Temperature Mud Filtrate
 MCRS.                         :Resistivity Mud Cake
 MCTP.                         :Temperature Mud Cake
 FTYP.      AIR                :Fluid Type
 FD  .LB/G    NA               :Mud Weight
 DFV .S                        :Fluid Viscosity
 FPH .                         :Fuild PH
 ELCO.      99999              :Electron Cutoff
 CASL.IN    3.5                :Casing Logger
 LOTD.FT    1328               :Logger TD
 ARTM.      12:20              :Arrival Time
 DPTM.                         :Departure Time
 RIGN.                         :Rig Number
~Other Information
#MNEM.UNIT  Information      Description
#---------- ---------------  ------------------------
# -------------------------- 
~A DEPTH  DEN(SS) DEN(LS) 
# ...
 826.200  114137.50 1930.00 
 826.400  113480.00 1947.50 
 826.600  113733.34 1982.50 
 826.800  112747.50 2050.00 
 827.000  112287.50 1905.00 
 827.200  112270.00 1922.50 
 827.400  112812.50 1900.00 
 827.600  112117.50 1860.00 
 827.800  111520.00 1947.50 
 828.000  110792.50 1827.50 
 828.200  110457.50 1777.50 
 828.400  110942.50 1846.67 
 828.600  109920.00 1900.00 
 828.800  110250.00 1822.50 
 829.000  109565.00 1680.00 
 829.200  110330.00 1715.00 
 829.400  109760.00 1800.00 
 829.600  108902.50 1755.00 
 829.800  109703.34 1785.00 
 830.000  110095.00 1757.50 
 830.200  109852.50 1723.33 
 830.400  110157.50 1865.00 
 830.600  110036.66 1722.50 
 830.800  110307.50 1730.00 
 831.000  110590.00 1815.00 
 831.200  110002.50 1770.00 
 831.400  109430.00 1685.00 
 831.600  110176.66 1757.50 
 831.800  108527.50 1747.50 
 832.000  109152.50 1632.50 
 832.200  107792.50 1710.00 
 832.400  106667.50 1637.50 
 832.600  107290.00 1700.00 
 832.800  106767.50 1667.50 
 833.000  106107.50 1712.50 
 833.200  106365.00 1652.50 
 833.400  106900.00 1653.33 
 833.600  107262.50 1542.50 
 833.800  107223.34 1650.00 
 834.000  106807.50 1672.50 
 834.200  106370.00 1737.50 
 834.400  106502.50 1706.67 
 834.600  105882.50 1600.00 
 834.800  106480.00 1677.50 
 835.000  106012.50 1675.00 
 835.200  105887.50 1616.67 
 835.400  105990.00 1597.50 
 835.600  105480.00 1595.00 
 835.800  106090.00 1552.50 
 836.000  106507.50 1605.00 
 836.200  106447.50 1703.33 
 836.400  107952.50 1700.00 
 836.600  108176.66 1720.00 
 836.800  110837.50 1802.50 
 837.000  113455.00 2000.00 
 837.200  114582.50 2083.33 
 837.400  116857.50 2077.50 
 837.600  117630.00 2220.00 
 837.800  118392.50 2012.50 
 838.000  117212.50 2137.50 
 838.200  116317.50 2100.00 
 838.400  114247.50 1960.00 
 838.600  113757.50 2015.00 
 838.800  112943.34 1892.50 
 839.000  112127.50 1857.50 
 839.200  112280.00 1800.00 
 839.400  112660.00 1885.00 
 839.600  113410.00 1882.50 
 839.800  115640.00 1972.50 
 840.000  117932.50 1952.50 
 840.200  119552.50 2043.33 
 840.400  121310.00 1937.50 
 840.600  120946.66 2075.00 
 840.800  121972.50 2032.50 
 841.000  121120.00 2055.00 
 841.200  122342.50 2266.67 
 841.400  123732.50 2165.00 
 841.600  124160.00 2182.50 
 841.800  126335.00 2510.00 
 842.000  129062.50 2482.50 
 842.200  131492.50 2567.50 
 842.400  131695.00 2570.00 
 842.600  131627.50 2827.50 
 842.800  129836.66 2577.50 
 843.000  128022.50 2620.00 
 843.200  125935.00 2455.00 
 843.400  126707.50 2416.67 
 843.600  127745.00 2425.00 
 843.800  128543.34 2450.00 
 844.000  129590.00 2547.50 
 844.200  130370.00 2595.00 
 844.400  129835.00 2546.67 
 844.600  131515.00 2812.50 
 844.800  132143.33 2680.00 
 845.000  133762.50 2912.50 
 845.200  133455.00 2825.00 
 845.400  130815.00 2860.00 
 845.600  130082.50 2587.50 
 845.800  130320.00 2622.50 
 846.000  130445.00 2757.50 
 846.200  130855.00 2630.00 
 846.400  130897.50 2816.67 
 846.600  131595.00 2677.50 
 846.800  131046.66 2642.50 
 847.000  131662.50 2702.50 
 847.200  131777.50 2712.50 
 847.400  130927.50 2726.67 
 847.600  129525.00 2650.00 
 847.800  129120.00 2570.00 
 848.000  127780.00 2240.00 
 848.200  123830.00 2057.50 
 848.400  117997.50 2083.33 
 848.600  112982.50 1920.00 
 848.800  109683.34 1817.50 
 849.000  107377.50 1610.00 
 849.200  107802.50 1582.50 
 849.400  108220.00 1590.00 
 849.600  106340.00 1535.00 
 849.800  105943.34 1630.00 
 850.000  106077.50 1582.50 
 850.200  106950.00 1677.50 
 850.400  106962.50 1513.33 
 850.600  105965.00 1555.00 
 850.800  107203.34 1500.00 
 851.000  107512.50 1695.00 
 851.200  108125.00 1595.00 
 851.400  109175.00 1630.00 
 851.600  110402.50 1772.50 
 851.800  111770.00 1812.50 
 852.000  111535.00 1920.00 
 852.200  113225.00 1907.50 
 852.400  115590.00 1990.00 
 852.600  116747.50 2003.33 
 852.800  116755.00 1967.50 
 853.000  115756.66 2007.50 
 853.200  114267.50 1915.00 
 853.400  112915.00 1995.00 
 853.600  111990.00 1716.67 
 853.800  111295.00 1830.00 
 854.000  110650.00 1897.50 
 854.200  110002.50 1785.00 
 854.400  110362.50 1682.50 
 854.600  109555.00 1796.67 
 854.800  109655.00 1745.00 
 855.000  108510.00 1742.50 
 855.200  108532.50 1580.00 
 855.400  109025.00 1755.00 
 855.600  108967.50 1680.00 
 855.800  108272.50 1607.50 
 856.000  107960.00 1705.00 
 856.200  109025.00 1690.00 
 856.400  109457.50 1675.00 
 856.600  109805.00 1670.00 
 856.800  109555.00 1715.00 
 857.000  108183.34 1667.50 
 857.200  108082.50 1670.00 
 857.400  107810.00 1742.50 
 857.600  107290.00 1833.33 
 857.800  108397.50 1717.50 
 858.000  108313.34 1610.00 
 858.200  108250.00 1637.50 
 858.400  108517.50 1547.50 
 858.600  106437.50 1616.67 
 858.800  106195.00 1597.50 
 859.000  104920.00 1585.00 
 859.200  105760.00 1670.00 
 859.400  106642.50 1602.50 
 859.600  108252.50 1740.00 
 859.800  110592.50 1882.50 
 860.000  114060.00 1840.00 
 860.200  116500.00 2085.00 
 860.400  120245.00 2000.00 
 860.600  120447.50 2140.00 
 860.800  120805.00 2220.00 
 861.000  120022.50 2150.00 
 861.200  120260.00 2165.00 
 861.400  121592.50 2107.50 
 861.600  120855.00 2092.50 
 861.800  121517.50 2123.33 
 862.000  121910.00 2045.00 
 862.200  121986.66 2047.50 
 862.400  121647.50 2170.00 
 862.600  121977.50 2300.00 
 862.800  123365.00 2203.33 
 863.000  124667.50 2232.50 
 863.200  124783.34 2230.00 
 863.400  125237.50 2417.50 
 863.600  125775.00 2547.50 
 863.800  128232.50 2420.00 
 864.000  128797.50 2577.50 
 864.200  129200.00 2482.50 
 864.400  128140.00 2445.00 
 864.600  125880.00 2437.50 
 864.800  124897.50 2470.00 
 865.000  125487.50 2467.50 
 865.200  126473.34 2470.00 
 865.400  127432.50 2510.00 
 865.600  127887.50 2835.00 
 865.800  130880.00 2923.33 
 866.000  132052.50 2760.00 
 866.200  131880.00 2745.00 
 866.400  128232.50 2775.00 
 866.600  126880.00 2640.00 
 866.800  126827.50 2796.67 
 867.000  126675.00 2540.00 
 867.200  126066.66 2495.00 
 867.400  125922.50 2390.00 
 867.600  124465.00 2452.50 
 867.800  124010.00 2283.33 
 868.000  122315.00 2217.50 
 868.200  120830.00 2012.50 
 868.400  117355.00 1857.50 
 868.600  113462.50 1815.00 
 868.800  109212.50 1890.00 
 869.000  108125.00 1810.00 
 869.200  108790.00 1700.00 
 869.400  110915.00 1867.50 
 869.600  113552.50 2010.00 
 869.800  117312.50 1970.00 
 870.000  122882.50 2232.50 
 870.200  124743.34 2265.00 
 870.400  127195.00 2575.00 
 870.600  129197.50 2600.00 
 870.800  129152.50 2670.00 
 871.000  127677.50 2533.33 
 871.200  128100.00 2460.00 
 871.400  128530.00 2652.50 
 871.600  127732.50 2607.50 
 871.800  127420.00 2525.00 
 872.000  127415.00 2500.00 
 872.200  127642.50 2532.50 
 872.400  127323.34 2585.00 
 872.600  125765.00 2477.50 
 872.800  126085.00 2580.00 
 873.000  125017.50 2313.33 
 873.200  125652.50 2425.00 
 873.400  125006.66 2382.50 
 873.600  124940.00 2537.50 
 873.800  126482.50 2282.50 
 874.000  125967.50 2403.33 
 874.200  124885.00 2405.00 
 874.400  124173.34 2355.00 
 874.600  124972.50 2280.00 
 874.800  124727.50 2385.00 
 875.000  124997.50 2310.00 
 875.200  124545.00 2412.50 
 875.400  124660.00 2470.00 
 875.600  124662.50 2400.00 
 875.800  125882.50 2495.00 
 876.000  124192.50 2260.00 
 876.200  123255.00 2307.50 
 876.400  121943.34 2150.00 
 876.600  121265.00 2212.50 
 876.800  121155.00 2077.50 
 877.000  120480.00 2267.50 
 877.200  120972.50 2040.00 
 877.400  121587.50 2155.00 
 877.600  120840.00 2145.00 
 877.800  121090.00 2085.00 
 878.000  120867.50 1952.50 
 878.200  119222.50 2053.33 
 878.400  115565.00 1852.50 
 878.600  111530.00 1715.00 
 878.800  108450.00 1710.00 
 879.000  106790.00 1617.50 
 879.200  106630.00 1683.33 
 879.400  106365.00 1600.00 
 879.600  105250.00 1550.00 
 879.800  105462.50 1687.50 
 880.000  105192.50 1632.50 
 880.200  104817.50 1690.00 
 880.400  105182.50 1587.50 
 880.600  105133.34 1570.00 
 880.800  105532.50 1560.00 
 881.000  105310.00 1665.00 
 881.200  104922.50 1386.67 
