~Version Information
 VERS.                2.0:  CWLS LOG ASCII STANDARD -VERSION 2.0
 WRAP.                 NO:  ONE LINE PER DEPTH STEP
~WELL INFORMATION BLOCK
#MNEM.UNIT       DATA		            DESCRIPTION OF MNEMONIC
#---------    -------------            ------------------------
 STRT.FT  -2.200                         :START DEPTH
 STOP.FT  1323.200                       :STOP DEPTH
 STEP.FT  0.200                          :STEP    UP_HOLE  
 NULL.    -999.25                        :NULL VALUE
 COMP.    USGS                           :COMPANY
 WELL.    USGS 145                                                     :WELL
 FLD .    INL                            :FIELD\LOCATION
 LOC .                                   :LOCATION
 CNTY.    BUTTE                          :COUNTY
 STAT.    IDAHO                          :STATE
 CTRY.    USA                            :COUNTRY
 SRVC.    USGS                           :SERVICE COMPANY
 DATE.    07/16/2018                     :LOG DATE
 API .   CAL. 2017                           :API NUMBER
 LIC .    USGS                           :LICENSE NUMBER
~Curve Information Block
#MNEM.UNIT      API CODE     Curve Description
#---------    -------------  ------------------------
 DEPT     .FT        00 001 00 00          :  1  DEPTH   
 DEN(SS)  .CPS       00 350 00 00          :  2  SHORT SPACED DENS   
 DEN(LS)  .CPS       00 350 00 00          :  3  LONG SPACED DENSITY 
~Parameter Information Block
#MNEM.UNIT   Information     Description
#---------- ---------------  ------------------------
 FILE.      PROCESSED          :File Type
 FIID.      0024A              :File Type Identifier
 VERS.      3.60E              :System Version
 SER .      1                  :System Serial Number
 TRUK.      0.25               :Truck Calibration Number
 TOOL.         776             :Tool Serial Number
 TIME.      1403               :Time    HrHrMinMin
 LAT .                         :Latitude
 LON .                         :Longitude
 LMF .      LSD                :Log Measured From
 DMF .      LSD                :Driller Measured From
 PD  .                         :Permanent Data
 PDEV.FT                       :Elevation Permanent Data
 EKB .FT                       :Elevation Kelly Bushing
 ELEV.FT                       :Elevation DF
 EGL .FT                       :Elevation Ground Level
 DRDP.FT    1368               :Driller's Depth
 CASD.FT    10.                :Casing Diameter
 CASB.FT    1328               :Casing Bottom
 CASX.      SURFACE            :Casing Type
 CAST.IN    .25                :Casing Thickness
 TNOC.                         :Time Circulation Stopped
 LOGU.      USGS               :Logging Unit
 RECB.      MJG                :Recorded By
 OSR1.      9095               :Other Services
 OSR2.       9057              :Other Services
 OSR3.                         :Other Services
 BS  .IN         3.9           :Bit Size
 MST .F     SH                 :Mean Surface Temperature
 TGRD.F                        :Temperature Gradiant
 MAGN.      0                  :Magnetic Declination
 MDEN.      2.65               :Density Matrix
 MATR.      SANDSTONE          :Neutron Matrix
 DTMT.      54                 :Delta T Matrix
 DTFL.                         :Delta T Fluid
 MUDS.      FLOW LINE          :Mud Sample Source
 MRS .      .179               :Mud Resistivity
 MTP .      68.5               :Mud Temperature
 MFRS.                         :Resistivity Mud Filtrate
 MFTP.                         :Temperature Mud Filtrate
 MCRS.                         :Resistivity Mud Cake
 MCTP.                         :Temperature Mud Cake
 FTYP.      AIR                :Fluid Type
 FD  .LB/G    NA               :Mud Weight
 DFV .S                        :Fluid Viscosity
 FPH .                         :Fuild PH
 ELCO.      99999              :Electron Cutoff
 CASL.IN    3.5                :Casing Logger
 LOTD.FT    1328               :Logger TD
 ARTM.      12:20              :Arrival Time
 DPTM.                         :Departure Time
 RIGN.                         :Rig Number
~Other Information
#MNEM.UNIT  Information      Description
#---------- ---------------  ------------------------
# -------------------------- 
~A DEPTH  DEN(SS) DEN(LS) 
# ...
 991.800  109230.00 1743.33 
 992.000  108367.50 1747.50 
 992.200  107490.00 1730.00 
 992.400  108105.00 1650.00 
 992.600  107987.50 1630.00 
 992.800  107686.66 1622.50 
 993.000  106765.00 1590.00 
 993.200  107575.00 1672.50 
 993.400  107246.66 1782.50 
 993.600  107465.00 1693.33 
 993.800  107427.50 1660.00 
 994.000  107700.00 1672.50 
 994.200  105955.00 1630.00 
 994.400  106882.50 1650.00 
 994.600  105755.00 1680.00 
 994.800  106123.34 1585.00 
 995.000  105850.00 1516.67 
 995.200  105185.00 1532.50 
 995.400  104923.34 1615.00 
 995.600  104917.50 1553.33 
 995.800  103967.50 1530.00 
 996.000  103480.00 1577.50 
 996.200  103577.50 1560.00 
 996.400  103930.00 1483.33 
 996.600  103497.50 1520.00 
 996.800  102516.66 1552.50 
 997.000  102097.50 1503.33 
 997.200  102285.00 1507.50 
 997.400  101963.34 1500.00 
 997.600  101892.50 1563.33 
 997.800  102877.50 1542.50 
 998.000  103923.34 1520.00 
 998.200  103675.00 1560.00 
 998.400  103455.00 1656.67 
 998.600  103792.50 1467.50 
 998.800  103823.34 1600.00 
 999.000  104660.00 1583.33 
 999.200  105300.00 1640.00 
 999.400  108410.00 1702.50 
 999.600  111462.50 1790.00 
 999.800  115587.50 1985.00 
1000.000  118593.34 2027.50 
1000.200  118027.50 1926.67 
1000.400  115915.00 2137.50 
1000.600  115320.00 2112.50 
1000.800  114820.00 2097.50 
1001.000  113930.00 1940.00 
1001.200  112267.50 1837.50 
1001.400  110096.66 1870.00 
1001.600  109307.50 1720.00 
1001.800  107772.50 1772.50 
1002.000  107613.34 1750.00 
1002.200  107722.50 1780.00 
1002.400  107830.00 1662.50 
1002.600  109296.66 1750.00 
1002.800  110437.50 1675.00 
1003.000  111867.50 1773.33 
1003.200  114177.50 1887.50 
1003.400  115193.34 2102.50 
1003.600  115235.00 2063.33 
1003.800  116100.00 2000.00 
1004.000  115626.66 1992.50 
1004.200  114875.00 2196.67 
1004.400  114777.50 2010.00 
1004.600  115433.34 2025.00 
1004.800  115520.00 2056.67 
1005.000  114940.00 1997.50 
1005.200  112816.66 2010.00 
1005.400  112407.50 2075.00 
1005.600  112097.50 1960.00 
1005.800  111827.50 1932.50 
1006.000  111863.34 1890.00 
1006.200  111237.50 1846.67 
1006.400  111525.00 1802.50 
1006.600  111806.66 1902.50 
1006.800  111300.00 1936.67 
1007.000  111812.50 1992.50 
1007.200  112850.00 1947.50 
1007.400  113120.00 1957.50 
1007.600  112475.00 2010.00 
1007.800  110285.00 1845.00 
1008.000  109836.66 1782.50 
1008.200  107807.50 1736.67 
1008.400  108275.00 1672.50 
1008.600  108323.34 1637.50 
1008.800  107485.00 1566.67 
1009.000  106630.00 1725.00 
1009.200  105460.00 1617.50 
1009.400  105675.00 1650.00 
1009.600  106210.00 1660.00 
1009.800  105262.50 1490.00 
1010.000  105096.66 1605.00 
1010.200  105480.00 1703.33 
1010.400  104482.50 1645.00 
1010.600  105983.34 1675.00 
1010.800  109385.00 1803.33 
1011.000  115512.50 2132.50 
1011.200  121793.34 2265.00 
1011.400  125890.00 2373.33 
1011.600  122070.00 2195.00 
1011.800  115113.34 2022.50 
1012.000  107822.50 1872.50 
1012.200  104850.00 1753.33 
1012.400  105267.50 1622.50 
1012.600  107836.66 1847.50 
1012.800  110735.00 1713.33 
1013.000  108625.00 1690.00 
1013.200  106506.66 1785.00 
1013.400  104062.50 1550.00 
1013.600  104737.50 1550.00 
1013.800  103500.00 1405.00 
1014.000  103862.50 1575.00 
1014.200  104525.00 1523.33 
1014.400  105940.00 1697.50 
1014.600  108070.00 1592.50 
1014.800  108647.50 1723.33 
1015.000  111030.00 2017.50 
1015.200  117333.34 2285.00 
1015.400  123812.50 2193.33 
1015.600  128087.50 2755.00 
1015.800  126963.34 2987.50 
1016.000  127700.00 2962.50 
1016.200  126847.50 2923.33 
1016.400  126397.50 2970.00 
1016.600  126026.66 3180.00 
1016.800  128552.50 3316.67 
1017.000  133742.50 3430.00 
1017.200  136963.33 3735.00 
1017.400  138035.00 4190.00 
1017.600  139692.50 4332.50 
1017.800  140720.00 4582.50 
1018.000  140792.50 4660.00 
1018.200  138902.50 4596.67 
1018.400  137940.00 4192.50 
1018.600  133563.33 4587.50 
1018.800  134565.00 4913.33 
1019.000  140850.00 4797.50 
1019.200  144260.00 4717.50 
1019.400  141202.50 4333.33 
1019.600  135867.50 4120.00 
1019.800  132120.00 3920.00 
1020.000  133247.50 3536.67 
1020.200  133150.00 3272.50 
1020.400  132990.00 3312.50 
1020.600  131032.50 3335.00 
1020.800  129172.50 3560.00 
1021.000  129470.00 3457.50 
1021.200  134370.00 3255.00 
1021.400  135862.50 3016.67 
1021.600  131215.00 2885.00 
1021.800  125523.34 3042.50 
1022.000  124007.50 2803.33 
1022.200  122307.50 2627.50 
1022.400  121720.00 2455.00 
1022.600  118060.00 2240.00 
1022.800  114737.50 2250.00 
1023.000  113185.00 2115.00 
1023.200  113970.00 1967.50 
1023.400  113227.50 1943.33 
1023.600  113567.50 1852.50 
1023.800  112900.00 2040.00 
1024.000  114460.00 1960.00 
1024.200  114850.00 1975.00 
1024.400  114950.00 1962.50 
1024.600  113535.00 1905.00 
1024.800  111517.50 1850.00 
1025.000  110675.00 1855.00 
1025.200  110533.34 1805.00 
1025.400  110742.50 1673.33 
1025.600  110975.00 1867.50 
1025.800  110896.66 1790.00 
1026.000  110970.00 1926.67 
1026.200  109537.50 1762.50 
1026.400  109413.34 1807.50 
1026.600  109607.50 1753.33 
1026.800  109070.00 1862.50 
1027.000  109740.00 1712.50 
1027.200  109270.00 1767.50 
1027.400  109185.00 1853.33 
1027.600  109255.00 1857.50 
1027.800  107886.66 1815.00 
1028.000  109017.50 1763.33 
1028.200  108642.50 1820.00 
1028.400  108020.00 1790.00 
1028.600  107710.00 1776.67 
1028.800  107597.50 1667.50 
1029.000  106920.00 1825.00 
1029.200  107162.50 1695.00 
1029.400  107355.00 1620.00 
1029.600  108605.00 1687.50 
1029.800  107773.34 1712.50 
1030.000  107285.00 1756.67 
1030.200  106857.50 1605.00 
1030.400  106143.34 1587.50 
1030.600  107140.00 1736.67 
1030.800  106625.00 1695.00 
1031.000  106723.34 1615.00 
1031.200  107220.00 1720.00 
1031.400  106850.00 1722.50 
1031.600  105906.66 1700.00 
1031.800  106275.00 1740.00 
1032.000  106772.50 1726.67 
1032.200  107490.00 1670.00 
1032.400  107170.00 1695.00 
1032.600  106565.00 1710.00 
1032.800  106482.50 1550.00 
1033.000  106723.34 1595.00 
1033.200  106947.50 1910.00 
1033.400  107292.50 1680.00 
1033.600  106110.00 1600.00 
1033.800  105995.00 1730.00 
1034.000  106757.50 1753.33 
1034.200  106850.00 1730.00 
1034.400  106680.00 1732.50 
1034.600  105937.50 1636.67 
1034.800  106330.00 1550.00 
1035.000  106410.00 1612.50 
1035.200  106167.50 1626.67 
1035.400  106260.00 1597.50 
1035.600  105796.66 1627.50 
1035.800  105712.50 1665.00 
1036.000  106025.00 1730.00 
1036.200  106175.00 1532.50 
1036.400  107100.00 1567.50 
1036.600  106470.00 1676.67 
1036.800  105390.00 1655.00 
1037.000  105863.34 1747.50 
1037.200  106200.00 1752.50 
1037.400  106640.00 1723.33 
1037.600  106352.50 1740.00 
1037.800  107303.34 1750.00 
1038.000  109195.00 1850.00 
1038.200  108237.50 1742.50 
1038.400  108026.66 1672.50 
1038.600  107487.50 1770.00 
1038.800  107720.00 1702.50 
1039.000  108850.00 1932.50 
1039.200  109017.50 1780.00 
1039.400  108825.00 1990.00 
1039.600  108925.00 2005.00 
1039.800  108843.34 1875.00 
1040.000  109127.50 1950.00 
1040.200  109285.00 2010.00 
1040.400  109023.34 1722.50 
1040.600  108160.00 1860.00 
1040.800  107970.00 1835.00 
1041.000  108926.66 1877.50 
1041.200  109470.00 1860.00 
1041.400  109770.00 1793.33 
1041.600  111325.00 1685.00 
1041.800  109766.66 1632.50 
1042.000  108982.50 1683.33 
1042.200  106377.50 1757.50 
1042.400  106646.66 1570.00 
1042.600  107282.50 1540.00 
1042.800  106280.00 1647.50 
1043.000  106570.00 1655.00 
1043.200  106347.50 1675.00 
1043.400  106290.00 1766.67 
1043.600  106292.50 1622.50 
1043.800  105863.34 1780.00 
1044.000  105760.00 1643.33 
1044.200  105637.50 1657.50 
1044.400  105693.34 1635.00 
1044.600  105202.50 1556.67 
1044.800  105690.00 1622.50 
1045.000  105936.66 1662.50 
1045.200  104725.00 1810.00 
1045.400  106227.50 1680.00 
1045.600  106626.66 1777.50 
1045.800  106632.50 1642.50 
1046.000  106337.50 1616.67 
1046.200  104892.50 1595.00 
1046.400  105163.34 1592.50 
1046.600  105007.50 1563.33 
1046.800  104922.50 1557.50 
