~Version Information
 VERS.                2.0:  CWLS LOG ASCII STANDARD -VERSION 2.0
 WRAP.                 NO:  ONE LINE PER DEPTH STEP
~WELL INFORMATION BLOCK
#MNEM.UNIT       DATA		            DESCRIPTION OF MNEMONIC
#---------    -------------            ------------------------
 STRT.FT  -2.200                         :START DEPTH
 STOP.FT  1323.200                       :STOP DEPTH
 STEP.FT  0.200                          :STEP    UP_HOLE  
 NULL.    -999.25                        :NULL VALUE
 COMP.    USGS                           :COMPANY
 WELL.    USGS 145                                                     :WELL
 FLD .    INL                            :FIELD\LOCATION
 LOC .                                   :LOCATION
 CNTY.    BUTTE                          :COUNTY
 STAT.    IDAHO                          :STATE
 CTRY.    USA                            :COUNTRY
 SRVC.    USGS                           :SERVICE COMPANY
 DATE.    07/16/2018                     :LOG DATE
 API .   CAL. 2017                           :API NUMBER
 LIC .    USGS                           :LICENSE NUMBER
~Curve Information Block
#MNEM.UNIT      API CODE     Curve Description
#---------    -------------  ------------------------
 DEPT     .FT        00 001 00 00          :  1  DEPTH   
 DEN(SS)  .CPS       00 350 00 00          :  2  SHORT SPACED DENS   
 DEN(LS)  .CPS       00 350 00 00          :  3  LONG SPACED DENSITY 
~Parameter Information Block
#MNEM.UNIT   Information     Description
#---------- ---------------  ------------------------
 FILE.      PROCESSED          :File Type
 FIID.      0024A              :File Type Identifier
 VERS.      3.60E              :System Version
 SER .      1                  :System Serial Number
 TRUK.      0.25               :Truck Calibration Number
 TOOL.         776             :Tool Serial Number
 TIME.      1403               :Time    HrHrMinMin
 LAT .                         :Latitude
 LON .                         :Longitude
 LMF .      LSD                :Log Measured From
 DMF .      LSD                :Driller Measured From
 PD  .                         :Permanent Data
 PDEV.FT                       :Elevation Permanent Data
 EKB .FT                       :Elevation Kelly Bushing
 ELEV.FT                       :Elevation DF
 EGL .FT                       :Elevation Ground Level
 DRDP.FT    1368               :Driller's Depth
 CASD.FT    10.                :Casing Diameter
 CASB.FT    1328               :Casing Bottom
 CASX.      SURFACE            :Casing Type
 CAST.IN    .25                :Casing Thickness
 TNOC.                         :Time Circulation Stopped
 LOGU.      USGS               :Logging Unit
 RECB.      MJG                :Recorded By
 OSR1.      9095               :Other Services
 OSR2.       9057              :Other Services
 OSR3.                         :Other Services
 BS  .IN         3.9           :Bit Size
 MST .F     SH                 :Mean Surface Temperature
 TGRD.F                        :Temperature Gradiant
 MAGN.      0                  :Magnetic Declination
 MDEN.      2.65               :Density Matrix
 MATR.      SANDSTONE          :Neutron Matrix
 DTMT.      54                 :Delta T Matrix
 DTFL.                         :Delta T Fluid
 MUDS.      FLOW LINE          :Mud Sample Source
 MRS .      .179               :Mud Resistivity
 MTP .      68.5               :Mud Temperature
 MFRS.                         :Resistivity Mud Filtrate
 MFTP.                         :Temperature Mud Filtrate
 MCRS.                         :Resistivity Mud Cake
 MCTP.                         :Temperature Mud Cake
 FTYP.      AIR                :Fluid Type
 FD  .LB/G    NA               :Mud Weight
 DFV .S                        :Fluid Viscosity
 FPH .                         :Fuild PH
 ELCO.      99999              :Electron Cutoff
 CASL.IN    3.5                :Casing Logger
 LOTD.FT    1328               :Logger TD
 ARTM.      12:20              :Arrival Time
 DPTM.                         :Departure Time
 RIGN.                         :Rig Number
~Other Information
#MNEM.UNIT  Information      Description
#---------- ---------------  ------------------------
# -------------------------- 
~A DEPTH  DEN(SS) DEN(LS) 
# ...
1102.200  114545.00 1856.67 
1102.400  115990.00 1980.00 
1102.600  114776.66 1950.00 
1102.800  114537.50 1882.50 
1103.000  112727.50 1900.00 
1103.200  112127.50 1850.00 
1103.400  112557.50 1957.50 
1103.600  112016.66 1962.50 
1103.800  112095.00 1795.00 
1104.000  112197.50 1785.00 
1104.200  111487.50 2023.33 
1104.400  110922.50 1847.50 
1104.600  111083.34 1795.00 
1104.800  111765.00 1775.00 
1105.000  111602.50 1912.50 
1105.200  110785.00 1856.67 
1105.400  110677.50 1740.00 
1105.600  111116.66 1815.00 
1105.800  110885.00 1820.00 
1106.000  109647.50 1715.00 
1106.200  109870.00 1716.67 
1106.400  109385.00 1812.50 
1106.600  109120.00 1675.00 
1106.800  108115.00 1670.00 
1107.000  107520.00 1710.00 
1107.200  108330.00 1793.33 
1107.400  108612.50 1572.50 
1107.600  107403.34 1720.00 
1107.800  108025.00 1562.50 
1108.000  106750.00 1547.50 
1108.200  107492.50 1686.67 
1108.400  108277.50 1627.50 
1108.600  109213.34 1515.00 
1108.800  109485.00 1705.00 
1109.000  109052.50 1677.50 
1109.200  108692.50 1873.33 
1109.400  109737.50 1575.00 
1109.600  110220.00 1682.50 
1109.800  108887.50 1650.00 
1110.000  107640.00 1610.00 
1110.200  108865.00 1715.00 
1110.400  108716.66 1785.00 
1110.600  109837.50 1655.00 
1110.800  109637.50 1680.00 
1111.000  110335.00 1636.67 
1111.200  108617.50 1680.00 
1111.400  108553.34 1567.50 
1111.600  107290.00 1692.50 
1111.800  106377.50 1727.50 
1112.000  106157.50 1776.67 
1112.200  105570.00 1565.00 
1112.400  105613.34 1542.50 
1112.600  105102.50 1485.00 
1112.800  106052.50 1472.50 
1113.000  105350.00 1560.00 
1113.200  106532.50 1590.00 
1113.400  107176.66 1675.00 
1113.600  106092.50 1562.50 
1113.800  105612.50 1612.50 
1114.000  106240.00 1486.67 
1114.200  106090.00 1510.00 
1114.400  105306.66 1492.50 
1114.600  105487.50 1630.00 
1114.800  105585.00 1572.50 
1115.000  106130.00 1583.33 
1115.200  106135.00 1500.00 
1115.400  105186.66 1440.00 
1115.600  104935.00 1492.50 
1115.800  104982.50 1502.50 
1116.000  105730.00 1546.67 
1116.200  105527.50 1510.00 
1116.400  105093.34 1597.50 
1116.600  105257.50 1505.00 
1116.800  105527.50 1515.00 
1117.000  105662.50 1616.67 
1117.200  105925.00 1517.50 
1117.400  105380.00 1627.50 
1117.600  106140.00 1570.00 
1117.800  105867.50 1505.00 
1118.000  105640.00 1430.00 
1118.200  105422.50 1527.50 
1118.400  105640.00 1575.00 
1118.600  106042.50 1605.00 
1118.800  105727.50 1593.33 
1119.000  104967.50 1520.00 
1119.200  105030.00 1580.00 
1119.400  105615.00 1627.50 
1119.600  105072.50 1550.00 
1119.800  106055.00 1550.00 
1120.000  106735.00 1552.50 
1120.200  106930.00 1602.50 
1120.400  105700.00 1595.00 
1120.600  106272.50 1565.00 
1120.800  105497.50 1592.50 
1121.000  105390.00 1396.67 
1121.200  105290.00 1555.00 
1121.400  106336.66 1585.00 
1121.600  105170.00 1555.00 
1121.800  106347.50 1547.50 
1122.000  105425.00 1576.67 
1122.200  105752.50 1712.50 
1122.400  106773.34 1590.00 
1122.600  108382.50 1687.50 
1122.800  110725.00 1802.50 
1123.000  113032.50 1750.00 
1123.200  113897.50 1987.50 
1123.400  113993.34 1877.50 
1123.600  111717.50 1966.67 
1123.800  111915.00 1966.67 
1124.000  113076.66 1966.67 
1124.200  113076.66 1966.67 
1124.400  113076.66 1966.67 
1124.600  113076.66 1966.67 
1124.800  113076.66 1972.50 
1125.000  113076.66 1896.67 
1125.200  112112.50 1757.50 
1125.400  110666.66 1770.00 
1125.600  109062.50 1647.50 
1125.800  109007.50 1840.00 
1126.000  110877.50 1966.67 
1126.200  114607.50 2002.50 
1126.400  115913.34 1905.00 
1126.600  116310.00 2012.50 
1126.800  115725.00 2127.50 
1127.000  114652.50 1926.67 
1127.200  114272.50 1880.00 
1127.400  113033.34 1872.50 
1127.600  111322.50 1825.00 
1127.800  111177.50 1795.00 
1128.000  111112.50 1756.67 
1128.200  110020.00 1832.50 
1128.400  108783.34 1662.50 
1128.600  106825.00 1715.00 
1128.800  107437.50 1712.50 
1129.000  106075.00 1773.33 
1129.200  105420.00 1685.00 
1129.400  105693.34 1600.00 
1129.600  106140.00 1585.00 
1129.800  105040.00 1550.00 
1130.000  106110.00 1730.00 
1130.200  106027.50 1577.50 
1130.400  105166.66 1645.00 
1130.600  105425.00 1640.00 
1130.800  105385.00 1587.50 
1131.000  103992.50 1716.67 
1131.200  103572.50 1627.50 
1131.400  103103.34 1560.00 
1131.600  103910.00 1580.00 
1131.800  103622.50 1607.50 
1132.000  103540.00 1473.33 
1132.200  103237.50 1617.50 
1132.400  103690.00 1607.50 
1132.600  103467.50 1557.50 
1132.800  103047.50 1605.00 
1133.000  103070.00 1436.67 
1133.200  103442.50 1655.00 
1133.400  102986.66 1562.50 
1133.600  102995.00 1610.00 
1133.800  103807.50 1655.00 
1134.000  104242.50 1506.67 
1134.200  106630.00 1780.00 
1134.400  107626.66 1830.00 
1134.600  109910.00 1890.00 
1134.800  112157.50 1850.00 
1135.000  114387.50 1876.67 
1135.200  113257.50 1957.50 
1135.400  113130.00 1942.50 
1135.600  112110.00 1887.50 
1135.800  112030.00 1857.50 
1136.000  110527.50 1763.33 
1136.200  109705.00 1815.00 
1136.400  108320.00 1757.50 
1136.600  107925.00 1785.00 
1136.800  107982.50 1757.50 
1137.000  108462.50 1806.67 
1137.200  108482.50 1755.00 
1137.400  108816.66 1677.50 
1137.600  108365.00 1730.00 
1137.800  107992.50 1805.00 
1138.000  108547.50 1690.00 
1138.200  107580.00 1837.50 
1138.400  108086.66 1887.50 
1138.600  107832.50 1720.00 
1138.800  107537.50 1770.00 
1139.000  107222.50 1660.00 
1139.200  107502.50 1677.50 
1139.400  107453.34 1742.50 
1139.600  105947.50 1567.50 
1139.800  105595.00 1765.00 
1140.000  105057.50 1676.67 
1140.200  104995.00 1702.50 
1140.400  105200.00 1697.50 
1140.600  104535.00 1747.50 
1140.800  105972.50 1802.50 
1141.000  108117.50 1740.00 
1141.200  112057.50 1922.50 
1141.400  114880.00 2017.50 
1141.600  117750.00 2030.00 
1141.800  118992.50 2015.00 
1142.000  119177.50 2056.67 
1142.200  119477.50 2072.50 
1142.400  119306.66 2072.50 
1142.600  119332.50 2012.50 
1142.800  119420.00 2092.50 
1143.000  119417.50 2166.67 
1143.200  120155.00 2155.00 
1143.400  119673.34 2270.00 
1143.600  119970.00 1935.00 
1143.800  120582.50 2145.00 
1144.000  121557.50 2080.00 
1144.200  120020.00 2015.00 
1144.400  119753.34 2100.00 
1144.600  118990.00 2115.00 
1144.800  119127.50 2025.00 
1145.000  118972.50 1983.33 
1145.200  119147.50 2052.50 
1145.400  118533.34 2085.00 
1145.600  118922.50 2042.50 
1145.800  119200.00 1997.50 
1146.000  119070.00 2126.67 
1146.200  117857.50 2180.00 
1146.400  118746.66 2005.00 
1146.600  118700.00 2007.50 
1146.800  117505.00 2052.50 
1147.000  116490.00 1923.33 
1147.200  115505.00 1905.00 
1147.400  114763.34 2035.00 
1147.600  115550.00 1790.00 
1147.800  115415.00 1967.50 
1148.000  114725.00 1863.33 
1148.200  115152.50 1925.00 
1148.400  114560.00 1825.00 
1148.600  115090.00 1817.50 
1148.800  114805.00 1820.00 
1149.000  115427.50 1870.00 
1149.200  115185.00 1845.00 
1149.400  116180.00 1767.50 
1149.600  114097.50 1690.00 
1149.800  111452.50 1650.00 
1150.000  107515.00 1580.00 
1150.200  105917.50 1537.50 
1150.400  104360.00 1522.50 
1150.600  103637.50 1497.50 
1150.800  103455.00 1515.00 
1151.000  103197.50 1525.00 
1151.200  102797.50 1546.67 
1151.400  103550.00 1480.00 
1151.600  103536.66 1457.50 
1151.800  103602.50 1527.50 
1152.000  103222.50 1580.00 
1152.200  103072.50 1436.67 
1152.400  104270.00 1495.00 
1152.600  104296.66 1582.50 
1152.800  104355.00 1585.00 
1153.000  104107.50 1547.50 
1153.200  105037.50 1516.67 
1153.400  104542.50 1637.50 
1153.600  104320.00 1487.50 
1153.800  105800.00 1615.00 
1154.000  106230.00 1697.50 
1154.200  107512.50 1813.33 
1154.400  111850.00 2005.00 
1154.600  118526.66 2320.00 
1154.800  125690.00 2652.50 
1155.000  133452.50 3102.50 
1155.200  134740.00 3606.67 
1155.400  133490.00 3755.00 
1155.600  133310.00 4065.00 
1155.800  133625.00 3677.50 
1156.000  133057.50 3672.50 
1156.200  132937.50 3676.67 
1156.400  131952.50 3702.50 
1156.600  132616.67 3617.50 
1156.800  133565.00 3557.50 
1157.000  133540.00 3555.00 
1157.200  134640.00 3596.67 
