~Version Information
 VERS.                2.0:  CWLS LOG ASCII STANDARD -VERSION 2.0
 WRAP.                 NO:  ONE LINE PER DEPTH STEP
~WELL INFORMATION BLOCK
#MNEM.UNIT       DATA		            DESCRIPTION OF MNEMONIC
#---------    -------------            ------------------------
 STRT.FT  -2.200                         :START DEPTH
 STOP.FT  1323.200                       :STOP DEPTH
 STEP.FT  0.200                          :STEP    UP_HOLE  
 NULL.    -999.25                        :NULL VALUE
 COMP.    USGS                           :COMPANY
 WELL.    USGS 145                                                     :WELL
 FLD .    INL                            :FIELD\LOCATION
 LOC .                                   :LOCATION
 CNTY.    BUTTE                          :COUNTY
 STAT.    IDAHO                          :STATE
 CTRY.    USA                            :COUNTRY
 SRVC.    USGS                           :SERVICE COMPANY
 DATE.    07/16/2018                     :LOG DATE
 API .   CAL. 2017                           :API NUMBER
 LIC .    USGS                           :LICENSE NUMBER
~Curve Information Block
#MNEM.UNIT      API CODE     Curve Description
#---------    -------------  ------------------------
 DEPT     .FT        00 001 00 00          :  1  DEPTH   
 DEN(SS)  .CPS       00 350 00 00          :  2  SHORT SPACED DENS   
 DEN(LS)  .CPS       00 350 00 00          :  3  LONG SPACED DENSITY 
~Parameter Information Block
#MNEM.UNIT   Information     Description
#---------- ---------------  ------------------------
 FILE.      PROCESSED          :File Type
 FIID.      0024A              :File Type Identifier
 VERS.      3.60E              :System Version
 SER .      1                  :System Serial Number
 TRUK.      0.25               :Truck Calibration Number
 TOOL.         776             :Tool Serial Number
 TIME.      1403               :Time    HrHrMinMin
 LAT .                         :Latitude
 LON .                         :Longitude
 LMF .      LSD                :Log Measured From
 DMF .      LSD                :Driller Measured From
 PD  .                         :Permanent Data
 PDEV.FT                       :Elevation Permanent Data
 EKB .FT                       :Elevation Kelly Bushing
 ELEV.FT                       :Elevation DF
 EGL .FT                       :Elevation Ground Level
 DRDP.FT    1368               :Driller's Depth
 CASD.FT    10.                :Casing Diameter
 CASB.FT    1328               :Casing Bottom
 CASX.      SURFACE            :Casing Type
 CAST.IN    .25                :Casing Thickness
 TNOC.                         :Time Circulation Stopped
 LOGU.      USGS               :Logging Unit
 RECB.      MJG                :Recorded By
 OSR1.      9095               :Other Services
 OSR2.       9057              :Other Services
 OSR3.                         :Other Services
 BS  .IN         3.9           :Bit Size
 MST .F     SH                 :Mean Surface Temperature
 TGRD.F                        :Temperature Gradiant
 MAGN.      0                  :Magnetic Declination
 MDEN.      2.65               :Density Matrix
 MATR.      SANDSTONE          :Neutron Matrix
 DTMT.      54                 :Delta T Matrix
 DTFL.                         :Delta T Fluid
 MUDS.      FLOW LINE          :Mud Sample Source
 MRS .      .179               :Mud Resistivity
 MTP .      68.5               :Mud Temperature
 MFRS.                         :Resistivity Mud Filtrate
 MFTP.                         :Temperature Mud Filtrate
 MCRS.                         :Resistivity Mud Cake
 MCTP.                         :Temperature Mud Cake
 FTYP.      AIR                :Fluid Type
 FD  .LB/G    NA               :Mud Weight
 DFV .S                        :Fluid Viscosity
 FPH .                         :Fuild PH
 ELCO.      99999              :Electron Cutoff
 CASL.IN    3.5                :Casing Logger
 LOTD.FT    1328               :Logger TD
 ARTM.      12:20              :Arrival Time
 DPTM.                         :Departure Time
 RIGN.                         :Rig Number
~Other Information
#MNEM.UNIT  Information      Description
#---------- ---------------  ------------------------
# -------------------------- 
~A DEPTH  DEN(SS) DEN(LS) 
# ...
 329.400  156192.50 21383.33
 329.600  155850.00 20830.00
 329.800  155033.33 20905.00
 330.000  155975.00 20250.00
 330.200  155190.00 20502.50
 330.400  155780.00 20417.50
 330.600  155520.00 20545.00
 330.800  155427.50 20336.67
 331.000  155485.00 20812.50
 331.200  155516.67 20585.00
 331.400  155455.00 20626.67
 331.600  155555.00 20512.50
 331.800  155820.00 20830.00
 332.000  155795.00 21370.00
 332.200  154785.00 20842.50
 332.400  155043.33 21062.50
 332.600  155537.50 20893.33
 332.800  155175.00 20830.00
 333.000  154410.00 21042.50
 333.200  155310.00 20756.67
 333.400  155935.00 21050.00
 333.600  155476.67 21050.00
 333.800  155557.50 20746.67
 334.000  155862.50 20605.00
 334.200  155260.00 20912.50
 334.400  154612.50 20813.33
 334.600  156215.00 21027.50
 334.800  155263.33 20675.00
 335.000  155092.50 20580.00
 335.200  154047.50 20882.50
 335.400  154566.67 20810.00
 335.600  154530.00 20593.33
 335.800  154425.00 20660.00
 336.000  154203.33 20455.00
 336.200  153952.50 19476.67
 336.400  154045.00 20675.00
 336.600  154203.33 20302.50
 336.800  154402.50 20050.00
 337.000  155025.00 20922.50
 337.200  153263.33 20017.50
 337.400  154625.00 20106.67
 337.600  153677.50 20057.50
 337.800  153653.33 20150.00
 338.000  153750.00 20163.33
 338.200  154012.50 19840.00
 338.400  153353.33 19685.00
 338.600  153627.50 19756.67
 338.800  153610.00 20200.00
 339.000  154076.67 19945.00
 339.200  153560.00 20016.67
 339.400  153132.50 19747.50
 339.600  152880.00 20055.00
 339.800  153827.50 19203.33
 340.000  153922.50 19940.00
 340.200  153380.00 19750.00
 340.400  153365.00 19866.67
 340.600  153315.00 20137.50
 340.800  153793.33 20047.50
 341.000  154155.00 19993.33
 341.200  153492.50 20305.00
 341.400  153810.00 20225.00
 341.600  153397.50 19993.33
 341.800  154092.50 19817.50
 342.000  154170.00 20042.50
 342.200  154175.00 19376.67
 342.400  153202.50 20027.50
 342.600  153770.00 20107.50
 342.800  153615.00 20316.67
 343.000  153730.00 20002.50
 343.200  153613.33 20682.50
 343.400  153585.00 21510.00
 343.600  153885.00 22090.00
 343.800  154070.00 22880.00
 344.000  155192.50 23713.33
 344.200  155350.00 24485.00
 344.400  155280.00 24820.00
 344.600  155692.50 24966.67
 344.800  155147.50 25812.50
 345.000  154923.33 25865.00
 345.200  156715.00 25366.67
 345.400  156285.00 25475.00
 345.600  156376.67 25377.50
 345.800  155652.50 25153.33
 346.000  155777.50 25655.00
 346.200  156370.00 25982.50
 346.400  156375.00 26550.00
 346.600  156420.00 27557.50
 346.800  157416.67 27675.00
 347.000  156530.00 26370.00
 347.200  156052.50 25733.33
 347.400  156695.00 24932.50
 347.600  156230.00 24307.50
 347.800  155975.00 23890.00
 348.000  154802.50 23755.00
 348.200  155380.00 24007.50
 348.400  155297.50 23897.50
 348.600  155657.50 24017.50
 348.800  155957.50 23363.33
 349.000  155620.00 24905.00
 349.200  155593.33 24090.00
 349.400  155737.50 24280.00
 349.600  154800.00 24517.50
 349.800  155477.50 23920.00
 350.000  155697.50 23842.50
 350.200  154793.33 24275.00
 350.400  155302.50 23805.00
 350.600  155052.50 24210.00
 350.800  155985.00 24687.50
 351.000  156080.00 24917.50
 351.200  156250.00 24980.00
 351.400  154820.00 25325.00
 351.600  154830.00 24350.00
 351.800  155455.00 24415.00
 352.000  155700.00 23855.00
 352.200  155417.50 24507.50
 352.400  154702.50 23737.50
 352.600  155145.00 23540.00
 352.800  155167.50 23742.50
 353.000  155446.67 23697.50
 353.200  155440.00 23515.00
 353.400  154865.00 23770.00
 353.600  155525.00 23770.00
 353.800  154132.50 23892.50
 354.000  155153.33 23577.50
 354.200  154587.50 23712.50
 354.400  154950.00 23740.00
 354.600  155372.50 23423.33
 354.800  154272.50 23557.50
 355.000  154073.33 23625.00
 355.200  154367.50 23780.00
 355.400  154477.50 23977.50
 355.600  154820.00 24443.33
 355.800  155027.50 24997.50
 356.000  154680.00 24187.50
 356.200  155055.00 24325.00
 356.400  155080.00 24115.00
 356.600  154682.50 24623.33
 356.800  154420.00 25112.50
 357.000  154513.33 25487.50
 357.200  154730.00 24692.50
 357.400  155000.00 24252.50
 357.600  153900.00 23810.00
 357.800  153340.00 24575.00
 358.000  153286.67 26572.50
 358.200  155232.50 28570.00
 358.400  156480.00 29530.00
 358.600  156060.00 29225.00
 358.800  155420.00 27725.00
 359.000  155095.00 26517.50
 359.200  154670.00 25092.50
 359.400  154107.50 25230.00
 359.600  153717.50 27410.00
 359.800  155133.33 29277.50
 360.000  155747.50 29880.00
 360.200  155692.50 28515.00
 360.400  153915.00 26400.00
 360.600  152700.00 24105.00
 360.800  152426.67 22087.50
 361.000  152167.50 21397.50
 361.200  152600.00 22175.00
 361.400  152002.50 22326.67
 361.600  152175.00 22265.00
 361.800  152580.00 22347.50
 362.000  152492.50 22192.50
 362.200  152732.50 22445.00
 362.400  152805.00 22670.00
 362.600  151722.50 22032.50
 362.800  150540.00 21937.50
 363.000  149762.50 21135.00
 363.200  149597.50 21365.00
 363.400  148337.50 20776.67
 363.600  148700.00 20920.00
 363.800  149036.67 20627.50
 364.000  149867.50 20377.50
 364.200  150132.50 20982.50
 364.400  150560.00 21486.67
 364.600  150710.00 21155.00
 364.800  150720.00 21102.50
 365.000  149677.50 21025.00
 365.200  149775.00 21330.00
 365.400  150162.50 21052.50
 365.600  150053.33 21710.00
 365.800  150630.00 21587.50
 366.000  150825.00 22045.00
 366.200  151297.50 21206.67
 366.400  150307.50 21437.50
 366.600  149803.33 20867.50
 366.800  149525.00 21312.50
 367.000  149352.50 21577.50
 367.200  150055.00 20750.00
 367.400  149962.50 21182.50
 367.600  149696.67 21080.00
 367.800  150210.00 21495.00
 368.000  150040.00 21667.50
 368.200  150247.50 22030.00
 368.400  149625.00 22072.50
 368.600  150000.00 21815.00
 368.800  150112.50 21782.50
 369.000  149725.00 21495.00
 369.200  149872.50 21510.00
 369.400  150542.50 21860.00
 369.600  150573.33 21515.00
 369.800  150825.00 21695.00
 370.000  150220.00 22030.00
 370.200  149877.50 21985.00
 370.400  149333.33 21517.50
 370.600  149147.50 21937.50
 370.800  148385.00 21720.00
 371.000  148227.50 21903.33
 371.200  147622.50 21912.50
 371.400  147586.67 21855.00
 371.600  148950.00 21770.00
 371.800  148572.50 21695.00
 372.000  148917.50 21576.67
 372.200  148915.00 22005.00
 372.400  148940.00 21595.00
 372.600  149132.50 21882.50
 372.800  148172.50 21990.00
 373.000  148590.00 22490.00
 373.200  148707.50 21900.00
 373.400  149946.67 22002.50
 373.600  149475.00 21897.50
 373.800  149200.00 22297.50
 374.000  148850.00 22260.00
 374.200  149420.00 22232.50
 374.400  149400.00 21920.00
 374.600  149320.00 21580.00
 374.800  149482.50 21557.50
 375.000  148862.50 21780.00
 375.200  149587.50 21065.00
 375.400  149163.33 21355.00
 375.600  149340.00 21367.50
 375.800  148747.50 21470.00
 376.000  149017.50 21715.00
 376.200  149433.33 21385.00
 376.400  149527.50 21872.50
 376.600  148917.50 21592.50
 376.800  149037.50 21110.00
 377.000  148817.50 21580.00
 377.200  149253.33 22117.50
 377.400  148875.00 22097.50
 377.600  149872.50 21712.50
 377.800  149075.00 21983.33
 378.000  149550.00 21540.00
 378.200  148483.33 21760.00
 378.400  149965.00 21165.00
 378.600  149890.00 21095.00
 378.800  149790.00 21523.33
 379.000  148890.00 21842.50
 379.200  149910.00 21440.00
 379.400  149470.00 21167.50
 379.600  149527.50 21375.00
 379.800  149217.50 21383.33
 380.000  148982.50 21535.00
 380.200  148623.33 21072.50
 380.400  148630.00 20927.50
 380.600  148770.00 20740.00
 380.800  149110.00 20536.67
 381.000  148660.00 20600.00
 381.200  148470.00 20572.50
 381.400  148337.50 20422.50
 381.600  148277.50 20716.67
 381.800  148107.50 20775.00
 382.000  149236.67 20482.50
 382.200  149217.50 21072.50
 382.400  149112.50 21415.00
 382.600  149367.50 20756.67
 382.800  149287.50 20665.00
 383.000  149926.67 20785.00
 383.200  149977.50 21235.00
 383.400  149292.50 21135.00
 383.600  149357.50 21036.67
 383.800  149247.50 20885.00
 384.000  149270.00 20767.50
 384.200  150157.50 20225.00
 384.400  150707.50 20065.00
