~Version Information
 VERS.                2.0:  CWLS LOG ASCII STANDARD -VERSION 2.0
 WRAP.                 NO:  ONE LINE PER DEPTH STEP
~WELL INFORMATION BLOCK
#MNEM.UNIT       DATA		            DESCRIPTION OF MNEMONIC
#---------    -------------            ------------------------
 STRT.FT  -2.200                         :START DEPTH
 STOP.FT  1323.200                       :STOP DEPTH
 STEP.FT  0.200                          :STEP    UP_HOLE  
 NULL.    -999.25                        :NULL VALUE
 COMP.    USGS                           :COMPANY
 WELL.    USGS 145                                                     :WELL
 FLD .    INL                            :FIELD\LOCATION
 LOC .                                   :LOCATION
 CNTY.    BUTTE                          :COUNTY
 STAT.    IDAHO                          :STATE
 CTRY.    USA                            :COUNTRY
 SRVC.    USGS                           :SERVICE COMPANY
 DATE.    07/16/2018                     :LOG DATE
 API .   CAL. 2017                           :API NUMBER
 LIC .    USGS                           :LICENSE NUMBER
~Curve Information Block
#MNEM.UNIT      API CODE     Curve Description
#---------    -------------  ------------------------
 DEPT     .FT        00 001 00 00          :  1  DEPTH   
 DEN(SS)  .CPS       00 350 00 00          :  2  SHORT SPACED DENS   
 DEN(LS)  .CPS       00 350 00 00          :  3  LONG SPACED DENSITY 
~Parameter Information Block
#MNEM.UNIT   Information     Description
#---------- ---------------  ------------------------
 FILE.      PROCESSED          :File Type
 FIID.      0024A              :File Type Identifier
 VERS.      3.60E              :System Version
 SER .      1                  :System Serial Number
 TRUK.      0.25               :Truck Calibration Number
 TOOL.         776             :Tool Serial Number
 TIME.      1403               :Time    HrHrMinMin
 LAT .                         :Latitude
 LON .                         :Longitude
 LMF .      LSD                :Log Measured From
 DMF .      LSD                :Driller Measured From
 PD  .                         :Permanent Data
 PDEV.FT                       :Elevation Permanent Data
 EKB .FT                       :Elevation Kelly Bushing
 ELEV.FT                       :Elevation DF
 EGL .FT                       :Elevation Ground Level
 DRDP.FT    1368               :Driller's Depth
 CASD.FT    10.                :Casing Diameter
 CASB.FT    1328               :Casing Bottom
 CASX.      SURFACE            :Casing Type
 CAST.IN    .25                :Casing Thickness
 TNOC.                         :Time Circulation Stopped
 LOGU.      USGS               :Logging Unit
 RECB.      MJG                :Recorded By
 OSR1.      9095               :Other Services
 OSR2.       9057              :Other Services
 OSR3.                         :Other Services
 BS  .IN         3.9           :Bit Size
 MST .F     SH                 :Mean Surface Temperature
 TGRD.F                        :Temperature Gradiant
 MAGN.      0                  :Magnetic Declination
 MDEN.      2.65               :Density Matrix
 MATR.      SANDSTONE          :Neutron Matrix
 DTMT.      54                 :Delta T Matrix
 DTFL.                         :Delta T Fluid
 MUDS.      FLOW LINE          :Mud Sample Source
 MRS .      .179               :Mud Resistivity
 MTP .      68.5               :Mud Temperature
 MFRS.                         :Resistivity Mud Filtrate
 MFTP.                         :Temperature Mud Filtrate
 MCRS.                         :Resistivity Mud Cake
 MCTP.                         :Temperature Mud Cake
 FTYP.      AIR                :Fluid Type
 FD  .LB/G    NA               :Mud Weight
 DFV .S                        :Fluid Viscosity
 FPH .                         :Fuild PH
 ELCO.      99999              :Electron Cutoff
 CASL.IN    3.5                :Casing Logger
 LOTD.FT    1328               :Logger TD
 ARTM.      12:20              :Arrival Time
 DPTM.                         :Departure Time
 RIGN.                         :Rig Number
~Other Information
#MNEM.UNIT  Information      Description
#---------- ---------------  ------------------------
# -------------------------- 
~A DEPTH  DEN(SS) DEN(LS) 
# ...
 495.000  149683.33 11120.00
 495.200  149430.00 11322.50
 495.400  149433.33 11170.00
 495.600  149667.50 11332.50
 495.800  149060.00 11086.67
 496.000  149297.50 11090.00
 496.200  149650.00 10835.00
 496.400  149365.00 10076.67
 496.600  147657.50 9932.50 
 496.800  145460.00 9053.33 
 497.000  142122.50 8832.50 
 497.200  139673.33 8710.00 
 497.400  138805.00 8477.50 
 497.600  139230.00 8370.00 
 497.800  138415.00 8220.00 
 498.000  138066.67 8053.33 
 498.200  138562.50 8160.00 
 498.400  138420.00 8076.67 
 498.600  138450.00 8262.50 
 498.800  139140.00 8476.67 
 499.000  139172.50 8505.00 
 499.200  138940.00 8340.00 
 499.400  139232.50 8523.33 
 499.600  139107.50 8637.50 
 499.800  141053.33 8976.67 
 500.000  142677.50 8950.00 
 500.200  142966.67 8663.33 
 500.400  142305.00 8667.50 
 500.600  141946.67 9200.00 
 500.800  142527.50 8932.50 
 501.000  143166.67 8766.67 
 501.200  143365.00 8645.00 
 501.400  143990.00 9016.67 
 501.600  142927.50 9247.50 
 501.800  142930.00 9460.00 
 502.000  146432.50 9005.00 
 502.200  147580.00 9553.33 
 502.400  146075.00 9972.50 
 502.600  146400.00 10467.50
 502.800  148295.00 10170.00
 503.000  147377.50 10430.00
 503.200  146306.67 10840.00
 503.400  146800.00 11167.50
 503.600  148016.67 10776.67
 503.800  147120.00 10230.00
 504.000  144766.67 9466.67 
 504.200  141280.00 9055.00 
 504.400  141396.67 8700.00 
 504.600  140662.50 8517.50 
 504.800  141410.00 9010.00 
 505.000  142455.00 8232.50 
 505.200  141903.33 8613.33 
 505.400  140552.50 8540.00 
 505.600  140036.67 8412.50 
 505.800  140485.00 8400.00 
 506.000  139212.50 8322.50 
 506.200  138966.67 8306.67 
 506.400  138755.00 8317.50 
 506.600  138936.67 8310.00 
 506.800  138597.50 8342.50 
 507.000  138623.33 8206.67 
 507.200  138717.50 8402.50 
 507.400  138773.33 8186.67 
 507.600  138957.50 8345.00 
 507.800  138893.33 8676.67 
 508.000  139285.00 8460.00 
 508.200  138493.33 8503.33 
 508.400  138795.00 7867.50 
 508.600  139706.67 8487.50 
 508.800  139065.00 8230.00 
 509.000  139460.00 8477.50 
 509.200  140433.33 8426.67 
 509.400  140522.50 8467.50 
 509.600  140093.33 8433.33 
 509.800  139740.00 8612.50 
 510.000  140140.00 8726.67 
 510.200  141067.50 8520.00 
 510.400  141996.67 8730.00 
 510.600  141610.00 8737.50 
 510.800  140706.67 8463.33 
 511.000  140027.50 8257.50 
 511.200  139850.00 8310.00 
 511.400  140450.00 8340.00 
 511.600  140543.33 8496.67 
 511.800  141395.00 8610.00 
 512.000  140780.00 8760.00 
 512.200  140272.50 8353.33 
 512.400  141552.50 8967.50 
 512.600  141686.67 8313.33 
 512.800  142342.50 8805.00 
 513.000  144296.67 8616.67 
 513.200  142195.00 9005.00 
 513.400  143310.00 10110.00
 513.600  147000.00 11135.00
 513.800  151993.33 11846.67
 514.000  151470.00 11985.00
 514.200  149066.67 11623.33
 514.400  146447.50 11242.50
 514.600  145976.67 10480.00
 514.800  146342.50 9800.00 
 515.000  146813.33 9700.00 
 515.200  146172.50 9895.00 
 515.400  144616.67 9657.50 
 515.600  144305.00 9586.67 
 515.800  144875.00 9610.00 
 516.000  144310.00 9416.67 
 516.200  143857.50 9285.00 
 516.400  143330.00 9633.33 
 516.600  143360.00 9555.00 
 516.800  142663.33 9503.33 
 517.000  142887.50 9465.00 
 517.200  143353.33 9223.33 
 517.400  144372.50 9340.00 
 517.600  143796.67 9516.67 
 517.800  143917.50 9117.50 
 518.000  143643.33 9033.33 
 518.200  142947.50 9060.00 
 518.400  142740.00 9140.00 
 518.600  143250.00 8980.00 
 518.800  142863.33 8905.00 
 519.000  142715.00 9036.67 
 519.200  142547.50 9175.00 
 519.400  142596.67 8933.33 
 519.600  142302.50 9095.00 
 519.800  142550.00 9096.67 
 520.000  143492.50 9265.00 
 520.200  143696.67 9180.00 
 520.400  143845.00 9207.50 
 520.600  143660.00 9356.67 
 520.800  143170.00 9162.50 
 521.000  142860.00 9003.33 
 521.200  142907.50 8892.50 
 521.400  141706.67 8623.33 
 521.600  142275.00 8945.00 
 521.800  141726.67 8643.33 
 522.000  141562.50 8682.50 
 522.200  141820.00 8752.50 
 522.400  140827.50 8413.33 
 522.600  141227.50 9075.00 
 522.800  141526.67 8830.00 
 523.000  141592.50 8770.00 
 523.200  141026.67 8730.00 
 523.400  140857.50 8555.00 
 523.600  139876.67 8776.67 
 523.800  139810.00 8717.50 
 524.000  140223.33 8666.67 
 524.200  140167.50 8835.00 
 524.400  140550.00 8826.67 
 524.600  141762.50 9402.50 
 524.800  143046.67 9300.00 
 525.000  143605.00 9160.00 
 525.200  141720.00 9180.00 
 525.400  141830.00 8945.00 
 525.600  140133.33 8985.00 
 525.800  140707.50 9156.67 
 526.000  140400.00 8922.50 
 526.200  140230.00 8803.33 
 526.400  140430.00 8897.50 
 526.600  140256.67 8886.67 
 526.800  139767.50 8782.50 
 527.000  139970.00 8923.33 
 527.200  139910.00 9050.00 
 527.400  140043.33 8886.67 
 527.600  139232.50 8762.50 
 527.800  139926.67 8590.00 
 528.000  139297.50 9040.00 
 528.200  139740.00 8955.00 
 528.400  139610.00 8690.00 
 528.600  139550.00 8800.00 
 528.800  139336.67 8626.67 
 529.000  139100.00 9185.00 
 529.200  139313.33 8703.33 
 529.400  139382.50 8980.00 
 529.600  140120.00 8966.67 
 529.800  139607.50 8820.00 
 530.000  139436.67 8873.33 
 530.200  139857.50 8937.50 
 530.400  139456.67 9293.33 
 530.600  138975.00 9182.50 
 530.800  139343.33 8976.67 
 531.000  141472.50 9017.50 
 531.200  141086.67 9110.00 
 531.400  139547.50 9167.50 
 531.600  138950.00 8782.50 
 531.800  138775.00 8920.00 
 532.000  138972.50 9272.50 
 532.200  139523.33 8976.67 
 532.400  139087.50 8900.00 
 532.600  138830.00 8790.00 
 532.800  138427.50 8862.50 
 533.000  138566.67 8970.00 
 533.200  138840.00 8730.00 
 533.400  139093.33 8576.67 
 533.600  137837.50 9077.50 
 533.800  139066.67 8820.00 
 534.000  138357.50 8937.50 
 534.200  139293.33 8815.00 
 534.400  138660.00 9103.33 
 534.600  138095.00 8820.00 
 534.800  138270.00 8890.00 
 535.000  138000.00 8745.00 
 535.200  138546.67 8820.00 
 535.400  138960.00 8862.50 
 535.600  138860.00 8756.67 
 535.800  138252.50 8702.50 
 536.000  138283.33 8813.33 
 536.200  138665.00 8712.50 
 536.400  138100.00 9100.00 
 536.600  138772.50 8857.50 
 536.800  139286.67 9270.00 
 537.000  139567.50 9280.00 
 537.200  139620.00 9182.50 
 537.400  140206.67 9256.67 
 537.600  140180.00 9050.00 
 537.800  141436.67 9293.33 
 538.000  142807.50 9307.50 
 538.200  143650.00 9320.00 
 538.400  143645.00 9837.50 
 538.600  145560.00 10026.67
 538.800  147067.50 10395.00
 539.000  147863.33 10640.00
 539.200  148497.50 10832.50
 539.400  147163.33 10930.00
 539.600  147495.00 10683.33
 539.800  145495.00 10440.00
 540.000  145073.33 10000.00
 540.200  143852.50 9832.50 
 540.400  143130.00 10156.67
 540.600  143617.50 9782.50 
 540.800  142683.33 9496.67 
 541.000  143275.00 9775.00 
 541.200  143930.00 9883.33 
 541.400  144757.50 9862.50 
 541.600  144856.67 10143.33
 541.800  143842.50 9735.00 
 542.000  144030.00 10142.50
 542.200  143705.00 10183.33
 542.400  143992.50 9905.00 
 542.600  144216.67 9883.33 
 542.800  145020.00 10170.00
 543.000  145800.00 10150.00
 543.200  145777.50 10172.50
 543.400  146303.33 10073.33
 543.600  146980.00 10522.50
 543.800  148023.33 10653.33
 544.000  148027.50 10562.50
 544.200  149113.33 10125.00
 544.400  147700.00 9683.33 
 544.600  145487.50 9392.50 
 544.800  144193.33 9530.00 
 545.000  143380.00 9640.00 
 545.200  144460.00 9320.00 
 545.400  143417.50 9490.00 
 545.600  143220.00 9490.00 
 545.800  144210.00 9490.00 
 546.000  144210.00 9633.33 
 546.200  144210.00 9266.67 
 546.400  143693.33 9945.00 
 546.600  144713.33 9862.50 
 546.800  144662.50 9946.67 
 547.000  145977.50 9832.50 
 547.200  147006.67 9550.00 
 547.400  146390.00 9480.00 
 547.600  143135.00 9305.00 
 547.800  140616.67 8952.50 
 548.000  139945.00 8780.00 
 548.200  141070.00 9170.00 
 548.400  140736.67 8777.50 
 548.600  140457.50 9096.67 
 548.800  141467.50 9505.00 
 549.000  143193.33 9597.50 
 549.200  143745.00 9606.67 
 549.400  144262.50 9490.00 
 549.600  142610.00 9175.00 
 549.800  142487.50 9736.67 
 550.000  143030.00 9637.50 
