~Version Information
 VERS.                2.0:  CWLS LOG ASCII STANDARD -VERSION 2.0
 WRAP.                 NO:  ONE LINE PER DEPTH STEP
~WELL INFORMATION BLOCK
#MNEM.UNIT       DATA		            DESCRIPTION OF MNEMONIC
#---------    -------------            ------------------------
 STRT.FT  -2.200                         :START DEPTH
 STOP.FT  1323.200                       :STOP DEPTH
 STEP.FT  0.200                          :STEP    UP_HOLE  
 NULL.    -999.25                        :NULL VALUE
 COMP.    USGS                           :COMPANY
 WELL.    USGS 145                                                     :WELL
 FLD .    INL                            :FIELD\LOCATION
 LOC .                                   :LOCATION
 CNTY.    BUTTE                          :COUNTY
 STAT.    IDAHO                          :STATE
 CTRY.    USA                            :COUNTRY
 SRVC.    USGS                           :SERVICE COMPANY
 DATE.    07/16/2018                     :LOG DATE
 API .   CAL. 2017                           :API NUMBER
 LIC .    USGS                           :LICENSE NUMBER
~Curve Information Block
#MNEM.UNIT      API CODE     Curve Description
#---------    -------------  ------------------------
 DEPT     .FT        00 001 00 00          :  1  DEPTH   
 DEN(SS)  .CPS       00 350 00 00          :  2  SHORT SPACED DENS   
 DEN(LS)  .CPS       00 350 00 00          :  3  LONG SPACED DENSITY 
~Parameter Information Block
#MNEM.UNIT   Information     Description
#---------- ---------------  ------------------------
 FILE.      PROCESSED          :File Type
 FIID.      0024A              :File Type Identifier
 VERS.      3.60E              :System Version
 SER .      1                  :System Serial Number
 TRUK.      0.25               :Truck Calibration Number
 TOOL.         776             :Tool Serial Number
 TIME.      1403               :Time    HrHrMinMin
 LAT .                         :Latitude
 LON .                         :Longitude
 LMF .      LSD                :Log Measured From
 DMF .      LSD                :Driller Measured From
 PD  .                         :Permanent Data
 PDEV.FT                       :Elevation Permanent Data
 EKB .FT                       :Elevation Kelly Bushing
 ELEV.FT                       :Elevation DF
 EGL .FT                       :Elevation Ground Level
 DRDP.FT    1368               :Driller's Depth
 CASD.FT    10.                :Casing Diameter
 CASB.FT    1328               :Casing Bottom
 CASX.      SURFACE            :Casing Type
 CAST.IN    .25                :Casing Thickness
 TNOC.                         :Time Circulation Stopped
 LOGU.      USGS               :Logging Unit
 RECB.      MJG                :Recorded By
 OSR1.      9095               :Other Services
 OSR2.       9057              :Other Services
 OSR3.                         :Other Services
 BS  .IN         3.9           :Bit Size
 MST .F     SH                 :Mean Surface Temperature
 TGRD.F                        :Temperature Gradiant
 MAGN.      0                  :Magnetic Declination
 MDEN.      2.65               :Density Matrix
 MATR.      SANDSTONE          :Neutron Matrix
 DTMT.      54                 :Delta T Matrix
 DTFL.                         :Delta T Fluid
 MUDS.      FLOW LINE          :Mud Sample Source
 MRS .      .179               :Mud Resistivity
 MTP .      68.5               :Mud Temperature
 MFRS.                         :Resistivity Mud Filtrate
 MFTP.                         :Temperature Mud Filtrate
 MCRS.                         :Resistivity Mud Cake
 MCTP.                         :Temperature Mud Cake
 FTYP.      AIR                :Fluid Type
 FD  .LB/G    NA               :Mud Weight
 DFV .S                        :Fluid Viscosity
 FPH .                         :Fuild PH
 ELCO.      99999              :Electron Cutoff
 CASL.IN    3.5                :Casing Logger
 LOTD.FT    1328               :Logger TD
 ARTM.      12:20              :Arrival Time
 DPTM.                         :Departure Time
 RIGN.                         :Rig Number
~Other Information
#MNEM.UNIT  Information      Description
#---------- ---------------  ------------------------
# -------------------------- 
~A DEPTH  DEN(SS) DEN(LS) 
# ...
1267.800  127775.00 2912.50 
1268.000  129407.50 2820.00 
1268.200  128660.00 2752.50 
1268.400  128396.66 2810.00 
1268.600  127835.00 2722.50 
1268.800  127722.50 2447.50 
1269.000  125665.00 2303.33 
1269.200  121910.00 2312.50 
1269.400  118183.34 2125.00 
1269.600  116422.50 1977.50 
1269.800  114982.50 1995.00 
1270.000  113927.50 1927.50 
1270.200  113047.50 1706.67 
1270.400  111770.00 1902.50 
1270.600  111623.34 1795.00 
1270.800  111155.00 1770.00 
1271.000  111957.50 1810.00 
1271.200  111212.50 1822.50 
1271.400  112110.00 1810.00 
1271.600  110827.50 1850.00 
1271.800  111235.00 1795.00 
1272.000  111197.50 1787.50 
1272.200  111590.00 1717.50 
1272.400  112307.50 1690.00 
1272.600  111802.50 1760.00 
1272.800  111835.00 1760.00 
1273.000  112127.50 1747.50 
1273.200  112757.50 1745.00 
1273.400  112535.00 1767.50 
1273.600  112080.00 1807.50 
1273.800  112227.50 1825.00 
1274.000  110362.50 1765.00 
1274.200  110485.00 1775.00 
1274.400  110440.00 1720.00 
1274.600  110670.00 1620.00 
1274.800  110405.00 1660.00 
1275.000  109507.50 1627.50 
1275.200  110185.00 1710.00 
1275.400  110832.50 1647.50 
1275.600  111060.00 1802.50 
1275.800  109500.00 1717.50 
1276.000  109582.50 1777.50 
1276.200  108932.50 1632.50 
1276.400  109887.50 1697.50 
1276.600  109890.00 1747.50 
1276.800  108392.50 1630.00 
1277.000  109152.50 1675.00 
1277.200  109387.50 1800.00 
1277.400  109085.00 1627.50 
1277.600  109335.00 1645.00 
1277.800  109777.50 1717.50 
1278.000  109147.50 1692.50 
1278.200  108842.50 1632.50 
1278.400  110367.50 1655.00 
1278.600  110265.00 1623.33 
1278.800  110195.00 1737.50 
1279.000  109386.66 1805.00 
1279.200  108860.00 1640.00 
1279.400  108827.50 1750.00 
1279.600  108877.50 1665.00 
1279.800  108715.00 1715.00 
1280.000  108270.00 1730.00 
1280.200  108925.00 1677.50 
1280.400  109020.00 1627.50 
1280.600  109162.50 1560.00 
1280.800  109015.00 1562.50 
1281.000  108515.00 1652.50 
1281.200  108637.50 1677.50 
1281.400  108250.00 1660.00 
1281.600  107920.00 1580.00 
1281.800  107580.00 1572.50 
1282.000  107390.00 1692.50 
1282.200  107245.00 1552.50 
1282.400  107615.00 1567.50 
1282.600  107340.00 1775.00 
1282.800  106915.00 1657.50 
1283.000  106607.50 1687.50 
1283.200  106835.00 1595.00 
1283.400  106825.00 1565.00 
1283.600  106937.50 1577.50 
1283.800  107780.00 1647.50 
1284.000  106362.50 1540.00 
1284.200  106255.00 1555.00 
1284.400  106110.00 1550.00 
1284.600  106817.50 1697.50 
1284.800  106535.00 1583.33 
1285.000  106607.50 1657.50 
1285.200  107960.00 1570.00 
1285.400  106800.00 1522.50 
1285.600  106185.00 1605.00 
1285.800  106395.00 1560.00 
1286.000  106670.00 1635.00 
1286.200  106052.50 1557.50 
1286.400  105922.50 1575.00 
1286.600  104395.00 1650.00 
1286.800  103995.00 1405.00 
1287.000  104177.50 1487.50 
1287.200  104227.50 1460.00 
1287.400  103872.50 1555.00 
1287.600  104055.00 1467.50 
1287.800  104547.50 1610.00 
1288.000  103857.50 1497.50 
1288.200  103952.50 1655.00 
1288.400  103992.50 1520.00 
1288.600  104275.00 1567.50 
1288.800  103935.00 1447.50 
1289.000  103675.00 1542.50 
1289.200  103027.50 1482.50 
1289.400  103072.50 1595.00 
1289.600  103617.50 1487.50 
1289.800  103240.00 1555.00 
1290.000  102835.00 1445.00 
1290.200  103322.50 1527.50 
1290.400  103337.50 1472.50 
1290.600  102970.00 1517.50 
1290.800  104670.00 1575.00 
1291.000  104535.00 1473.33 
1291.200  104790.00 1672.50 
1291.400  105883.34 1737.50 
1291.600  108817.50 1780.00 
1291.800  113622.50 1777.50 
1292.000  117675.00 1850.00 
1292.200  119582.50 1887.50 
1292.400  120497.50 1977.50 
1292.600  120120.00 1927.50 
1292.800  120607.50 2007.50 
1293.000  119422.50 1852.50 
1293.200  119060.00 2090.00 
1293.400  119232.50 2092.50 
1293.600  119470.00 2080.00 
1293.800  119500.00 1990.00 
1294.000  120327.50 2050.00 
1294.200  119810.00 2072.50 
1294.400  120620.00 1975.00 
1294.600  120730.00 2005.00 
1294.800  121377.50 2010.00 
1295.000  121712.50 2032.50 
1295.200  121545.00 2052.50 
1295.400  121835.00 2000.00 
1295.600  122847.50 2057.50 
1295.800  122195.00 2045.00 
1296.000  121322.50 2092.50 
1296.200  121377.50 2212.50 
1296.400  121857.50 2327.50 
1296.600  124252.50 2155.00 
1296.800  124650.00 2250.00 
1297.000  125710.00 2415.00 
1297.200  126860.00 2423.33 
1297.400  126547.50 2347.50 
1297.600  125056.66 2337.50 
1297.800  124082.50 2307.50 
1298.000  123832.50 2272.50 
1298.200  123107.50 2217.50 
1298.400  122697.50 2202.50 
1298.600  122465.00 2115.00 
1298.800  121105.00 2147.50 
1299.000  120945.00 2142.50 
1299.200  120965.00 1990.00 
1299.400  121265.00 2132.50 
1299.600  123407.50 2317.50 
1299.800  127327.50 2252.50 
1300.000  128362.50 2230.00 
1300.200  126855.00 2285.00 
1300.400  122127.50 2090.00 
1300.600  117437.50 2187.50 
1300.800  113822.50 2075.00 
1301.000  113630.00 1975.00 
1301.200  113195.00 1855.00 
1301.400  112767.50 2057.50 
1301.600  112037.50 1947.50 
1301.800  111850.00 1932.50 
1302.000  114400.00 1825.00 
1302.200  115775.00 2002.50 
1302.400  117125.00 2020.00 
1302.600  117540.00 2072.50 
1302.800  117960.00 1952.50 
1303.000  118580.00 2105.00 
1303.200  117620.00 1972.50 
1303.400  115345.00 1870.00 
1303.600  113530.00 2002.50 
1303.800  113375.00 1830.00 
1304.000  114347.50 1882.50 
1304.200  113882.50 1812.50 
1304.400  113687.50 1773.33 
1304.600  112090.00 2010.00 
1304.800  113476.66 1900.00 
1305.000  112167.50 1817.50 
1305.200  113960.00 1857.50 
1305.400  112460.00 1825.00 
1305.600  112097.50 1832.50 
1305.800  110925.00 1770.00 
1306.000  110512.50 1842.50 
1306.200  110172.50 1732.50 
1306.400  110055.00 1892.50 
1306.600  110350.00 1797.50 
1306.800  110927.50 1712.50 
1307.000  110740.00 1652.50 
1307.200  110750.00 1790.00 
1307.400  110012.50 1607.50 
1307.600  108450.00 1592.50 
1307.800  108430.00 1602.50 
1308.000  107872.50 1660.00 
1308.200  107865.00 1680.00 
1308.400  107740.00 1612.50 
1308.600  108012.50 1650.00 
1308.800  107660.00 1692.50 
1309.000  107960.00 1592.50 
1309.200  107737.50 1712.50 
1309.400  108415.00 1677.50 
1309.600  109497.50 1580.00 
1309.800  109837.50 1762.50 
1310.000  107580.00 1512.50 
1310.200  106427.50 1547.50 
1310.400  105367.50 1535.00 
1310.600  103815.00 1562.50 
1310.800  104335.00 1580.00 
1311.000  104200.00 1600.00 
1311.200  104437.50 1653.33 
1311.400  104350.00 1592.50 
1311.600  104473.34 1497.50 
1311.800  105195.00 1410.00 
1312.000  105577.50 1540.00 
1312.200  104757.50 1527.50 
1312.400  105617.50 1592.50 
1312.600  105285.00 1472.50 
1312.800  105585.00 1625.00 
1313.000  105922.50 1620.00 
1313.200  106862.50 1640.00 
1313.400  106740.00 1745.00 
1313.600  107060.00 1605.00 
1313.800  107325.00 1572.50 
1314.000  108280.00 1715.00 
1314.200  110175.00 1780.00 
1314.400  112255.00 1932.50 
1314.600  114195.00 1800.00 
1314.800  113982.50 2045.00 
1315.000  114475.00 2142.00 
1315.200  114905.00 2125.00 
1315.400  117374.00 2135.00 
1315.600  117872.50 2025.00 
1315.800  116762.50 2145.00 
1316.000  115762.50 2166.00 
1316.200  115520.00 2040.00 
1316.400  115408.00 1970.00 
1316.600  114962.50 1997.50 
1316.800  113696.00 2035.00 
1317.000  112997.50 1934.00 
1317.200  110910.00 1742.50 
1317.400  109970.00 1800.00 
1317.600  107865.00 1847.50 
1317.800  108030.00 1880.00 
1318.000  111807.50 2078.00 
1318.200  118346.00 2086.00 
1318.400  122136.00 1962.00 
1318.600  119124.00 1976.00 
1318.800  112604.00 1878.33 
1319.000  107388.00 1875.00 
1319.200  106746.66 1731.67 
1319.400  106308.34 1590.00 
1319.600  107161.66 1628.57 
1319.800  106784.29 1638.89 
1320.000  107141.43 1605.00 
1320.200  107243.34 1649.00 
1320.400  107212.50 1638.33 
1320.600  106806.00 1575.00 
1320.800  105388.34 1752.54 
1321.000  108357.50 -999.25 
1321.200  111396.20 -999.25 
1321.400  -999.25 -999.25 
1321.600  -999.25 -999.25 
1321.800  -999.25 -999.25 
1322.000  -999.25 -999.25 
1322.200  -999.25 -999.25 
1322.400  -999.25 -999.25 
1322.600  -999.25 -999.25 
1322.800  -999.25 -999.25 
1323.000  -999.25 -999.25 
