~Version Information
 VERS.                2.0:  CWLS LOG ASCII STANDARD -VERSION 2.0
 WRAP.                 NO:  ONE LINE PER DEPTH STEP
~WELL INFORMATION BLOCK
#MNEM.UNIT       DATA		            DESCRIPTION OF MNEMONIC
#---------    -------------            ------------------------
 STRT.FT  -2.200                         :START DEPTH
 STOP.FT  1323.200                       :STOP DEPTH
 STEP.FT  0.200                          :STEP    UP_HOLE  
 NULL.    -999.25                        :NULL VALUE
 COMP.    USGS                           :COMPANY
 WELL.    USGS 145                                                     :WELL
 FLD .    INL                            :FIELD\LOCATION
 LOC .                                   :LOCATION
 CNTY.    BUTTE                          :COUNTY
 STAT.    IDAHO                          :STATE
 CTRY.    USA                            :COUNTRY
 SRVC.    USGS                           :SERVICE COMPANY
 DATE.    07/16/2018                     :LOG DATE
 API .   CAL. 2017                           :API NUMBER
 LIC .    USGS                           :LICENSE NUMBER
~Curve Information Block
#MNEM.UNIT      API CODE     Curve Description
#---------    -------------  ------------------------
 DEPT     .FT        00 001 00 00          :  1  DEPTH   
 DEN(SS)  .CPS       00 350 00 00          :  2  SHORT SPACED DENS   
 DEN(LS)  .CPS       00 350 00 00          :  3  LONG SPACED DENSITY 
~Parameter Information Block
#MNEM.UNIT   Information     Description
#---------- ---------------  ------------------------
 FILE.      PROCESSED          :File Type
 FIID.      0024A              :File Type Identifier
 VERS.      3.60E              :System Version
 SER .      1                  :System Serial Number
 TRUK.      0.25               :Truck Calibration Number
 TOOL.         776             :Tool Serial Number
 TIME.      1403               :Time    HrHrMinMin
 LAT .                         :Latitude
 LON .                         :Longitude
 LMF .      LSD                :Log Measured From
 DMF .      LSD                :Driller Measured From
 PD  .                         :Permanent Data
 PDEV.FT                       :Elevation Permanent Data
 EKB .FT                       :Elevation Kelly Bushing
 ELEV.FT                       :Elevation DF
 EGL .FT                       :Elevation Ground Level
 DRDP.FT    1368               :Driller's Depth
 CASD.FT    10.                :Casing Diameter
 CASB.FT    1328               :Casing Bottom
 CASX.      SURFACE            :Casing Type
 CAST.IN    .25                :Casing Thickness
 TNOC.                         :Time Circulation Stopped
 LOGU.      USGS               :Logging Unit
 RECB.      MJG                :Recorded By
 OSR1.      9095               :Other Services
 OSR2.       9057              :Other Services
 OSR3.                         :Other Services
 BS  .IN         3.9           :Bit Size
 MST .F     SH                 :Mean Surface Temperature
 TGRD.F                        :Temperature Gradiant
 MAGN.      0                  :Magnetic Declination
 MDEN.      2.65               :Density Matrix
 MATR.      SANDSTONE          :Neutron Matrix
 DTMT.      54                 :Delta T Matrix
 DTFL.                         :Delta T Fluid
 MUDS.      FLOW LINE          :Mud Sample Source
 MRS .      .179               :Mud Resistivity
 MTP .      68.5               :Mud Temperature
 MFRS.                         :Resistivity Mud Filtrate
 MFTP.                         :Temperature Mud Filtrate
 MCRS.                         :Resistivity Mud Cake
 MCTP.                         :Temperature Mud Cake
 FTYP.      AIR                :Fluid Type
 FD  .LB/G    NA               :Mud Weight
 DFV .S                        :Fluid Viscosity
 FPH .                         :Fuild PH
 ELCO.      99999              :Electron Cutoff
 CASL.IN    3.5                :Casing Logger
 LOTD.FT    1328               :Logger TD
 ARTM.      12:20              :Arrival Time
 DPTM.                         :Departure Time
 RIGN.                         :Rig Number
~Other Information
#MNEM.UNIT  Information      Description
#---------- ---------------  ------------------------
# -------------------------- 
~A DEPTH  DEN(SS) DEN(LS) 
# ...
1157.400  135695.00 3537.50 
1157.600  134896.67 3425.00 
1157.800  132967.50 3430.00 
1158.000  131350.00 3457.50 
1158.200  131605.00 3772.50 
1158.400  133892.50 3936.67 
1158.600  140952.50 4365.00 
1158.800  144146.67 4837.50 
1159.000  144120.00 5360.00 
1159.200  141985.00 5502.50 
1159.400  142415.00 5280.00 
1159.600  144055.00 5035.00 
1159.800  143556.67 4825.00 
1160.000  142510.00 4970.00 
1160.200  140580.00 4697.50 
1160.400  139612.50 4303.33 
1160.600  138995.00 4367.50 
1160.800  139553.33 4405.00 
1161.000  139080.00 4682.50 
1161.200  139277.50 5440.00 
1161.400  141965.00 6090.00 
1161.600  145220.00 6915.00 
1161.800  147240.00 7622.50 
1162.000  147555.00 8320.00 
1162.200  149187.50 8550.00 
1162.400  148422.50 9220.00 
1162.600  148442.50 9300.00 
1162.800  150117.50 9752.50 
1163.000  150720.00 10360.00
1163.200  151377.50 11187.50
1163.400  151560.00 12320.00
1163.600  151545.00 12790.00
1163.800  152185.00 13545.00
1164.000  152333.33 14022.50
1164.200  152907.50 14542.50
1164.400  153162.50 14572.50
1164.600  153207.50 14850.00
1164.800  152820.00 14642.50
1165.000  153283.33 15135.00
1165.200  152417.50 14060.00
1165.400  152267.50 13125.00
1165.600  151685.00 12246.67
1165.800  151130.00 10760.00
1166.000  150113.33 9287.50 
1166.200  149155.00 8312.50 
1166.400  148140.00 7627.50 
1166.600  147185.00 7140.00 
1166.800  146897.50 6962.50 
1167.000  146933.33 6777.50 
1167.200  147162.50 6912.50 
1167.400  147812.50 7137.50 
1167.600  146420.00 6652.50 
1167.800  147127.50 6390.00 
1168.000  145887.50 6780.00 
1168.200  144660.00 6810.00 
1168.400  145172.50 7580.00 
1168.600  148675.00 7442.50 
1168.800  149407.50 7543.33 
1169.000  147255.00 7435.00 
1169.200  145960.00 6762.50 
1169.400  146025.00 6100.00 
1169.600  144197.50 5735.00 
1169.800  143370.00 5616.67 
1170.000  143025.00 5970.00 
1170.200  145750.00 6285.00 
1170.400  146440.00 6642.50 
1170.600  147227.50 6730.00 
1170.800  147857.50 6836.67 
1171.000  146432.50 6862.50 
1171.200  145706.67 6985.00 
1171.400  146902.50 7285.00 
1171.600  148010.00 7742.50 
1171.800  149485.00 8143.33 
1172.000  150022.50 8517.50 
1172.200  150443.33 9035.00 
1172.400  148960.00 9027.50 
1172.600  149810.00 9367.50 
1172.800  151032.50 8953.33 
1173.000  150450.00 8690.00 
1173.200  148473.33 8427.50 
1173.400  147585.00 8287.50 
1173.600  147990.00 8677.50 
1173.800  148852.50 9195.00 
1174.000  150740.00 9043.33 
1174.200  150500.00 9095.00 
1174.400  148750.00 8755.00 
1174.600  147885.00 8340.00 
1174.800  149077.50 7967.50 
1175.000  148650.00 7323.33 
1175.200  147757.50 7570.00 
1175.400  148640.00 7667.50 
1175.600  148217.50 7240.00 
1175.800  148135.00 6995.00 
1176.000  145467.50 6763.33 
1176.200  144372.50 6267.50 
1176.400  143596.67 6205.00 
1176.600  143645.00 5972.50 
1176.800  143732.50 6127.50 
1177.000  143780.00 5690.00 
1177.200  145202.50 5880.00 
1177.400  143067.50 5845.00 
1177.600  142196.67 5965.00 
1177.800  142707.50 5765.00 
1178.000  142622.50 5987.50 
1178.200  142835.00 5946.67 
1178.400  143522.50 6087.50 
1178.600  144840.00 6285.00 
1178.800  145257.50 6152.50 
1179.000  146055.00 6700.00 
1179.200  146450.00 6600.00 
1179.400  146080.00 6552.50 
1179.600  145266.67 6175.00 
1179.800  144455.00 6502.50 
1180.000  145337.50 6600.00 
1180.200  146370.00 6503.33 
1180.400  147592.50 6957.50 
1180.600  148496.67 7175.00 
1180.800  148520.00 7702.50 
1181.000  149077.50 7245.00 
1181.200  147112.50 7053.33 
1181.400  145227.50 6687.50 
1181.600  142976.67 6332.50 
1181.800  143322.50 5890.00 
1182.000  143587.50 5715.00 
1182.200  143092.50 5360.00 
1182.400  142835.00 4826.67 
1182.600  141092.50 5142.50 
1182.800  139233.33 4972.50 
1183.000  138252.50 4732.50 
1183.200  137750.00 4562.50 
1183.400  139560.00 4656.67 
1183.600  140335.00 4977.50 
1183.800  142403.33 4982.50 
1184.000  143055.00 5367.50 
1184.200  143297.50 5597.50 
1184.400  142885.00 5603.33 
1184.600  142690.00 5670.00 
1184.800  143583.33 5545.00 
1185.000  144530.00 5492.50 
1185.200  144627.50 5660.00 
1185.400  144287.50 5462.50 
1185.600  143262.50 4976.67 
1185.800  140555.00 4327.50 
1186.000  136080.00 4147.50 
1186.200  133447.50 3857.50 
1186.400  130557.50 3610.00 
1186.600  130875.00 3723.33 
1186.800  134075.00 3787.50 
1187.000  136426.67 4112.50 
1187.200  139857.50 4685.00 
1187.400  142077.50 4527.50 
1187.600  139432.50 4440.00 
1187.800  135587.50 4450.00 
1188.000  131456.67 4367.50 
1188.200  130975.00 3740.00 
1188.400  131595.00 3840.00 
1188.600  133007.50 3650.00 
1188.800  133487.50 4055.00 
1189.000  136636.67 4277.50 
1189.200  138422.50 4547.50 
1189.400  139745.00 5352.50 
1189.600  140712.50 5886.67 
1189.800  146110.00 6780.00 
1190.000  148990.00 7192.50 
1190.200  148620.00 7077.50 
1190.400  146272.50 6917.50 
1190.600  143710.00 6412.50 
1190.800  143440.00 6223.33 
1191.000  143800.00 6200.00 
1191.200  146490.00 6070.00 
1191.400  146075.00 5802.50 
1191.600  142157.50 5460.00 
1191.800  138187.50 5046.67 
1192.000  136145.00 4600.00 
1192.200  137290.00 4742.50 
1192.400  139255.00 5065.00 
1192.600  142792.50 5617.50 
1192.800  144377.50 5703.33 
1193.000  143215.00 5440.00 
1193.200  140053.33 5257.50 
1193.400  136192.50 4837.50 
1193.600  133100.00 4780.00 
1193.800  134320.00 4473.33 
1194.000  137460.00 4847.50 
1194.200  138920.00 5197.50 
1194.400  140737.50 5295.00 
1194.600  141162.50 5252.50 
1194.800  141412.50 4850.00 
1195.000  139937.50 4990.00 
1195.200  138502.50 5000.00 
1195.400  140160.00 4962.50 
1195.600  142420.00 5135.00 
1195.800  141357.50 5120.00 
1196.000  141622.50 5266.67 
1196.200  141622.50 5292.50 
1196.400  141016.67 4962.50 
1196.600  139880.00 4830.00 
1196.800  137565.00 4405.00 
1197.000  135627.50 4697.50 
1197.200  134872.50 4683.33 
1197.400  137462.50 4730.00 
1197.600  140706.67 4965.00 
1197.800  143170.00 5130.00 
1198.000  142357.50 5157.50 
1198.200  141110.00 5476.67 
1198.400  142567.50 5197.50 
1198.600  142973.33 5007.50 
1198.800  141310.00 5285.00 
1199.000  140825.00 5812.50 
1199.200  144762.50 5550.00 
1199.400  145790.00 5670.00 
1199.600  143950.00 5390.00 
1199.800  140765.00 5430.00 
1200.000  138870.00 4880.00 
1200.200  138842.50 4620.00 
1200.400  138815.00 4446.67 
1200.600  138222.50 4455.00 
1200.800  139706.67 4707.50 
1201.000  140105.00 4817.50 
1201.200  141717.50 5065.00 
1201.400  142470.00 5010.00 
1201.600  141830.00 4890.00 
1201.800  140866.67 4472.50 
1202.000  138510.00 4042.50 
1202.200  135222.50 3672.50 
1202.400  131232.50 3803.33 
1202.600  128572.50 3705.00 
1202.800  132940.00 4027.50 
1203.000  141687.50 4462.50 
1203.200  145665.00 5165.00 
1203.400  145985.00 6190.00 
1203.600  145340.00 5910.00 
1203.800  145213.33 5862.50 
1204.000  144190.00 5867.50 
1204.200  143032.50 5995.00 
1204.400  142902.50 6107.50 
1204.600  144152.50 5730.00 
1204.800  145550.00 5462.50 
1205.000  143470.00 5312.50 
1205.200  141200.00 5357.50 
1205.400  141430.00 5065.00 
1205.600  142872.50 4883.33 
1205.800  142210.00 4817.50 
1206.000  142136.67 4862.50 
1206.200  141277.50 4687.50 
1206.400  139200.00 4805.00 
1206.600  139392.50 4613.33 
1206.800  140520.00 5055.00 
1207.000  142133.33 5565.00 
1207.200  144492.50 6730.00 
1207.400  148405.00 7872.50 
1207.600  150585.00 9077.50 
1207.800  151170.00 9483.33 
1208.000  149805.00 9557.50 
1208.200  149113.33 9220.00 
1208.400  147727.50 8750.00 
1208.600  145690.00 8107.50 
1208.800  144447.50 8410.00 
1209.000  145990.00 7762.50 
1209.200  147893.33 7190.00 
1209.400  147217.50 6537.50 
1209.600  144310.00 6145.00 
1209.800  143227.50 5703.33 
1210.000  142082.50 5082.50 
1210.200  140490.00 5160.00 
1210.400  139592.50 5177.50 
1210.600  138700.00 5015.00 
1210.800  138210.00 5002.50 
1211.000  138232.50 4876.67 
1211.200  139685.00 4770.00 
1211.400  141370.00 4575.00 
1211.600  138760.00 4017.50 
1211.800  133225.00 3822.50 
1212.000  127007.50 3410.00 
1212.200  125662.50 3060.00 
1212.400  126526.66 2902.50 
