~Version Information
 VERS.                2.0:  CWLS LOG ASCII STANDARD -VERSION 2.0
 WRAP.                 NO:  ONE LINE PER DEPTH STEP
~WELL INFORMATION BLOCK
#MNEM.UNIT       DATA		            DESCRIPTION OF MNEMONIC
#---------    -------------            ------------------------
 STRT.FT  -2.200                         :START DEPTH
 STOP.FT  1323.200                       :STOP DEPTH
 STEP.FT  0.200                          :STEP    UP_HOLE  
 NULL.    -999.25                        :NULL VALUE
 COMP.    USGS                           :COMPANY
 WELL.    USGS 145                                                     :WELL
 FLD .    INL                            :FIELD\LOCATION
 LOC .                                   :LOCATION
 CNTY.    BUTTE                          :COUNTY
 STAT.    IDAHO                          :STATE
 CTRY.    USA                            :COUNTRY
 SRVC.    USGS                           :SERVICE COMPANY
 DATE.    07/16/2018                     :LOG DATE
 API .   CAL. 2017                           :API NUMBER
 LIC .    USGS                           :LICENSE NUMBER
~Curve Information Block
#MNEM.UNIT      API CODE     Curve Description
#---------    -------------  ------------------------
 DEPT     .FT        00 001 00 00          :  1  DEPTH   
 DEN(SS)  .CPS       00 350 00 00          :  2  SHORT SPACED DENS   
 DEN(LS)  .CPS       00 350 00 00          :  3  LONG SPACED DENSITY 
~Parameter Information Block
#MNEM.UNIT   Information     Description
#---------- ---------------  ------------------------
 FILE.      PROCESSED          :File Type
 FIID.      0024A              :File Type Identifier
 VERS.      3.60E              :System Version
 SER .      1                  :System Serial Number
 TRUK.      0.25               :Truck Calibration Number
 TOOL.         776             :Tool Serial Number
 TIME.      1403               :Time    HrHrMinMin
 LAT .                         :Latitude
 LON .                         :Longitude
 LMF .      LSD                :Log Measured From
 DMF .      LSD                :Driller Measured From
 PD  .                         :Permanent Data
 PDEV.FT                       :Elevation Permanent Data
 EKB .FT                       :Elevation Kelly Bushing
 ELEV.FT                       :Elevation DF
 EGL .FT                       :Elevation Ground Level
 DRDP.FT    1368               :Driller's Depth
 CASD.FT    10.                :Casing Diameter
 CASB.FT    1328               :Casing Bottom
 CASX.      SURFACE            :Casing Type
 CAST.IN    .25                :Casing Thickness
 TNOC.                         :Time Circulation Stopped
 LOGU.      USGS               :Logging Unit
 RECB.      MJG                :Recorded By
 OSR1.      9095               :Other Services
 OSR2.       9057              :Other Services
 OSR3.                         :Other Services
 BS  .IN         3.9           :Bit Size
 MST .F     SH                 :Mean Surface Temperature
 TGRD.F                        :Temperature Gradiant
 MAGN.      0                  :Magnetic Declination
 MDEN.      2.65               :Density Matrix
 MATR.      SANDSTONE          :Neutron Matrix
 DTMT.      54                 :Delta T Matrix
 DTFL.                         :Delta T Fluid
 MUDS.      FLOW LINE          :Mud Sample Source
 MRS .      .179               :Mud Resistivity
 MTP .      68.5               :Mud Temperature
 MFRS.                         :Resistivity Mud Filtrate
 MFTP.                         :Temperature Mud Filtrate
 MCRS.                         :Resistivity Mud Cake
 MCTP.                         :Temperature Mud Cake
 FTYP.      AIR                :Fluid Type
 FD  .LB/G    NA               :Mud Weight
 DFV .S                        :Fluid Viscosity
 FPH .                         :Fuild PH
 ELCO.      99999              :Electron Cutoff
 CASL.IN    3.5                :Casing Logger
 LOTD.FT    1328               :Logger TD
 ARTM.      12:20              :Arrival Time
 DPTM.                         :Departure Time
 RIGN.                         :Rig Number
~Other Information
#MNEM.UNIT  Information      Description
#---------- ---------------  ------------------------
# -------------------------- 
~A DEPTH  DEN(SS) DEN(LS) 
# ...
 936.600  112062.50 1915.00 
 936.800  113316.66 1895.00 
 937.000  114525.00 1957.50 
 937.200  114487.50 1963.33 
 937.400  113912.50 1910.00 
 937.600  113413.34 1992.50 
 937.800  112445.00 1850.00 
 938.000  112632.50 1917.50 
 938.200  112413.34 2060.00 
 938.400  113287.50 1940.00 
 938.600  113035.00 1890.00 
 938.800  112723.34 2017.50 
 939.000  113397.50 1886.67 
 939.200  113772.50 1840.00 
 939.400  112836.66 1930.00 
 939.600  113880.00 1880.00 
 939.800  113362.50 1726.67 
 940.000  112682.50 1917.50 
 940.200  111323.34 1717.50 
 940.400  111457.50 1900.00 
 940.600  110025.00 1845.00 
 940.800  109053.34 1677.50 
 941.000  109272.50 1833.33 
 941.200  109507.50 1832.50 
 941.400  108076.66 1665.00 
 941.600  108067.50 1662.50 
 941.800  107540.00 1646.67 
 942.000  107120.00 1787.50 
 942.200  107150.00 1612.50 
 942.400  106802.50 1743.33 
 942.600  107575.00 1592.50 
 942.800  107033.34 1717.50 
 943.000  107307.50 1630.00 
 943.200  107335.00 1712.50 
 943.400  108776.66 1655.00 
 943.600  107490.00 1703.33 
 943.800  107612.50 1765.00 
 944.000  108026.66 1657.50 
 944.200  107502.50 1610.00 
 944.400  106885.00 1680.00 
 944.600  106646.66 1625.00 
 944.800  107307.50 1632.50 
 945.000  107290.00 1516.67 
 945.200  107090.00 1657.50 
 945.400  106793.34 1625.00 
 945.600  106470.00 1610.00 
 945.800  105725.00 1477.50 
 946.000  106206.66 1622.50 
 946.200  105695.00 1680.00 
 946.400  106292.50 1667.50 
 946.600  105840.00 1602.50 
 946.800  105850.00 1527.50 
 947.000  106467.50 1456.67 
 947.200  106132.50 1725.00 
 947.400  105880.00 1492.50 
 947.600  105760.00 1593.33 
 947.800  105887.50 1517.50 
 948.000  105876.66 1620.00 
 948.200  104847.50 1683.33 
 948.400  105150.00 1515.00 
 948.600  105006.66 1625.00 
 948.800  104962.50 1590.00 
 949.000  105392.50 1552.50 
 949.200  104970.00 1552.50 
 949.400  104737.50 1640.00 
 949.600  105445.00 1720.00 
 949.800  106527.50 1580.00 
 950.000  106510.00 1677.50 
 950.200  104912.50 1596.67 
 950.400  105662.50 1670.00 
 950.600  103823.34 1520.00 
 950.800  104725.00 1586.67 
 951.000  103932.50 1495.00 
 951.200  104480.00 1487.50 
 951.400  105140.00 1430.00 
 951.600  105450.00 1527.50 
 951.800  105843.34 1652.50 
 952.000  105137.50 1572.50 
 952.200  104337.50 1546.67 
 952.400  104092.50 1460.00 
 952.600  104853.34 1510.00 
 952.800  104105.00 1470.00 
 953.000  103962.50 1600.00 
 953.200  104416.66 1512.50 
 953.400  104895.00 1473.33 
 953.600  104837.50 1447.50 
 953.800  104636.66 1595.00 
 954.000  104062.50 1562.50 
 954.200  103917.50 1510.00 
 954.400  104182.50 1477.50 
 954.600  104900.00 1522.50 
 954.800  104720.00 1473.33 
 955.000  105115.00 1567.50 
 955.200  104713.34 1487.50 
 955.400  105067.50 1613.33 
 955.600  106352.50 1742.50 
 955.800  109416.66 1827.50 
 956.000  114527.50 1990.00 
 956.200  119082.50 1917.50 
 956.400  120870.00 2160.00 
 956.600  118477.50 2142.50 
 956.800  116832.50 2020.00 
 957.000  114642.50 1947.50 
 957.200  113103.34 1885.00 
 957.400  113180.00 1940.00 
 957.600  113397.50 1890.00 
 957.800  112403.34 1782.50 
 958.000  110547.50 1776.67 
 958.200  109435.00 1642.50 
 958.400  106143.34 1665.00 
 958.600  104432.50 1516.67 
 958.800  103945.00 1607.50 
 959.000  103546.66 1517.50 
 959.200  103795.00 1550.00 
 959.400  104245.00 1580.00 
 959.600  105365.00 1627.50 
 959.800  106433.34 1747.50 
 960.000  108770.00 1846.67 
 960.200  114250.00 1897.50 
 960.400  118700.00 1977.50 
 960.600  121967.50 2106.67 
 960.800  122347.50 2302.50 
 961.000  123590.00 2202.50 
 961.200  124375.00 2405.00 
 961.400  125982.50 2213.33 
 961.600  126322.50 2465.00 
 961.800  127040.00 2452.50 
 962.000  127962.50 2456.67 
 962.200  128390.00 2527.50 
 962.400  128613.34 2532.50 
 962.600  128690.00 2453.33 
 962.800  127967.50 2402.50 
 963.000  128073.34 2445.00 
 963.200  127212.50 2320.00 
 963.400  125532.50 2306.67 
 963.600  125115.00 2297.50 
 963.800  123623.34 2250.00 
 964.000  123592.50 2260.00 
 964.200  123187.50 2267.50 
 964.400  122930.00 2137.50 
 964.600  122105.00 2236.67 
 964.800  121487.50 2085.00 
 965.000  121076.66 2215.00 
 965.200  122145.00 2193.33 
 965.400  120835.00 2047.50 
 965.600  121356.66 2177.50 
 965.800  122095.00 2215.00 
 966.000  122715.00 2256.67 
 966.200  122827.50 2272.50 
 966.400  122820.00 2247.50 
 966.600  122852.50 2280.00 
 966.800  122570.00 2317.50 
 967.000  122886.66 2395.00 
 967.200  126662.50 2410.00 
 967.400  131185.00 2547.50 
 967.600  133296.67 2545.00 
 967.800  131512.50 2525.00 
 968.000  128862.50 2553.33 
 968.200  127122.50 2287.50 
 968.400  125320.00 2287.50 
 968.600  120972.50 2110.00 
 968.800  116305.00 1882.50 
 969.000  110570.00 1865.00 
 969.200  107167.50 1756.67 
 969.400  105765.00 1650.00 
 969.600  106216.66 1537.50 
 969.800  106812.50 1645.00 
 970.000  106267.50 1463.33 
 970.200  105602.50 1552.50 
 970.400  103736.66 1585.00 
 970.600  104387.50 1593.33 
 970.800  104675.00 1495.00 
 971.000  103923.34 1550.00 
 971.200  104102.50 1673.33 
 971.400  104047.50 1402.50 
 971.600  103286.66 1577.50 
 971.800  104120.00 1545.00 
 972.000  104672.50 1530.00 
 972.200  105257.50 1557.50 
 972.400  105880.00 1545.00 
 972.600  104460.00 1540.00 
 972.800  104107.50 1397.50 
 973.000  103846.66 1530.00 
 973.200  103412.50 1650.00 
 973.400  104607.50 1532.50 
 973.600  104566.66 1615.00 
 973.800  104405.00 1370.00 
 974.000  103772.50 1612.50 
 974.200  103133.34 1597.50 
 974.400  104370.00 1617.50 
 974.600  104587.50 1526.67 
 974.800  104240.00 1590.00 
 975.000  104310.00 1547.50 
 975.200  104537.50 1553.33 
 975.400  104640.00 1547.50 
 975.600  103310.00 1452.50 
 975.800  104410.00 1390.00 
 976.000  103910.00 1487.50 
 976.200  104046.66 1480.00 
 976.400  103825.00 1622.50 
 976.600  104775.00 1510.00 
 976.800  104837.50 1490.00 
 977.000  104323.34 1532.50 
 977.200  104680.00 1500.00 
 977.400  104190.00 1637.50 
 977.600  104936.66 1560.00 
 977.800  104252.50 1530.00 
 978.000  104737.50 1575.00 
 978.200  103636.66 1600.00 
 978.400  104347.50 1693.33 
 978.600  104850.00 1632.50 
 978.800  104346.66 1427.50 
 979.000  104282.50 1492.50 
 979.200  104800.00 1543.33 
 979.400  104112.50 1515.00 
 979.600  103213.34 1397.50 
 979.800  103297.50 1533.33 
 980.000  103072.50 1557.50 
 980.200  102846.66 1445.00 
 980.400  102202.50 1516.67 
 980.600  102062.50 1502.50 
 980.800  101956.66 1512.50 
 981.000  102287.50 1542.50 
 981.200  102920.00 1470.00 
 981.400  102210.00 1510.00 
 981.600  102750.00 1465.00 
 981.800  102370.00 1343.33 
 982.000  102490.00 1472.50 
 982.200  103196.66 1622.50 
 982.400  102707.50 1596.67 
 982.600  102965.00 1672.50 
 982.800  103626.66 1460.00 
 983.000  102552.50 1505.00 
 983.200  103302.50 1533.33 
 983.400  103847.50 1517.50 
 983.600  103686.66 1512.50 
 983.800  103090.00 1346.67 
 984.000  103572.50 1475.00 
 984.200  102520.00 1577.50 
 984.400  103017.50 1696.67 
 984.600  104290.00 1525.00 
 984.800  105810.00 1630.00 
 985.000  107777.50 1687.50 
 985.200  109877.50 1860.00 
 985.400  111192.50 1707.50 
 985.600  112000.00 1795.00 
 985.800  109437.50 1633.33 
 986.000  106590.00 1665.00 
 986.200  106330.00 1582.50 
 986.400  104675.00 1556.67 
 986.600  104922.50 1540.00 
 986.800  106063.34 1555.00 
 987.000  106202.50 1562.50 
 987.200  106010.00 1670.00 
 987.400  106685.00 1637.50 
 987.600  108883.34 1782.50 
 987.800  110152.50 1760.00 
 988.000  112555.00 1940.00 
 988.200  113013.34 1867.50 
 988.400  114255.00 1943.33 
 988.600  115267.50 2002.50 
 988.800  113956.66 1887.50 
 989.000  113707.50 1803.33 
 989.200  112825.00 1912.50 
 989.400  112276.66 1840.00 
 989.600  112400.00 1777.50 
 989.800  112262.50 1933.33 
 990.000  113322.50 1897.50 
 990.200  113670.00 1795.00 
 990.400  114010.00 1976.67 
 990.600  111805.00 1802.50 
 990.800  111460.00 1712.50 
 991.000  110667.50 1833.33 
 991.200  109792.50 1697.50 
 991.400  108990.00 1680.00 
 991.600  108895.00 1707.50 
