~Version Information
 VERS.                2.0:  CWLS LOG ASCII STANDARD -VERSION 2.0
 WRAP.                 NO:  ONE LINE PER DEPTH STEP
~WELL INFORMATION BLOCK
#MNEM.UNIT       DATA		            DESCRIPTION OF MNEMONIC
#---------    -------------            ------------------------
 STRT.FT  -2.200                         :START DEPTH
 STOP.FT  1323.200                       :STOP DEPTH
 STEP.FT  0.200                          :STEP    UP_HOLE  
 NULL.    -999.25                        :NULL VALUE
 COMP.    USGS                           :COMPANY
 WELL.    USGS 145                                                     :WELL
 FLD .    INL                            :FIELD\LOCATION
 LOC .                                   :LOCATION
 CNTY.    BUTTE                          :COUNTY
 STAT.    IDAHO                          :STATE
 CTRY.    USA                            :COUNTRY
 SRVC.    USGS                           :SERVICE COMPANY
 DATE.    07/16/2018                     :LOG DATE
 API .   CAL. 2017                           :API NUMBER
 LIC .    USGS                           :LICENSE NUMBER
~Curve Information Block
#MNEM.UNIT      API CODE     Curve Description
#---------    -------------  ------------------------
 DEPT     .FT        00 001 00 00          :  1  DEPTH   
 DEN(SS)  .CPS       00 350 00 00          :  2  SHORT SPACED DENS   
 DEN(LS)  .CPS       00 350 00 00          :  3  LONG SPACED DENSITY 
~Parameter Information Block
#MNEM.UNIT   Information     Description
#---------- ---------------  ------------------------
 FILE.      PROCESSED          :File Type
 FIID.      0024A              :File Type Identifier
 VERS.      3.60E              :System Version
 SER .      1                  :System Serial Number
 TRUK.      0.25               :Truck Calibration Number
 TOOL.         776             :Tool Serial Number
 TIME.      1403               :Time    HrHrMinMin
 LAT .                         :Latitude
 LON .                         :Longitude
 LMF .      LSD                :Log Measured From
 DMF .      LSD                :Driller Measured From
 PD  .                         :Permanent Data
 PDEV.FT                       :Elevation Permanent Data
 EKB .FT                       :Elevation Kelly Bushing
 ELEV.FT                       :Elevation DF
 EGL .FT                       :Elevation Ground Level
 DRDP.FT    1368               :Driller's Depth
 CASD.FT    10.                :Casing Diameter
 CASB.FT    1328               :Casing Bottom
 CASX.      SURFACE            :Casing Type
 CAST.IN    .25                :Casing Thickness
 TNOC.                         :Time Circulation Stopped
 LOGU.      USGS               :Logging Unit
 RECB.      MJG                :Recorded By
 OSR1.      9095               :Other Services
 OSR2.       9057              :Other Services
 OSR3.                         :Other Services
 BS  .IN         3.9           :Bit Size
 MST .F     SH                 :Mean Surface Temperature
 TGRD.F                        :Temperature Gradiant
 MAGN.      0                  :Magnetic Declination
 MDEN.      2.65               :Density Matrix
 MATR.      SANDSTONE          :Neutron Matrix
 DTMT.      54                 :Delta T Matrix
 DTFL.                         :Delta T Fluid
 MUDS.      FLOW LINE          :Mud Sample Source
 MRS .      .179               :Mud Resistivity
 MTP .      68.5               :Mud Temperature
 MFRS.                         :Resistivity Mud Filtrate
 MFTP.                         :Temperature Mud Filtrate
 MCRS.                         :Resistivity Mud Cake
 MCTP.                         :Temperature Mud Cake
 FTYP.      AIR                :Fluid Type
 FD  .LB/G    NA               :Mud Weight
 DFV .S                        :Fluid Viscosity
 FPH .                         :Fuild PH
 ELCO.      99999              :Electron Cutoff
 CASL.IN    3.5                :Casing Logger
 LOTD.FT    1328               :Logger TD
 ARTM.      12:20              :Arrival Time
 DPTM.                         :Departure Time
 RIGN.                         :Rig Number
~Other Information
#MNEM.UNIT  Information      Description
#---------- ---------------  ------------------------
# -------------------------- 
~A DEPTH  DEN(SS) DEN(LS) 
# ...
 660.600  153800.00 12932.50
 660.800  153680.00 12653.33
 661.000  154882.50 12297.50
 661.200  153943.33 12155.00
 661.400  153710.00 12120.00
 661.600  151372.50 11912.50
 661.800  152230.00 11572.50
 662.000  151257.50 12030.00
 662.200  152030.00 11482.50
 662.400  151333.33 11842.50
 662.600  151867.50 11630.00
 662.800  152405.00 11505.00
 663.000  152906.67 11192.50
 663.200  151525.00 11506.67
 663.400  153090.00 14705.00
 663.600  158360.00 16912.50
 663.800  146350.00 19486.67
 664.000  145805.00 23152.50
 664.200  154190.00 31785.00
 664.400  149737.50 38270.00
 664.600  93017.50 36512.50
 664.800  102866.66 37000.00
 665.000  138367.50 29646.67
 665.200  154102.50 22502.50
 665.400  156840.00 18197.50
 665.600  157975.00 17000.00
 665.800  158457.50 15785.00
 666.000  157476.67 15022.50
 666.200  156325.00 13820.00
 666.400  155102.50 12922.50
 666.600  152520.00 12317.50
 666.800  152442.50 11310.00
 667.000  151465.00 11217.50
 667.200  150923.33 11320.00
 667.400  151412.50 10480.00
 667.600  148677.50 9877.50 
 667.800  146880.00 10112.50
 668.000  144837.50 9453.33 
 668.200  141947.50 8982.50 
 668.400  141610.00 8566.67 
 668.600  140837.50 8430.00 
 668.800  140736.67 8590.00 
 669.000  138972.50 8446.67 
 669.200  137695.00 8170.00 
 669.400  137456.67 8285.00 
 669.600  137515.00 8580.00 
 669.800  138300.00 8370.00 
 670.000  138233.33 8127.50 
 670.200  139185.00 8383.33 
 670.400  139265.00 8627.50 
 670.600  139136.67 8337.50 
 670.800  138885.00 8410.00 
 671.000  139740.00 8750.00 
 671.200  142763.33 8957.50 
 671.400  144445.00 8470.00 
 671.600  144207.50 9142.50 
 671.800  143703.33 10620.00
 672.000  145915.00 11280.00
 672.200  152857.50 11635.00
 672.400  153843.33 11405.00
 672.600  152105.00 11463.33
 672.800  146940.00 10915.00
 673.000  145350.00 9947.50 
 673.200  145177.50 9580.00 
 673.400  144092.50 9157.50 
 673.600  143140.00 9300.00 
 673.800  143855.00 9273.33 
 674.000  142765.00 9090.00 
 674.200  142330.00 9155.00 
 674.400  141762.50 8880.00 
 674.600  139727.50 8745.00 
 674.800  139756.67 8235.00 
 675.000  139017.50 8486.67 
 675.200  139940.00 8772.50 
 675.400  140333.33 8780.00 
 675.600  140857.50 8970.00 
 675.800  142790.00 8957.50 
 676.000  142350.00 9007.50 
 676.200  142765.00 9090.00 
 676.400  143510.00 9425.00 
 676.600  144140.00 9412.50 
 676.800  144850.00 9750.00 
 677.000  145012.50 9642.50 
 677.200  145483.33 9252.50 
 677.400  144522.50 9406.67 
 677.600  144282.50 9585.00 
 677.800  144666.67 9207.50 
 678.000  144450.00 9610.00 
 678.200  144430.00 9390.00 
 678.400  144013.33 9102.50 
 678.600  143687.50 9196.67 
 678.800  142957.50 9137.50 
 679.000  142026.67 9026.67 
 679.200  141862.50 9002.50 
 679.400  143083.33 9132.50 
 679.600  143650.00 8640.00 
 679.800  142852.50 9030.00 
 680.000  141940.00 8707.50 
 680.200  142357.50 8780.00 
 680.400  142027.50 8957.50 
 680.600  142150.00 8627.50 
 680.800  141655.00 8890.00 
 681.000  141915.00 8782.50 
 681.200  143446.67 8757.50 
 681.400  140860.00 8343.33 
 681.600  138450.00 8652.50 
 681.800  138340.00 8255.00 
 682.000  136645.00 8196.67 
 682.200  135577.50 8077.50 
 682.400  136763.33 8215.00 
 682.600  136695.00 8196.67 
 682.800  135917.50 7832.50 
 683.000  135276.67 8105.00 
 683.200  134695.00 8066.67 
 683.400  134800.00 7827.50 
 683.600  134650.00 8005.00 
 683.800  135472.50 7933.33 
 684.000  135057.50 7955.00 
 684.200  133836.67 7730.00 
 684.400  133810.00 7736.67 
 684.600  133827.50 7880.00 
 684.800  134943.33 7552.50 
 685.000  134695.00 7926.67 
 685.200  134822.50 8077.50 
 685.400  133403.33 7715.00 
 685.600  133945.00 7756.67 
 685.800  134062.50 7762.50 
 686.000  134056.67 7752.50 
 686.200  133550.00 7310.00 
 686.400  133660.00 7587.50 
 686.600  132996.67 7740.00 
 686.800  133492.50 7610.00 
 687.000  134165.00 7582.50 
 687.200  133403.33 7625.00 
 687.400  132980.00 7743.33 
 687.600  132537.50 7557.50 
 687.800  133263.33 7627.50 
 688.000  133200.00 7470.00 
 688.200  133352.50 7847.50 
 688.400  133403.33 7730.00 
 688.600  134085.00 7960.00 
 688.800  133192.50 7672.50 
 689.000  133110.00 7577.50 
 689.200  132835.00 7383.33 
 689.400  132370.00 7557.50 
 689.600  132180.00 7576.67 
 689.800  132832.50 7410.00 
 690.000  133230.00 7827.50 
 690.200  132790.00 7560.00 
 690.400  132540.00 7700.00 
 690.600  133376.67 7520.00 
 690.800  132527.50 7690.00 
 691.000  131725.00 7470.00 
 691.200  132253.33 7437.50 
 691.400  132407.50 7506.67 
 691.600  132392.50 7707.50 
 691.800  131736.67 7710.00 
 692.000  131832.50 7546.67 
 692.200  132030.00 7555.00 
 692.400  132003.33 7462.50 
 692.600  131690.00 7520.00 
 692.800  131107.50 7602.50 
 693.000  131276.67 7545.00 
 693.200  130742.50 7466.67 
 693.400  131247.50 7580.00 
 693.600  132493.33 7782.50 
 693.800  131915.00 7440.00 
 694.000  131787.50 7907.50 
 694.200  131126.67 7695.00 
 694.400  132375.00 7563.33 
 694.600  131800.00 7787.50 
 694.800  132160.00 7695.00 
 695.000  131827.50 7653.33 
 695.200  132517.50 7872.50 
 695.400  132626.67 7717.50 
 695.600  131945.00 7786.67 
 695.800  131497.50 7745.00 
 696.000  131563.33 7595.00 
 696.200  131712.50 7590.00 
 696.400  131800.00 7735.00 
 696.600  129950.00 7260.00 
 696.800  129175.00 7343.33 
 697.000  128687.50 7167.50 
 697.200  128343.34 7132.50 
 697.400  129257.50 7276.67 
 697.600  128660.00 7332.50 
 697.800  129093.34 7227.50 
 698.000  129920.00 7283.33 
 698.200  129535.00 7392.50 
 698.400  130643.34 7310.00 
 698.600  130447.50 7173.33 
 698.800  130955.00 7770.00 
 699.000  131823.33 7726.67 
 699.200  134612.50 8205.00 
 699.400  138430.00 8460.00 
 699.600  141315.00 8936.67 
 699.800  143602.50 9242.50 
 700.000  142500.00 9582.50 
 700.200  144097.50 9736.67 
 700.400  144845.00 9142.50 
 700.600  144916.67 9192.50 
 700.800  145280.00 9430.00 
 701.000  145532.50 9692.50 
 701.200  146776.67 9807.50 
 701.400  147432.50 9993.33 
 701.600  148102.50 9957.50 
 701.800  147126.67 10375.00
 702.000  146570.00 10126.67
 702.200  148420.00 10210.00
 702.400  149436.67 10505.00
 702.600  150635.00 10793.33
 702.800  150677.50 11255.00
 703.000  151196.67 11245.00
 703.200  150445.00 10870.00
 703.400  150830.00 10825.00
 703.600  149743.33 10615.00
 703.800  148840.00 10810.00
 704.000  148917.50 10515.00
 704.200  150060.00 10745.00
 704.400  149240.00 10770.00
 704.600  149700.00 10847.50
 704.800  149353.33 10570.00
 705.000  149575.00 10576.67
 705.200  148485.00 10312.50
 705.400  147796.67 10432.50
 705.600  147172.50 10463.33
 705.800  147320.00 10507.50
 706.000  148230.00 10775.00
 706.200  149702.50 10223.33
 706.400  149780.00 10520.00
 706.600  149950.00 10880.00
 706.800  149727.50 10673.33
 707.000  148137.50 10550.00
 707.200  147240.00 10457.50
 707.400  146735.00 10120.00
 707.600  146125.00 9350.00 
 707.800  144680.00 8976.67 
 708.000  142252.50 8682.50 
 708.200  138606.67 9477.50 
 708.400  136485.00 10695.00
 708.600  137200.00 6766.67 
 708.800  136332.50 4062.50 
 709.000  121380.00 2436.67 
 709.200  106710.00 1825.00 
 709.400  106750.00 1612.50 
 709.600  107585.00 1703.33 
 709.800  106962.50 1662.50 
 710.000  106526.66 1630.00 
 710.200  106702.50 1600.00 
 710.400  106415.00 1510.00 
 710.600  105346.66 1697.50 
 710.800  105587.50 1706.67 
 711.000  105570.00 1557.50 
 711.200  104640.00 1562.50 
 711.400  104165.00 1646.67 
 711.600  105105.00 1540.00 
 711.800  105526.66 1637.50 
 712.000  103770.00 1616.67 
 712.200  103592.50 1585.00 
 712.400  103516.66 1645.00 
 712.600  103715.00 1463.33 
 712.800  103250.00 1707.50 
 713.000  102980.00 1457.50 
 713.200  102750.00 1493.33 
 713.400  103137.50 1455.00 
 713.600  102956.66 1510.00 
 713.800  103490.00 1506.67 
 714.000  103297.50 1685.00 
 714.200  103373.34 1570.00 
 714.400  104050.00 1463.33 
 714.600  104355.00 1657.50 
 714.800  103966.66 1430.00 
 715.000  103315.00 1633.33 
 715.200  101970.00 1595.00 
 715.400  103843.34 1520.00 
 715.600  103862.50 1563.33 
