~Version Information
 VERS.                2.0:  CWLS LOG ASCII STANDARD -VERSION 2.0
 WRAP.                 NO:  ONE LINE PER DEPTH STEP
~WELL INFORMATION BLOCK
#MNEM.UNIT       DATA		            DESCRIPTION OF MNEMONIC
#---------    -------------            ------------------------
 STRT.FT  -4.400                         :START DEPTH
 STOP.FT  1314.600                       :STOP DEPTH
 STEP.FT  0.200                          :STEP    UP_HOLE  
 NULL.    -999.25                        :NULL VALUE
 COMP.    USGS                           :COMPANY
 WELL.    USGS 145                                                     :WELL
 FLD .    INL                            :FIELD\LOCATION
 LOC .                                   :LOCATION
 CNTY.    BUTTE                          :COUNTY
 STAT.    IDAHO                          :STATE
 CTRY.    USA                            :COUNTRY
 SRVC.    USGS                           :SERVICE COMPANY
 DATE.    07/16/2018                     :LOG DATE
 API .   CAL. 2017                           :API NUMBER
 LIC .    USGS                           :LICENSE NUMBER
~Curve Information Block
#MNEM.UNIT      API CODE     Curve Description
#---------    -------------  ------------------------
 DEPT     .FT        00 001 00 00          :  1  DEPTH   
 SANG     .DEG       00 620 00 00          :  2  SAMPLE SLANT ANGLE  
 SANGB    .DEG       00 631 00 00          :  3  SAMPLE ANG BEARING  
 TOOLFACE .DEG       00 000 00 00          :  4  TOOLFACE            
 DELT TF  .DEG       00 000 00 00          :  5  DELT TF             
 GYRO     .VOLTS     00 000 00 00          :  6  GYRO                
 PAD1-AZ  .DEG       00 632 00 00          :  7  SAMPLE PAD 1 AZIM   
 GAMMA    .CPS       00 310 00 00          :  8  GAMMA RAY           
 COS-GYRO .AMPL      00 000 00 00          :  9  COS-GYRO            
 SIN-GYRO .AMPL      00 000 00 00          : 10  SIN-GYRO            
 XINCL    .AMPL      00 000 00 00          : 11  XINCL               
 YINCL    .AMPL      00 000 00 00          : 12  YINCL               
 CAGE     .VOLTS     00 000 00 00          : 13  CAGE                
 MAG-VECT .AMPL      00 000 00 00          : 14  MAG-VECT            
 MSANGB   .DEG       00 000 00 00          : 15  MSANGB              
 TIME     .MINUTES   00 000 00 00          : 16  TIME                
~Parameter Information Block
#MNEM.UNIT   Information     Description
#---------- ---------------  ------------------------
 FILE.      PROCESSED          :File Type
 FIID.      9095C              :File Type Identifier
 VERS.      3.60E              :System Version
 SER .      1                  :System Serial Number
 TRUK.      0.25               :Truck Calibration Number
 TOOL.        1203             :Tool Serial Number
 TIME.      1600               :Time    HrHrMinMin
 LAT .                         :Latitude
 LON .                         :Longitude
 LMF .      LSD                :Log Measured From
 DMF .      LSD                :Driller Measured From
 PD  .                         :Permanent Data
 PDEV.                         :Elevation Permanent Data
 EKB .M                        :Elevation Kelly Bushing
 ELEV.DF                       :Elevation DF
 EGL .M                        :Elevation Ground Level
 DRDP.      1368               :Driller's Depth
 CASD.      10.                :Casing Diameter
 CASB.      1328               :Casing Bottom
 CASX.      SURFACE            :Casing Type
 CAST.      .25                :Casing Thickness
 TNOC.                         :Time Circulation Stopped
 LOGU.      USGS               :Logging Unit
 RECB.      MJG                :Recorded By
 OSR1.      0024               :Other Services
 OSR2.       9057              :Other Services
 OSR3.                         :Other Services
 BS  .IN         3.9           :Bit Size
 MST .      SH                 :Mean Surface Temperature
 TGRD.                         :Temperature Gradiant
 MAGN.      0                  :Magnetic Declination
 MDEN.      2.65               :Density Matrix
 MATR.      SANDSTONE          :Neutron Matrix
 DTMT.      54                 :Delta T Matrix
 DTFL.                         :Delta T Fluid
 MUDS.      FLOW LINE          :Mud Sample Source
 MRS .      .179               :Mud Resistivity
 MTP .      68.5               :Mud Temperature
 MFRS.                         :Resistivity Mud Filtrate
 MFTP.                         :Temperature Mud Filtrate
 MCRS.                         :Resistivity Mud Cake
 MCTP.                         :Temperature Mud Cake
 FTYP.      AIR                :Fluid Type
 FD  .LB/G    NA               :Mud Weight
 DFV .S                        :Fluid Viscosity
 FPH .                         :Fuild PH
 ELCO.      99999              :Electron Cutoff
 CASL.      3.5                :Casing Logger
 LOTD.      1328               :Logger TD
 ARTM.      12:20              :Arrival Time
 DPTM.                         :Departure Time
 RIGN.                         :Rig Number
~Other Information
#MNEM.UNIT  Information      Description
#---------- ---------------  ------------------------
# -------------------------- 
~A DEPTH  SANG   SANGB  TOOLFACE DELT TF GYRO  PAD1-AZ GAMMA    COS-GYRO SIN-GYRO XINCL YINCL CAGE    MAG-VECT MSANGB TIME    
  -4.400  -999.25 -999.25 -999.3   -999.25 -999.3 -999.3   -999.3  -999.2500 -999.2500 -999.250 -999.250   -999  -999.2500 -999.25 -999.250
  -4.200  -999.25 50.36  281.1    -3.22   31.8  224.8     119.0  0.5419   0.8073   0.001 -0.001      0  274831.0938 275.62 -999.250
  -4.000  -999.25 46.22  284.3    52.08   31.8  224.9     119.0  0.4948   0.8348   0.001 -0.001      0  274827.0313 282.97 -999.250
  -3.800   0.07  38.65  286.4    -2.38   31.8  224.8      12.5  0.4647   0.8530   0.000 -0.001      0  274828.9375 292.61 0.80000 
  -3.600   0.09  25.27  288.8    -2.90   31.7  224.8      10.0  0.4280   0.8699   0.000 -0.002      0  274824.9063 308.37 0.60000 
  -3.400   0.17  51.02  291.7    1.81    31.6  224.9      25.0  0.3824   0.8882   0.001 -0.003      0  274823.1875 285.59 0.60000 
  -3.200   0.11  341.91 289.9    -1.12   31.6  224.8      12.0  0.4103   0.8757   -0.001 -0.002      0  274826.0625 352.78 0.50000 
  -3.000   0.18  27.83  291.0    1.56    31.6  224.9      25.0  0.3932   0.8837   0.000 -0.003      0  274823.7500 308.07 0.40000 
  -2.800   0.12  314.94 289.5    -5.69   31.7  224.8       6.0  0.4174   0.8734   -0.002 -0.001      0  274827.9688 19.28  0.50000 
  -2.600   0.14  75.09  295.1    -1.41   31.7  224.9       4.0  0.3289   0.9110   0.002 -0.002      0  274830.3750 264.95 0.50000 
  -2.400   0.14  26.86  296.6    0.61    31.8  224.9      13.3  0.3076   0.9225   0.000 -0.002      0  274831.8438 314.56 0.30000 
  -2.200   0.12  321.98 295.9    -4.50   31.8  224.8      15.0  0.3175   0.9195   -0.002 -0.001      0  274831.8438 18.73  0.40000 
  -2.000   0.17  31.56  300.4    -1.77   31.8  224.9      33.3  0.2444   0.9416   0.000 -0.003      0  274833.7500 313.77 0.30000 
  -1.800   0.17  38.67  302.2    1.09    31.7  224.9      40.0  0.2148   0.9467   0.000 -0.003      0  274833.7500 308.43 0.30000 
  -1.600   0.13  342.50 301.1    -3.03   31.7  224.8      33.3  0.2326   0.9418   -0.002 -0.002      0  274831.8125  3.41  0.30000 
  -1.400   0.13  35.60  304.2    -2.19   31.6  224.9      50.0  0.1819   0.9497   0.000 -0.002      0  274831.8125 313.42 0.30000 
  -1.200   0.17  66.62  306.3    2.10    31.6  224.9      76.7  0.1459   0.9583   0.002 -0.003      0  274827.9688 284.63 0.30000 
  -1.000   0.13  13.97  304.2    2.08    31.6  224.8      53.3  0.1806   0.9510   -0.001 -0.002      0  274826.0625 335.10 0.30000 
  -0.800   0.10  13.80  302.2    0.45    31.6  224.8      33.3  0.2146   0.9418   -0.001 -0.002      0  274824.1250 333.18 0.30000 
  -0.600   0.09  21.67  301.7    -1.89   31.5  224.8      66.7  0.2220   0.9401   -0.000 -0.002      0  274826.0625 324.87 0.30000 
  -0.400   0.08  30.46  303.6    -3.27   31.6  224.8      53.3  0.1911   0.9479   -0.000 -0.001      0  274826.0625 317.97 0.30000 
  -0.200   0.12  38.44  306.9    -2.13   31.6  224.9      86.7  0.1370   0.9588   0.000 -0.002      0  274829.9063 313.29 0.30000 
   0.000   0.10  30.27  309.0    -3.05   31.7  224.8     102.5  0.1016   0.9665   -0.000 -0.002      0  274829.9063 323.56 0.40000 
   0.200   0.09  44.22  312.0    -3.36   31.7  224.8      83.3  0.0502   0.9728   0.000 -0.002      0  274829.8750 312.66 0.30000 
   0.400   0.14  63.33  315.4    0.34    31.8  224.9     136.7  -0.0069  0.9758   0.001 -0.002      0  274822.2188 296.96 0.30000 
   0.600   0.13  47.64  315.1    2.11    31.7  224.9     110.0  -0.0011  0.9740   0.000 -0.002      0  274826.0625 312.28 0.30000 
   0.800   0.09  349.98 313.0    -2.02   31.7  224.8      93.3  0.0348   0.9735   -0.001 -0.001      0  274826.0625  7.75  0.30000 
   1.000   0.07  10.15  315.0    -4.89   31.7  224.8      93.3  0.0005   0.9720   -0.001 -0.001      0  274826.0313 349.62 0.30000 
   1.200   0.11  68.07  319.9    -3.94   31.6  224.9      50.0  -0.0822  0.9657   0.001 -0.002      0  274829.8750 296.66 0.30000 
   1.400   0.14  64.71  323.8    0.21    31.6  224.9      75.0  -0.1481  0.9560   0.000 -0.002      0  274829.8750 303.97 0.20000 
   1.600   0.13  56.18  323.6    2.72    31.6  224.9      90.0  -0.1449  0.9584   0.000 -0.002      0  274831.8125 312.28 0.30000 
   1.800   0.07  16.33  320.9    -0.84   31.5  224.8      53.3  -0.0990  0.9619   -0.001 -0.001      0  274831.8438 349.34 0.30000 
   2.000   0.06  331.62 321.7    -6.68   31.6  224.8      33.3  -0.1132  0.9614   -0.001 -0.000      0  274831.8125 34.87  0.30000 
   2.200   0.09  55.33  328.4    -7.48   31.6  224.8      60.0  -0.2239  0.9401   -0.000 -0.002      0  274831.8438 317.90 0.30000 
   2.400   0.22  88.83  335.9    3.61    31.5  224.9      65.0  -0.3441  0.9021   0.002 -0.004      0  274829.8750 291.99 0.20000 
   2.600   0.19  83.90  332.3    10.97   31.5  224.9      73.3  -0.2862  0.9208   0.001 -0.003      0  274829.8750 293.28 0.30000 
   2.800   0.07  322.32 321.3    3.93    31.5  224.8      40.0  -0.1060  0.9603   -0.001 -0.000      0  274831.8125 43.73  0.30000 
   3.000   0.04  13.30  317.4    -0.79   31.5  224.8      46.7  -0.0400  0.9673   -0.000 -0.001      0  274831.8125 348.86 0.30000 
   3.200   0.08  32.91  318.2    -3.68   31.6  224.8      76.7  -0.0534  0.9675   -0.000 -0.001      0  274829.8750 330.06 0.30000 
   3.400   0.10  25.87  321.8    -2.40   31.6  224.8      30.0  -0.1152  0.9611   -0.001 -0.002      0  274831.8125 340.78 0.20000 
   3.600   0.20  80.23  324.2    4.52    31.5  224.9      53.3  -0.1552  0.9545   0.002 -0.003      0  274831.8125 288.93 0.30000 
   3.800   0.09  80.88  319.7    4.05    31.5  224.9      13.3  -0.0794  0.9629   0.001 -0.001      0  274831.8125 283.69 0.30000 
   4.000   0.16  292.49 315.7    -5.99   31.6  224.7      60.0  -0.0112  0.9690   -0.003 0.001      0  274829.8750 67.86  0.30000 
   4.200   0.13  303.35 321.7    -11.60  31.6  224.7     105.0  -0.1121  0.9608   -0.002 0.001      0  274828.9375 63.01  0.20000 
   4.400   0.11  69.15  333.3    -9.77   31.6  224.9      40.0  -0.3026  0.9174   0.000 -0.002      0  274828.9063 308.96 0.30000 
   4.600   0.39  109.81 343.0    0.43    31.6  225.1      30.0  -0.4536  0.8523   0.004 -0.005      0  274834.6875 278.28 0.20000 
   4.800   0.46  109.31 342.6    10.29   31.5  225.1      45.0  -0.4460  0.8533   0.005 -0.006      0  274828.9063 278.40 0.20000 
   5.000   0.11  77.30  332.3    8.08    31.4  224.9      40.0  -0.2858  0.9170   0.000 -0.002      0  274828.9375 299.86 0.20000 
   5.200   0.25   0.49  324.2    2.69    31.4  224.8      35.0  -0.1545  0.9507   -0.004 -0.003      0  274831.8125  8.51  0.20000 
   5.400   0.25  292.81 321.5    -4.26   31.4  224.6      45.0  -0.1098  0.9577   -0.004 0.002      0  274828.9375 73.35  0.20000 
   5.600   0.05  15.50  325.8    -5.59   31.5  224.8      40.0  -0.1809  0.9484   -0.001 -0.001      0  274831.8125 355.09 0.10000 
   5.800   0.19  90.22  331.4    -4.21   31.6  224.9      60.0  -0.2730  0.9280   0.002 -0.003      0  274826.0313 286.09 0.20000 
   6.000   0.16  82.70  335.6    -3.25   31.6  224.9      70.0  -0.3410  0.9070   0.001 -0.003      0  274831.8125 297.80 0.20000 
   6.200   0.13  89.01  338.9    -0.75   31.6  224.9      40.0  -0.3910  0.8844   0.001 -0.002      0  274826.0625 294.71 0.10000 
   6.400   0.13  78.33  339.6    0.57    31.6  224.9      60.0  -0.4024  0.8788   0.000 -0.002      0  274820.2813 306.13 0.20000 
   6.600   0.10  86.74  339.0    1.54    31.6  224.9      85.0  -0.3940  0.8836   0.001 -0.002      0  274828.9375 297.14 0.20000 
   6.800   0.19  93.09  337.5    4.57    31.6  224.9     100.0  -0.3699  0.8935   0.001 -0.003      0  274820.2813 289.31 0.10000 
   7.000   0.23  93.16  332.9    9.12    31.6  224.9      65.0  -0.2981  0.9217   0.002 -0.003      0  274826.0625 284.70 0.20000 
   7.200   0.08  74.01  323.8    6.76    31.6  224.8    -999.3  -0.1481  0.9571   0.000 -0.001      0  274826.0625 294.62 0.10000 
   7.400   0.08  338.74 317.0    4.29    31.5  224.8      70.0  -0.0344  0.9671   -0.001 -0.001      0  274820.2813 23.06  0.20000 
   7.600   0.10  276.02 312.7    0.62    31.7  224.7      60.0  0.0382   0.9713   -0.001 0.001      0  274823.1875 81.45  0.20000 
