~Version Information
 VERS.                2.0:  CWLS LOG ASCII STANDARD -VERSION 2.0
 WRAP.                 NO:  ONE LINE PER DEPTH STEP
~WELL INFORMATION BLOCK
#MNEM.UNIT       DATA		            DESCRIPTION OF MNEMONIC
#---------    -------------            ------------------------
 STRT.FT  -4.400                         :START DEPTH
 STOP.FT  1314.600                       :STOP DEPTH
 STEP.FT  0.200                          :STEP    UP_HOLE  
 NULL.    -999.25                        :NULL VALUE
 COMP.    USGS                           :COMPANY
 WELL.    USGS 145                                                     :WELL
 FLD .    INL                            :FIELD\LOCATION
 LOC .                                   :LOCATION
 CNTY.    BUTTE                          :COUNTY
 STAT.    IDAHO                          :STATE
 CTRY.    USA                            :COUNTRY
 SRVC.    USGS                           :SERVICE COMPANY
 DATE.    07/16/2018                     :LOG DATE
 API .   CAL. 2017                           :API NUMBER
 LIC .    USGS                           :LICENSE NUMBER
~Curve Information Block
#MNEM.UNIT      API CODE     Curve Description
#---------    -------------  ------------------------
 DEPT     .FT        00 001 00 00          :  1  DEPTH   
 SANG     .DEG       00 620 00 00          :  2  SAMPLE SLANT ANGLE  
 SANGB    .DEG       00 631 00 00          :  3  SAMPLE ANG BEARING  
 TOOLFACE .DEG       00 000 00 00          :  4  TOOLFACE            
 DELT TF  .DEG       00 000 00 00          :  5  DELT TF             
 GYRO     .VOLTS     00 000 00 00          :  6  GYRO                
 PAD1-AZ  .DEG       00 632 00 00          :  7  SAMPLE PAD 1 AZIM   
 GAMMA    .CPS       00 310 00 00          :  8  GAMMA RAY           
 COS-GYRO .AMPL      00 000 00 00          :  9  COS-GYRO            
 SIN-GYRO .AMPL      00 000 00 00          : 10  SIN-GYRO            
 XINCL    .AMPL      00 000 00 00          : 11  XINCL               
 YINCL    .AMPL      00 000 00 00          : 12  YINCL               
 CAGE     .VOLTS     00 000 00 00          : 13  CAGE                
 MAG-VECT .AMPL      00 000 00 00          : 14  MAG-VECT            
 MSANGB   .DEG       00 000 00 00          : 15  MSANGB              
 TIME     .MINUTES   00 000 00 00          : 16  TIME                
~Parameter Information Block
#MNEM.UNIT   Information     Description
#---------- ---------------  ------------------------
 FILE.      PROCESSED          :File Type
 FIID.      9095C              :File Type Identifier
 VERS.      3.60E              :System Version
 SER .      1                  :System Serial Number
 TRUK.      0.25               :Truck Calibration Number
 TOOL.        1203             :Tool Serial Number
 TIME.      1600               :Time    HrHrMinMin
 LAT .                         :Latitude
 LON .                         :Longitude
 LMF .      LSD                :Log Measured From
 DMF .      LSD                :Driller Measured From
 PD  .                         :Permanent Data
 PDEV.                         :Elevation Permanent Data
 EKB .M                        :Elevation Kelly Bushing
 ELEV.DF                       :Elevation DF
 EGL .M                        :Elevation Ground Level
 DRDP.      1368               :Driller's Depth
 CASD.      10.                :Casing Diameter
 CASB.      1328               :Casing Bottom
 CASX.      SURFACE            :Casing Type
 CAST.      .25                :Casing Thickness
 TNOC.                         :Time Circulation Stopped
 LOGU.      USGS               :Logging Unit
 RECB.      MJG                :Recorded By
 OSR1.      0024               :Other Services
 OSR2.       9057              :Other Services
 OSR3.                         :Other Services
 BS  .IN         3.9           :Bit Size
 MST .      SH                 :Mean Surface Temperature
 TGRD.                         :Temperature Gradiant
 MAGN.      0                  :Magnetic Declination
 MDEN.      2.65               :Density Matrix
 MATR.      SANDSTONE          :Neutron Matrix
 DTMT.      54                 :Delta T Matrix
 DTFL.                         :Delta T Fluid
 MUDS.      FLOW LINE          :Mud Sample Source
 MRS .      .179               :Mud Resistivity
 MTP .      68.5               :Mud Temperature
 MFRS.                         :Resistivity Mud Filtrate
 MFTP.                         :Temperature Mud Filtrate
 MCRS.                         :Resistivity Mud Cake
 MCTP.                         :Temperature Mud Cake
 FTYP.      AIR                :Fluid Type
 FD  .LB/G    NA               :Mud Weight
 DFV .S                        :Fluid Viscosity
 FPH .                         :Fuild PH
 ELCO.      99999              :Electron Cutoff
 CASL.      3.5                :Casing Logger
 LOTD.      1328               :Logger TD
 ARTM.      12:20              :Arrival Time
 DPTM.                         :Departure Time
 RIGN.                         :Rig Number
~Other Information
#MNEM.UNIT  Information      Description
#---------- ---------------  ------------------------
# -------------------------- 
~A DEPTH  SANG   SANGB  TOOLFACE DELT TF GYRO  PAD1-AZ GAMMA    COS-GYRO SIN-GYRO XINCL YINCL CAGE    MAG-VECT MSANGB TIME    
# ...
  81.800   0.27  40.55  348.1    -3.60   31.4  224.8      20.0  -0.5242  0.8027   -0.003 -0.004      0  274831.8438 352.41 0.20000 
  82.000   0.43  29.69  351.7    -4.71   31.4  224.8      40.0  -0.5742  0.7691   -0.006 -0.005      0  274823.1875  6.80  0.20000 
  82.200   0.18  27.50  356.5    -2.65   31.5  224.8      20.0  -0.6365  0.7205   -0.003 -0.002      0  274823.1563 13.72  0.10000 
  82.400   0.11  14.79  359.1    358.12  31.5  224.8      25.0  -0.6691  0.6903   -0.002 -0.001      0  274826.0313 29.07  0.20000 
  82.600   0.44  30.51   1.0     -1.77   31.5  224.7      25.0  -0.6923  0.6688   -0.007 -0.004      0  274828.9375 15.19  0.20000 
  82.800   0.26  46.72   2.8     -1.68   31.5  224.8      80.0  -0.7118  0.6464   -0.003 -0.003      0  274831.8125  0.82  0.10000 
  83.000   0.37  32.07   4.4     -2.32   31.5  224.7      35.0  -0.7300  0.6249   -0.006 -0.003      0  274828.9375 17.08  0.20000 
  83.200   0.31  29.70   6.8     -1.68   31.4  224.7      20.0  -0.7542  0.5944   -0.005 -0.002      0  274826.0625 21.77  0.10000 
  83.400   0.28  47.73   8.4     -1.53   31.4  224.8      20.0  -0.7717  0.5723   -0.004 -0.003      0  274826.0313  5.48  0.20000 
  83.600   0.33  35.88  10.0     -2.16   31.5  224.7      35.0  -0.7875  0.5520   -0.005 -0.003      0  274831.8125 18.80  0.20000 
  83.800   0.45  23.60  12.1     -1.56   31.5  224.6      40.0  -0.8076  0.5219   -0.008 -0.002      0  274828.9375 33.14  0.10000 
  84.000   0.31  20.80  13.7     -1.30   31.4  224.7      40.0  -0.8205  0.4991   -0.005 -0.001      0  274820.2813 37.55  0.20000 
  84.200   0.30  21.63  15.0     -0.92   31.4  224.7      50.0  -0.8301  0.4794   -0.005 -0.001      0  274823.1875 38.03  0.20000 
  84.400   0.29  17.24  15.9     -0.48   31.4  224.6      80.0  -0.8382  0.4663   -0.005 -0.000      0  274831.8438 43.32  0.10000 
  84.600   0.29  12.96  16.4     0.10    31.4  224.6      35.0  -0.8431  0.4599   -0.005 0.000      0  274831.8125 48.07  0.20000 
  84.800   0.48  13.75  16.3     0.51    31.5  224.5      10.0  -0.8447  0.4627   -0.008 0.000      0  274831.8125 47.08  0.10000 
  85.000   0.28  20.43  15.8     0.82    31.5  224.7      40.0  -0.8413  0.4707   -0.005 -0.000      0  274820.2813 40.01  0.20000 
  85.200   0.32   6.93  15.0     1.22    31.6  224.6      25.0  -0.8357  0.4833   -0.006 0.001      0  274826.0313 52.64  0.20000 
  85.400   0.26   7.33  13.7     0.71    31.6  224.6      40.0  -0.8252  0.5010   -0.005 0.001      0  274831.8125 51.05  0.10000 
  85.600   0.41   0.37  13.0     0.11    31.6  224.5      50.0  -0.8189  0.5112   -0.007 0.002      0  274837.5938 57.20  0.20000 
  85.800   0.39  13.90  12.9     -0.72   31.6  224.6      45.0  -0.8171  0.5122   -0.007 -0.000      0  274826.0625 43.62  0.20000 
  86.000   0.28  28.32  13.6     -1.74   31.5  224.7     110.0  -0.8224  0.5011   -0.005 -0.001      0  274820.2813 30.01  0.10000 
  86.200   0.29  18.31  15.4     -3.13   31.5  224.7      25.0  -0.8363  0.4754   -0.005 -0.000      0  274823.1563 41.73  0.20000 
  86.400   0.39  15.34  18.5     -2.72   31.4  224.6      60.0  -0.8602  0.4287   -0.007 0.000      0  274828.9063 47.76  0.10000 
  86.600   0.20  37.32  21.2     -2.60   31.4  224.7      70.0  -0.8791  0.3872   -0.003 -0.001      0  274820.2813 28.63  0.20000 
  86.800   0.30  15.92  23.8     -2.55   31.4  224.6      25.0  -0.8957  0.3469   -0.005 0.001      0  274826.0313 52.54  0.20000 
  87.000   0.36  14.54  26.4     -2.53   31.4  224.6      40.0  -0.9117  0.3071   -0.006 0.001      0  274826.0313 56.43  0.10000 
  87.200   0.33  18.37  28.9     -3.19   31.4  224.6      15.0  -0.9254  0.2669   -0.006 0.001      0  274828.9375 55.14  0.20000 
  87.400   0.30   6.80  32.1     -1.88   31.5  224.6      30.0  -0.9394  0.2151   -0.005 0.002      0  274831.8125 69.90  0.10000 
  87.600   0.32  16.54  34.0     -1.44   31.5  224.6      60.0  -0.9478  0.1844   -0.005 0.002      0  274831.8125 62.04  0.20000 
  87.800   0.37  14.12  35.4     -1.21   31.4  224.6      30.0  -0.9499  0.1601   -0.006 0.002      0  274823.1563 65.87  0.20000 
  88.000   0.31   1.24  36.6     -0.21   31.5  224.6      30.0  -0.9551  0.1403   -0.004 0.003      0  274828.9063 79.98  0.10000 
  88.200   0.32   2.72  36.9     0.29    31.5  224.6      50.0  -0.9560  0.1368   -0.005 0.003      0  274826.0313 78.71  0.20000 
  88.400   0.36   9.66  36.6     0.43    31.5  224.5      55.0  -0.9550  0.1415   -0.006 0.003      0  274828.9063 71.46  0.20000 
  88.600   0.31  15.03  36.1     0.17    31.5  224.6      30.0  -0.9531  0.1487   -0.005 0.002      0  274820.2813 65.70  0.10000 
  88.800   0.35  11.39  36.0     -0.50   31.4  224.6      55.0  -0.9508  0.1511   -0.006 0.003      0  274826.0313 69.14  0.20000 
  89.000   0.31   6.83  36.5     -1.21   31.4  224.6      60.0  -0.9519  0.1428   -0.005 0.003      0  274831.8125 74.21  0.10000 
  89.200   0.32   6.29  37.7     -2.14   31.4  224.6      20.0  -0.9534  0.1226   -0.005 0.003      0  274831.8438 75.95  0.20000 
  89.400   0.37  18.50  39.8     -4.46   31.3  224.6      25.0  -0.9565  0.0869   -0.006 0.002      0  274820.2813 65.87  0.20000 
  89.600   0.35  40.12  44.3     -4.29   31.4  224.6      10.0  -0.9623  0.0122   -0.006 0.000      0  274826.0313 48.75  0.10000 
  89.800   0.27  10.12  48.6     -4.65   31.5  224.6      60.0  -0.9632  -0.0599  -0.004 0.003      0  274826.0313 83.04  0.20000 
  90.000   0.35   8.23  53.2     -4.65   31.5  224.5      35.0  -0.9566  -0.1380  -0.004 0.004      0  274826.0313 89.52  0.20000 
  90.200   0.33   1.41  57.9     -4.38   31.6  224.6      10.0  -0.9436  -0.2154  -0.003 0.005      0  274820.2813 101.01 0.10000 
  90.400   0.29  359.23 62.2     -5.24   31.6  224.6      60.0  -0.9253  -0.2870  -0.002 0.005      0  274828.9375 107.60 0.20000 
  90.600   0.34  13.85  67.5     -3.33   31.6  224.6      40.0  -0.8941  -0.3699  -0.004 0.005      0  274823.1563 98.18  0.10000 
  90.800   0.29  357.61 70.8     -2.91   31.6  224.6      20.0  -0.8716  -0.4215  -0.001 0.005      0  274820.2813 117.81 0.20000 
  91.000   0.31  358.94 73.7     -3.30   31.7  224.6      25.0  -0.8485  -0.4649  -0.001 0.005      0  274826.0313 119.38 0.20000 
  91.200   0.37  16.99  77.0     -1.93   31.7  224.5      10.0  -0.8204  -0.5130  -0.003 0.006      0  274823.1563 104.57 0.10000 
  91.400   0.34  356.51 78.9     -1.26   31.7  224.6      45.0  -0.8027  -0.5404  -0.001 0.006      0  274820.2813 127.03 0.20000 
  91.600   0.31  356.90 80.2     -0.77   31.6  224.6      30.0  -0.7882  -0.5562  -0.001 0.005      0  274828.9375 127.92 0.20000 
  91.800   0.34   1.20  81.0     -0.33   31.7  224.6      70.0  -0.7826  -0.5680  -0.001 0.006      0  274820.2813 124.37 0.10000 
  92.000   0.32   0.88  81.3     -0.04   31.7  224.6      45.0  -0.7787  -0.5722  -0.001 0.005      0  274820.2813 125.04 0.20000 
  92.200   0.32   0.09  81.3     0.10    31.6  224.6      20.0  -0.7777  -0.5722  -0.001 0.006      0  274823.1563 125.86 0.10000 
  92.400   0.35   1.23  81.2     0.17    31.7  224.6      30.0  -0.7795  -0.5713  -0.001 0.006      0  274831.8438 124.59 0.20000 
  92.600   0.34   4.88  81.1     -0.01   31.6  224.6      60.0  -0.7808  -0.5688  -0.001 0.006      0  274828.9063 120.78 0.20000 
  92.800   0.28  10.39  81.1     -0.31   31.7  224.6      70.0  -0.7829  -0.5707  -0.002 0.005      0  274820.2813 115.30 0.10000 
  93.000   0.36   7.52  81.4     -0.97   31.6  224.6     105.0  -0.7776  -0.5733  -0.002 0.006      0  274823.1563 118.44 0.20000 
  93.200   0.33   5.00  82.4     -1.05   31.6  224.6      40.0  -0.7674  -0.5862  -0.001 0.006      0  274826.0625 121.96 0.10000 
  93.400   0.33   4.15  83.4     -1.41   31.5  224.6      35.0  -0.7536  -0.5979  -0.001 0.006      0  274820.2813 123.88 0.19900 
  93.600   0.35   6.89  84.8     -2.35   31.6  224.6      35.0  -0.7411  -0.6183  -0.001 0.006      0  274828.9375 122.53 0.20000 
  93.800   0.36   0.47  87.2     -2.03   31.5  224.6      10.0  -0.7124  -0.6457  -0.000 0.006      0  274823.1563 131.32 0.10000 
