~Version Information
 VERS.                2.0:  CWLS LOG ASCII STANDARD -VERSION 2.0
 WRAP.                 NO:  ONE LINE PER DEPTH STEP
~WELL INFORMATION BLOCK
#MNEM.UNIT       DATA		            DESCRIPTION OF MNEMONIC
#---------    -------------            ------------------------
 STRT.FT  -4.400                         :START DEPTH
 STOP.FT  1314.600                       :STOP DEPTH
 STEP.FT  0.200                          :STEP    UP_HOLE  
 NULL.    -999.25                        :NULL VALUE
 COMP.    USGS                           :COMPANY
 WELL.    USGS 145                                                     :WELL
 FLD .    INL                            :FIELD\LOCATION
 LOC .                                   :LOCATION
 CNTY.    BUTTE                          :COUNTY
 STAT.    IDAHO                          :STATE
 CTRY.    USA                            :COUNTRY
 SRVC.    USGS                           :SERVICE COMPANY
 DATE.    07/16/2018                     :LOG DATE
 API .   CAL. 2017                           :API NUMBER
 LIC .    USGS                           :LICENSE NUMBER
~Curve Information Block
#MNEM.UNIT      API CODE     Curve Description
#---------    -------------  ------------------------
 DEPT     .FT        00 001 00 00          :  1  DEPTH   
 SANG     .DEG       00 620 00 00          :  2  SAMPLE SLANT ANGLE  
 SANGB    .DEG       00 631 00 00          :  3  SAMPLE ANG BEARING  
 TOOLFACE .DEG       00 000 00 00          :  4  TOOLFACE            
 DELT TF  .DEG       00 000 00 00          :  5  DELT TF             
 GYRO     .VOLTS     00 000 00 00          :  6  GYRO                
 PAD1-AZ  .DEG       00 632 00 00          :  7  SAMPLE PAD 1 AZIM   
 GAMMA    .CPS       00 310 00 00          :  8  GAMMA RAY           
 COS-GYRO .AMPL      00 000 00 00          :  9  COS-GYRO            
 SIN-GYRO .AMPL      00 000 00 00          : 10  SIN-GYRO            
 XINCL    .AMPL      00 000 00 00          : 11  XINCL               
 YINCL    .AMPL      00 000 00 00          : 12  YINCL               
 CAGE     .VOLTS     00 000 00 00          : 13  CAGE                
 MAG-VECT .AMPL      00 000 00 00          : 14  MAG-VECT            
 MSANGB   .DEG       00 000 00 00          : 15  MSANGB              
 TIME     .MINUTES   00 000 00 00          : 16  TIME                
~Parameter Information Block
#MNEM.UNIT   Information     Description
#---------- ---------------  ------------------------
 FILE.      PROCESSED          :File Type
 FIID.      9095C              :File Type Identifier
 VERS.      3.60E              :System Version
 SER .      1                  :System Serial Number
 TRUK.      0.25               :Truck Calibration Number
 TOOL.        1203             :Tool Serial Number
 TIME.      1600               :Time    HrHrMinMin
 LAT .                         :Latitude
 LON .                         :Longitude
 LMF .      LSD                :Log Measured From
 DMF .      LSD                :Driller Measured From
 PD  .                         :Permanent Data
 PDEV.                         :Elevation Permanent Data
 EKB .M                        :Elevation Kelly Bushing
 ELEV.DF                       :Elevation DF
 EGL .M                        :Elevation Ground Level
 DRDP.      1368               :Driller's Depth
 CASD.      10.                :Casing Diameter
 CASB.      1328               :Casing Bottom
 CASX.      SURFACE            :Casing Type
 CAST.      .25                :Casing Thickness
 TNOC.                         :Time Circulation Stopped
 LOGU.      USGS               :Logging Unit
 RECB.      MJG                :Recorded By
 OSR1.      0024               :Other Services
 OSR2.       9057              :Other Services
 OSR3.                         :Other Services
 BS  .IN         3.9           :Bit Size
 MST .      SH                 :Mean Surface Temperature
 TGRD.                         :Temperature Gradiant
 MAGN.      0                  :Magnetic Declination
 MDEN.      2.65               :Density Matrix
 MATR.      SANDSTONE          :Neutron Matrix
 DTMT.      54                 :Delta T Matrix
 DTFL.                         :Delta T Fluid
 MUDS.      FLOW LINE          :Mud Sample Source
 MRS .      .179               :Mud Resistivity
 MTP .      68.5               :Mud Temperature
 MFRS.                         :Resistivity Mud Filtrate
 MFTP.                         :Temperature Mud Filtrate
 MCRS.                         :Resistivity Mud Cake
 MCTP.                         :Temperature Mud Cake
 FTYP.      AIR                :Fluid Type
 FD  .LB/G    NA               :Mud Weight
 DFV .S                        :Fluid Viscosity
 FPH .                         :Fuild PH
 ELCO.      99999              :Electron Cutoff
 CASL.      3.5                :Casing Logger
 LOTD.      1328               :Logger TD
 ARTM.      12:20              :Arrival Time
 DPTM.                         :Departure Time
 RIGN.                         :Rig Number
~Other Information
#MNEM.UNIT  Information      Description
#---------- ---------------  ------------------------
# -------------------------- 
~A DEPTH  SANG   SANGB  TOOLFACE DELT TF GYRO  PAD1-AZ GAMMA    COS-GYRO SIN-GYRO XINCL YINCL CAGE    MAG-VECT MSANGB TIME    
# ...
 341.600   0.57  56.68  208.3    -0.80   31.4  224.9      20.0  0.9186   -0.2762  0.009 0.005      0  274828.9375 196.49 0.10000 
 341.800   0.61  57.19  209.1    -0.99   31.4  224.9      15.0  0.9214   -0.2630  0.009 0.005      0  274826.0938 196.79 0.20000 
 342.000   0.57  57.58  210.1    -1.32   31.4  224.9      25.0  0.9260   -0.2471  0.009 0.005      0  274826.0313 197.39 0.20000 
 342.200   0.56  60.73  211.4    -1.20   31.4  224.9    -999.3  0.9321   -0.2259  0.009 0.005      0  274828.9375 195.54 0.10000 
 342.400   0.59  57.63  212.6    -0.97   31.4  224.9      20.0  0.9369   -0.2064  0.009 0.004      0  274820.2813 199.87 0.20000 
 342.600   0.57  60.35  213.5    -1.62   31.4  224.9      50.0  0.9406   -0.1907  0.009 0.004      0  274820.2813 198.10 0.20000 
 342.800   0.57  56.08  215.2    -1.69   31.4  225.0      50.0  0.9446   -0.1638  0.009 0.004      0  274826.0625 204.04 0.10000 
 343.000   0.52  58.02  216.9    -1.48   31.4  224.9       5.0  0.9499   -0.1360  0.009 0.003      0  274828.9375 203.78 0.20000 
 343.200   0.65  55.61  218.3    -1.12   31.4  225.0      45.0  0.9527   -0.1114  0.011 0.003      0  274831.8438 207.72 0.20000 
 343.400   0.59  59.45  219.5    -1.62   31.4  225.0      60.0  0.9551   -0.0928  0.010 0.004      0  274820.2813 204.97 0.20000 
 343.600   0.59  56.15  221.1    -1.15   31.4  225.0      90.0  0.9578   -0.0657  0.010 0.003      0  274820.2813 209.92 0.10000 
 343.800   0.55  58.90  222.2    -0.88   31.4  225.0     100.0  0.9572   -0.0464  0.009 0.003      0  274828.9375 208.30 0.20000 
 344.000   0.62  56.61  223.1    -0.41   31.4  225.0     150.0  0.9579   -0.0316  0.011 0.003      0  274831.8438 211.52 0.20000 
 344.200   0.58  56.32  223.5    -0.67   31.4  225.0     135.0  0.9591   -0.0247  0.010 0.002      0  274828.9375 212.21 0.20000 
 344.400   0.60  54.26  224.2    -0.17   31.4  225.0     180.0  0.9615   -0.0135  0.010 0.002      0  274826.0625 214.97 0.10000 
 344.600   0.52  59.70  224.4    -0.22   31.5  225.0      60.0  0.9646   -0.0106  0.009 0.002      0  274820.2813 209.64 0.20000 
 344.800   0.59  58.06  224.6    -0.05   31.5  225.0     115.0  0.9626   -0.0069  0.010 0.002      0  274828.9375 211.54 0.20000 
 345.000   0.57  56.45  224.6    -0.21   31.5  225.0     110.0  0.9626   -0.0060  0.010 0.002      0  274828.9375 213.20 0.10000 
 345.200   0.63  55.55  224.9    -0.03   31.6  225.0      60.0  0.9671   -0.0025  0.011 0.002      0  274823.1875 214.35 0.20000 
 345.400   0.52  50.34  224.9    -0.17   31.6  225.0      95.0  0.9652   -0.0019  0.009 0.001      0  274826.0313 219.57 0.20000 
 345.600   0.62  61.59  225.1    -0.23   31.6  225.0     145.0  0.9665   0.0010   0.010 0.003      0  274826.0625 208.47 0.20000 
 345.800   0.55  58.42  225.3    -0.22   31.5  225.0     100.0  0.9649   0.0049   0.009 0.002      0  274828.9063 211.86 0.10000 
 346.000   0.62  52.70  225.5    0.10    31.6  225.1     140.0  0.9657   0.0086   0.011 0.001      0  274831.8125 217.87 0.20000 
 346.200   0.61  54.55  225.4    -0.01   31.5  225.0      95.0  0.9646   0.0069   0.011 0.002      0  274831.8125 215.91 0.20000 
 346.400   0.62  57.12  225.4    0.14    31.5  225.0     105.0  0.9639   0.0071   0.011 0.002      0  274826.0625 213.33 0.20000 
 346.600   0.53  57.97  225.3    0.13    31.5  225.0      80.0  0.9623   0.0047   0.009 0.002      0  274823.1563 212.30 0.10000 
 346.800   0.72  57.47  225.1    0.21    31.5  225.1      90.0  0.9615   0.0025   0.012 0.003      0  274831.8438 212.74 0.20000 
 347.000   0.57  52.28  224.9    0.32    31.4  225.0     155.0  0.9615   -0.0010  0.010 0.001      0  274828.9063 217.70 0.20000 
 347.200   0.58  55.10  224.6    0.24    31.4  225.0     100.0  0.9611   -0.0064  0.010 0.002      0  274828.9063 214.54 0.10000 
 347.400   0.68  55.96  224.4    0.12    31.5  225.1     130.0  0.9636   -0.0106  0.012 0.002      0  274826.0313 213.47 0.20000 
 347.600   0.57  63.15  224.3    -0.21   31.5  225.0     130.0  0.9634   -0.0126  0.009 0.003      0  274820.2813 206.06 0.20000 
 347.800   0.65  59.18  224.5    -0.46   31.5  225.0     165.0  0.9632   -0.0090  0.011 0.003      0  274826.0625 210.31 0.20000 
 348.000   0.61  59.05  224.9    -0.60   31.5  225.0     160.0  0.9624   -0.0013  0.010 0.003      0  274826.0625 210.89 0.10000 
 348.200   0.62  56.42  225.5    -0.56   31.5  225.0     145.0  0.9625   0.0088   0.011 0.002      0  274828.9375 214.14 0.20000 
 348.400   0.59  58.63  226.1    -0.81   31.5  225.0     130.0  0.9616   0.0182   0.010 0.002      0  274837.5938 212.47 0.20000 
 348.600   0.64  57.10  226.9    -1.10   31.5  225.0      55.0  0.9611   0.0318   0.011 0.002      0  274831.8125 214.84 0.20000 
 348.800   0.61  58.74  228.0    -1.11   31.4  225.0      60.0  0.9593   0.0501   0.010 0.002      0  274826.0313 214.29 0.10000 
 349.000   0.64  55.31  229.1    -0.55   31.4  225.1      80.0  0.9569   0.0686   0.011 0.001      0  274826.0625 218.86 0.20000 
 349.200   0.52  52.42  229.7    -0.50   31.4  225.0      95.0  0.9566   0.0779   0.009 0.000      0  274831.8438 222.27 0.20000 
 349.400   0.67  50.28  230.2    -0.22   31.3  225.1      40.0  0.9536   0.0861   0.012 0.000      0  274828.9063 225.01 0.20000 
 349.600   0.61  58.72  230.4    -0.34   31.4  225.1     110.0  0.9540   0.0899   0.011 0.002      0  274826.0313 216.71 0.10000 
 349.800   0.70  61.28  230.7    -0.24   31.4  225.1      65.0  0.9540   0.0956   0.012 0.002      0  274826.0313 214.51 0.20000 
 350.000   0.56  55.17  231.0    -0.29   31.5  225.1     100.0  0.9571   0.0999   0.010 0.001      0  274831.8125 220.83 0.20000 
 350.200   0.66  53.81  231.2    0.07    31.5  225.1      30.0  0.9587   0.1050   0.011 0.001      0  274831.8125 222.55 0.10000 
 350.400   0.66  61.42  231.2    -0.13   31.6  225.1      90.0  0.9608   0.1040   0.011 0.002      0  274823.1563 214.82 0.20000 
 350.600   0.64  58.58  231.3    -0.14   31.6  225.1     100.0  0.9621   0.1063   0.011 0.001      0  274826.0313 217.80 0.20000 
 350.800   0.55  59.99  231.4    -0.37   31.6  225.0      90.0  0.9588   0.1082   0.009 0.001      0  274828.9063 216.47 0.20000 
 351.000   0.62  54.88  231.8    -0.02   31.5  225.1     150.0  0.9569   0.1142   0.011 0.001      0  274831.8125 222.01 0.10000 
 351.200   0.64  55.54  231.8    -0.04   31.6  225.1     130.0  0.9587   0.1148   0.011 0.001      0  274831.8125 221.38 0.20000 
 351.400   0.69  55.28  231.9    0.22    31.5  225.1     155.0  0.9578   0.1154   0.012 0.001      0  274826.0313 221.71 0.20000 
 351.600   0.55  57.66  231.6    -0.15   31.6  225.0     115.0  0.9587   0.1118   0.009 0.001      0  274831.8125 219.03 0.20000 
 351.800   0.67  59.83  231.8    -0.22   31.6  225.1     150.0  0.9585   0.1143   0.012 0.002      0  274828.9375 217.04 0.10000 
 352.000   0.59  62.29  232.0    -0.50   31.6  225.0      85.0  0.9591   0.1181   0.010 0.002      0  274823.1875 214.76 0.20000 
 352.200   0.54  59.40  232.5    -0.34   31.6  225.0     100.0  0.9597   0.1266   0.009 0.001      0  274820.2813 218.14 0.20000 
 352.400   0.54  55.56  232.9    -0.55   31.7  225.0     120.0  0.9593   0.1324   0.009 0.000      0  274826.0625 222.34 0.20000 
 352.600   0.65  58.80  233.4    -0.56   31.7  225.1     120.0  0.9587   0.1416   0.011 0.001      0  274828.9375 219.69 0.10000 
 352.800   0.55  72.89  234.0    -0.95   31.7  225.0     125.0  0.9566   0.1508   0.009 0.003      0  274826.0313 206.03 0.20000 
 353.000   0.58  62.15  234.9    -1.11   31.6  225.0     180.0  0.9525   0.1664   0.010 0.001      0  274828.9063 217.80 0.20000 
 353.200   0.63  51.43  236.0    -0.47   31.6  225.1     100.0  0.9478   0.1846   0.011 -0.001      0  274828.9063 229.73 0.10000 
 353.400   0.64  58.05  236.5    -0.19   31.5  225.1     125.0  0.9437   0.1918   0.011 0.000      0  274831.8125 223.54 0.20000 
 353.600   0.56  58.44  236.7    -0.26   31.6  225.1     185.0  0.9464   0.1957   0.010 0.000      0  274831.8438 223.30 0.20000 
 353.800   0.64  59.22  236.9    -0.47   31.5  225.1     110.0  0.9411   0.1990   0.011 0.000      0  274823.1563 222.82 0.20000 
