~Version Information
 VERS.                2.0:  CWLS LOG ASCII STANDARD -VERSION 2.0
 WRAP.                 NO:  ONE LINE PER DEPTH STEP
~WELL INFORMATION BLOCK
#MNEM.UNIT       DATA		            DESCRIPTION OF MNEMONIC
#---------    -------------            ------------------------
 STRT.FT  -3.600                         :START DEPTH
 STOP.FT  1314.400                       :STOP DEPTH
 STEP.FT  0.200                          :STEP  DOWN_HOLE  
 NULL.    -999.25                        :NULL VALUE
 COMP.    USGS                           :COMPANY
 WELL.    USGS 145                                                     :WELL
 FLD .    INL                            :FIELD\LOCATION
 LOC .                                   :LOCATION
 CNTY.    BUTTE                          :COUNTY
 STAT.    IDAHO                          :STATE
 CTRY.    USA                            :COUNTRY
 SRVC.    USGS                           :SERVICE COMPANY
 DATE.    07/16/2018                     :LOG DATE
 API .   CAL. 2017                           :API NUMBER
 LIC .    USGS                           :LICENSE NUMBER
~Curve Information Block
#MNEM.UNIT      API CODE     Curve Description
#---------    -------------  ------------------------
 DEPT     .FT        00 001 00 00          :  1  DEPTH   
 T DEPTH  .FT        00 960 00 00          :  2  TRUE DEPTH          
 D DIFF   .FT        00 000 00 00          :  3  DEPTH DIFFERENCE    
 N DEV    .FT        00 000 00 00          :  4  NORTH DEVIATION     
 E DEV    .FT        00 000 00 00          :  5  EAST DEVIATION      
 DISTANCE .FT        00 000 00 00          :  6  DEVIATED DISTANCE   
 AZIMUTH  .DEG       00 630 00 00          :  7  DEVIATED AZIMUTH    
 SANG     .DEG       00 620 00 00          :  8  SAMPLE SLANT ANGLE  
 SANGB    .DEG       00 631 00 00          :  9  SAMPLE ANG BEARING  
 TOOLFACE .DEG       00 000 00 00          : 10  TOOLFACE            
 DELT TF  .DEG       00 000 00 00          : 11  DELT TF             
 GYRO     .VOLTS     00 000 00 00          : 12  GYRO                
 PAD1-AZ  .DEG       00 632 00 00          : 13  SAMPLE PAD 1 AZIM   
 GAMMA    .CPS       00 310 00 00          : 14  GAMMA RAY           
 COS-GYRO .AMPL      00 000 00 00          : 15  COS-GYRO            
 SIN-GYRO .AMPL      00 000 00 00          : 16  SIN-GYRO            
 XINCL    .AMPL      00 000 00 00          : 17  XINCL               
 YINCL    .AMPL      00 000 00 00          : 18  YINCL               
 CAGE     .VOLTS     00 000 00 00          : 19  CAGE                
 MAG-VECT .AMPL      00 000 00 00          : 20  MAG-VECT            
 TENSION  .CPS       00 000 00 00          : 21  LINE TENSION        
 TIME     .MINUTES   00 000 00 00          : 22  TIME                
~Parameter Information Block
#MNEM.UNIT   Information     Description
#---------- ---------------  ------------------------
 FILE.      PROCESSED          :File Type
 FIID.      9095C              :File Type Identifier
 VERS.      3.60E              :System Version
 SER .      1                  :System Serial Number
 TRUK.      0.25               :Truck Calibration Number
 TOOL.        1203             :Tool Serial Number
 TIME.      1519               :Time    HrHrMinMin
 LAT .                         :Latitude
 LON .                         :Longitude
 LMF .      LSD                :Log Measured From
 DMF .      LSD                :Driller Measured From
 PD  .                         :Permanent Data
 PDEV.                         :Elevation Permanent Data
 EKB .M                        :Elevation Kelly Bushing
 ELEV.DF                       :Elevation DF
 EGL .M                        :Elevation Ground Level
 DRDP.      1368               :Driller's Depth
 CASD.      10.                :Casing Diameter
 CASB.      1328               :Casing Bottom
 CASX.      SURFACE            :Casing Type
 CAST.      .25                :Casing Thickness
 TNOC.                         :Time Circulation Stopped
 LOGU.      USGS               :Logging Unit
 RECB.      MJG                :Recorded By
 OSR1.      0024               :Other Services
 OSR2.       9057              :Other Services
 OSR3.                         :Other Services
 BS  .IN         3.9           :Bit Size
 MST .      SH                 :Mean Surface Temperature
 TGRD.                         :Temperature Gradiant
 MAGN.        12.500           :Magnetic Declination
 MDEN.      2.65               :Density Matrix
 MATR.      SANDSTONE          :Neutron Matrix
 DTMT.      54                 :Delta T Matrix
 DTFL.                         :Delta T Fluid
 MUDS.      FLOW LINE          :Mud Sample Source
 MRS .      .179               :Mud Resistivity
 MTP .      68.5               :Mud Temperature
 MFRS.                         :Resistivity Mud Filtrate
 MFTP.                         :Temperature Mud Filtrate
 MCRS.                         :Resistivity Mud Cake
 MCTP.                         :Temperature Mud Cake
 FTYP.      AIR                :Fluid Type
 FD  .LB/G    NA               :Mud Weight
 DFV .S                        :Fluid Viscosity
 FPH .                         :Fuild PH
 ELCO.      99999              :Electron Cutoff
 CASL.      3.5                :Casing Logger
 LOTD.      1328               :Logger TD
 ARTM.      12:20              :Arrival Time
 DPTM.                         :Departure Time
 RIGN.                         :Rig Number
~Other Information
#MNEM.UNIT  Information      Description
#---------- ---------------  ------------------------
# -------------------------- 
~A DEPTH  T DEPTH   D DIFF N DEV     E DEV     DISTANCE  AZIMUTH SANG   SANGB  TOOLFACE DELT TF GYRO  PAD1-AZ GAMMA    COS-GYRO SIN-GYRO XINCL YINCL CAGE    MAG-VECT TENSION  TIME    
# ...
 349.000   348.987  -0.0      2.194     1.267     2.533  30.0     0.73  53.70  215.5    -6.81   31.2  225.1      95.0  0.9276   -0.1546  0.013 0.001      0  274843.4063    79.3  0.20000 
 349.200   349.187  -0.0      2.195     1.269     2.535  30.0     0.71  58.06  206.5    -9.05   31.2  225.0     130.0  0.8881   -0.2974  0.012 0.004      0  274846.2813    79.3  0.20000 
 349.400   349.387  -0.0      2.196     1.271     2.537  30.0     0.67  57.03  198.5    -7.99   31.2  224.9     130.0  0.8375   -0.4175  0.010 0.005      0  274837.6563    79.3  0.10000 
 349.600   349.587  -0.0      2.197     1.272     2.539  30.1     0.60  58.92  189.4    -9.08   31.2  224.8     140.0  0.7567   -0.5413  0.008 0.006      0  274843.4063    79.2  0.20000 
 349.800   349.787  -0.0      2.199     1.274     2.541  30.1     0.69  54.05  175.7    -13.72  31.2  224.8     130.0  0.6056   -0.7040  0.008 0.009      0  274846.2813    79.3  0.20000 
 350.000   349.987  -0.0      2.200     1.276     2.543  30.1     0.61  52.20  160.5    -15.24  31.3  224.7     110.0  0.4005   -0.8410  0.005 0.009      0  274846.2813    79.3  0.20000 
 350.200   350.187  -0.0      2.202     1.278     2.545  30.1     0.60  49.07  148.3    -12.15  31.4  224.6      95.0  0.2161   -0.9128  0.004 0.010      0  274837.6563    79.3  0.10000 
 350.400   350.387  -0.0      2.203     1.279     2.547  30.1     0.61  54.77  135.5    -12.80  31.5  224.5      65.0  0.0085   -0.9373  0.000 0.011      0  274840.5313    79.3  0.20000 
 350.600   350.587  -0.0      2.204     1.281     2.549  30.2     0.52  60.64  117.5    -18.05  31.5  224.4     120.0  -0.2824  -0.8935  -0.003 0.008      0  274843.4063    79.3  0.20000 
 350.800   350.787  -0.0      2.205     1.283     2.551  30.2     0.72  70.22  98.3     -19.15  31.5  224.3     110.0  -0.5602  -0.7520  -0.010 0.008      0  274843.4063    79.3  0.20000 
 351.000   350.987  -0.0      2.205     1.285     2.552  30.2     0.63  78.60  84.3     -13.97  31.5  224.4     125.0  -0.7304  -0.5988  -0.010 0.003      0  274843.4063    79.3  0.10000 
 351.200   351.187  -0.0      2.205     1.288     2.554  30.3     0.65  80.37  72.5     -11.80  31.4  224.4     110.0  -0.8372  -0.4367  -0.011 0.001      0  274846.2813    79.3  0.20000 
 351.400   351.387  -0.0      2.206     1.290     2.555  30.3     0.59  76.08  60.9     -11.66  31.4  224.5     230.0  -0.9124  -0.2597  -0.010 -0.001      0  274837.6250    79.3  0.20000 
 351.600   351.587  -0.0      2.207     1.292     2.557  30.3     0.74  66.36  54.1     -6.81   31.4  224.4     120.0  -0.9381  -0.1499  -0.013 -0.000      0  274837.6563    79.3  0.20000 
 351.800   351.787  -0.0      2.208     1.294     2.559  30.4     0.67  55.07  51.9     -2.16   31.4  224.4      85.0  -0.9434  -0.1145  -0.012 0.002      0  274840.5313    79.3  0.20000 
 352.000   351.987  -0.0      2.209     1.295     2.561  30.4     0.47  54.35  52.9     0.96    31.4  224.5     145.0  -0.9418  -0.1304  -0.008 0.001      0  274843.4063    79.3  0.10000 
 352.200   352.187  -0.0      2.210     1.297     2.563  30.4     0.55  53.02  55.7     2.79    31.4  224.5     145.0  -0.9346  -0.1761  -0.009 0.002      0  274840.5000    79.4  0.20000 
 352.400   352.387  -0.0      2.211     1.298     2.564  30.4     0.53  53.76  61.2     5.53    31.5  224.5     190.0  -0.9139  -0.2655  -0.009 0.003      0  274843.4063    79.4  0.20000 
 352.600   352.587  -0.0      2.213     1.300     2.566  30.4     0.62  57.47  68.1     6.92    31.5  224.4     180.0  -0.8744  -0.3732  -0.010 0.004      0  274843.4063    79.4  0.20000 
 352.800   352.787  -0.0      2.213     1.302     2.568  30.5     0.50  62.46  73.7     5.59    31.5  224.5     125.0  -0.8322  -0.4557  -0.008 0.003      0  274837.5938    79.4  0.10000 
 353.000   352.987  -0.0      2.214     1.304     2.569  30.5     0.63  68.89  79.6     5.90    31.5  224.4     130.0  -0.7794  -0.5376  -0.010 0.004      0  274843.4063    79.4  0.20000 
 353.200   353.187  -0.0      2.215     1.306     2.571  30.5     0.63  77.40  87.3     7.70    31.5  224.4     130.0  -0.6988  -0.6358  -0.010 0.004      0  274843.4063    79.3  0.20000 
 353.400   353.387  -0.0      2.215     1.308     2.572  30.6     0.56  84.91  94.5     7.24    31.5  224.4     170.0  -0.6124  -0.7179  -0.009 0.004      0  274840.5313    79.3  0.20000 
 353.600   353.587  -0.0      2.215     1.309     2.573  30.6     0.43  82.08  99.4     4.82    31.5  224.5     135.0  -0.5503  -0.7672  -0.007 0.004      0  274837.6563    79.3  0.10000 
 353.800   353.787  -0.0      2.215     1.311     2.574  30.6     0.58  79.73  102.5    3.15    31.5  224.4      90.0  -0.5067  -0.7953  -0.008 0.006      0  274840.5313    79.4  0.20000 
 354.000   353.987  -0.0      2.216     1.313     2.576  30.6     0.50  75.63  104.3    1.80    31.5  224.4     110.0  -0.4815  -0.8109  -0.007 0.006      0  274840.5313    79.4  0.20000 
 354.200   354.187  -0.0      2.216     1.315     2.577  30.7     0.52  72.88  103.6    -0.73   31.5  224.4     115.0  -0.4915  -0.8042  -0.007 0.006      0  274837.6563    79.4  0.20000 
 354.400   354.387  -0.0      2.217     1.317     2.578  30.7     0.54  69.67  101.0    -2.52   31.4  224.4     150.0  -0.5256  -0.7807  -0.007 0.006      0  274840.5313    79.3  0.20000 
 354.600   354.587  -0.0      2.218     1.318     2.580  30.7     0.59  72.02  98.1     -2.94   31.4  224.4     130.0  -0.5656  -0.7535  -0.008 0.006      0  274849.1563    79.2  0.10000 
 354.800   354.787  -0.0      2.218     1.320     2.582  30.8     0.59  69.28  94.5     -3.60   31.5  224.4     160.0  -0.6124  -0.7172  -0.008 0.006      0  274843.4063    79.2  0.20000 
 355.000   354.987  -0.0      2.219     1.322     2.583  30.8     0.60  76.06  89.5     -5.03   31.5  224.4     130.0  -0.6746  -0.6623  -0.010 0.004      0  274843.4063    79.0  0.19900 
 355.200   355.187  -0.0      2.220     1.325     2.585  30.8     0.64  70.84  85.6     -3.84   31.5  224.4     170.0  -0.7174  -0.6157  -0.010 0.005      0  274846.2813    79.0  0.20000 
 355.400   355.387  -0.0      2.220     1.326     2.586  30.9     0.60  67.47  83.8     -1.86   31.5  224.4     115.0  -0.7375  -0.5925  -0.009 0.005      0  274843.4063    79.0  0.10000 
 355.600   355.587  -0.0      2.221     1.328     2.588  30.9     0.56  62.42  82.7     -1.08   31.4  224.4     125.0  -0.7474  -0.5777  -0.008 0.005      0  274843.3750    79.2  0.20000 
 355.800   355.787  -0.0      2.222     1.330     2.590  30.9     0.59  61.96  81.9     -0.77   31.3  224.4     170.0  -0.7519  -0.5651  -0.009 0.005      0  274846.2813    79.2  0.20000 
 356.000   355.987  -0.0      2.223     1.332     2.591  30.9     0.56  70.57  81.7     -0.22   31.2  224.4      80.0  -0.7526  -0.5611  -0.009 0.004      0  274843.4063    79.3  0.20000 
 356.200   356.187  -0.0      2.224     1.334     2.593  31.0     0.60  70.68  82.2     0.49    31.2  224.4     115.0  -0.7469  -0.5668  -0.010 0.004      0  274837.5938    79.3  0.10000 
 356.400   356.387  -0.0      2.224     1.336     2.595  31.0     0.64  71.86  83.4     1.24    31.3  224.4      95.0  -0.7359  -0.5840  -0.010 0.004      0  274837.6250    79.4  0.20000 
 356.600   356.587  -0.0      2.225     1.338     2.596  31.0     0.57  72.14  85.8     2.38    31.3  224.4     180.0  -0.7112  -0.6143  -0.009 0.004      0  274843.4063    79.3  0.20000 
 356.800   356.787  -0.0      2.226     1.340     2.598  31.0     0.57  72.09  88.6     2.83    31.3  224.4      95.0  -0.6805  -0.6492  -0.009 0.005      0  274843.4063    79.3  0.20000 
 357.000   356.987  -0.0      2.226     1.342     2.599  31.1     0.53  71.48  91.2     2.56    31.4  224.4     125.0  -0.6517  -0.6798  -0.008 0.005      0  274837.6563    79.4  0.20000 
 357.200   357.187  -0.0      2.227     1.344     2.601  31.1     0.62  72.91  92.5     1.26    31.4  224.4     165.0  -0.6371  -0.6945  -0.009 0.006      0  274837.6563    79.4  0.10000 
 357.400   357.387  -0.0      2.227     1.345     2.602  31.1     0.56  75.36  93.2     0.78    31.4  224.4      95.0  -0.6265  -0.7020  -0.008 0.005      0  274837.6563    79.2  0.20000 
