~Version Information
 VERS.                2.0:  CWLS LOG ASCII STANDARD -VERSION 2.0
 WRAP.                 NO:  ONE LINE PER DEPTH STEP
~WELL INFORMATION BLOCK
#MNEM.UNIT       DATA		            DESCRIPTION OF MNEMONIC
#---------    -------------            ------------------------
 STRT.FT  -4.400                         :START DEPTH
 STOP.FT  1314.600                       :STOP DEPTH
 STEP.FT  0.200                          :STEP    UP_HOLE  
 NULL.    -999.25                        :NULL VALUE
 COMP.    USGS                           :COMPANY
 WELL.    USGS 145                                                     :WELL
 FLD .    INL                            :FIELD\LOCATION
 LOC .                                   :LOCATION
 CNTY.    BUTTE                          :COUNTY
 STAT.    IDAHO                          :STATE
 CTRY.    USA                            :COUNTRY
 SRVC.    USGS                           :SERVICE COMPANY
 DATE.    07/16/2018                     :LOG DATE
 API .   CAL. 2017                           :API NUMBER
 LIC .    USGS                           :LICENSE NUMBER
~Curve Information Block
#MNEM.UNIT      API CODE     Curve Description
#---------    -------------  ------------------------
 DEPT     .FT        00 001 00 00          :  1  DEPTH   
 SANG     .DEG       00 620 00 00          :  2  SAMPLE SLANT ANGLE  
 SANGB    .DEG       00 631 00 00          :  3  SAMPLE ANG BEARING  
 TOOLFACE .DEG       00 000 00 00          :  4  TOOLFACE            
 DELT TF  .DEG       00 000 00 00          :  5  DELT TF             
 GYRO     .VOLTS     00 000 00 00          :  6  GYRO                
 PAD1-AZ  .DEG       00 632 00 00          :  7  SAMPLE PAD 1 AZIM   
 GAMMA    .CPS       00 310 00 00          :  8  GAMMA RAY           
 COS-GYRO .AMPL      00 000 00 00          :  9  COS-GYRO            
 SIN-GYRO .AMPL      00 000 00 00          : 10  SIN-GYRO            
 XINCL    .AMPL      00 000 00 00          : 11  XINCL               
 YINCL    .AMPL      00 000 00 00          : 12  YINCL               
 CAGE     .VOLTS     00 000 00 00          : 13  CAGE                
 MAG-VECT .AMPL      00 000 00 00          : 14  MAG-VECT            
 MSANGB   .DEG       00 000 00 00          : 15  MSANGB              
 TIME     .MINUTES   00 000 00 00          : 16  TIME                
~Parameter Information Block
#MNEM.UNIT   Information     Description
#---------- ---------------  ------------------------
 FILE.      PROCESSED          :File Type
 FIID.      9095C              :File Type Identifier
 VERS.      3.60E              :System Version
 SER .      1                  :System Serial Number
 TRUK.      0.25               :Truck Calibration Number
 TOOL.        1203             :Tool Serial Number
 TIME.      1600               :Time    HrHrMinMin
 LAT .                         :Latitude
 LON .                         :Longitude
 LMF .      LSD                :Log Measured From
 DMF .      LSD                :Driller Measured From
 PD  .                         :Permanent Data
 PDEV.                         :Elevation Permanent Data
 EKB .M                        :Elevation Kelly Bushing
 ELEV.DF                       :Elevation DF
 EGL .M                        :Elevation Ground Level
 DRDP.      1368               :Driller's Depth
 CASD.      10.                :Casing Diameter
 CASB.      1328               :Casing Bottom
 CASX.      SURFACE            :Casing Type
 CAST.      .25                :Casing Thickness
 TNOC.                         :Time Circulation Stopped
 LOGU.      USGS               :Logging Unit
 RECB.      MJG                :Recorded By
 OSR1.      0024               :Other Services
 OSR2.       9057              :Other Services
 OSR3.                         :Other Services
 BS  .IN         3.9           :Bit Size
 MST .      SH                 :Mean Surface Temperature
 TGRD.                         :Temperature Gradiant
 MAGN.      0                  :Magnetic Declination
 MDEN.      2.65               :Density Matrix
 MATR.      SANDSTONE          :Neutron Matrix
 DTMT.      54                 :Delta T Matrix
 DTFL.                         :Delta T Fluid
 MUDS.      FLOW LINE          :Mud Sample Source
 MRS .      .179               :Mud Resistivity
 MTP .      68.5               :Mud Temperature
 MFRS.                         :Resistivity Mud Filtrate
 MFTP.                         :Temperature Mud Filtrate
 MCRS.                         :Resistivity Mud Cake
 MCTP.                         :Temperature Mud Cake
 FTYP.      AIR                :Fluid Type
 FD  .LB/G    NA               :Mud Weight
 DFV .S                        :Fluid Viscosity
 FPH .                         :Fuild PH
 ELCO.      99999              :Electron Cutoff
 CASL.      3.5                :Casing Logger
 LOTD.      1328               :Logger TD
 ARTM.      12:20              :Arrival Time
 DPTM.                         :Departure Time
 RIGN.                         :Rig Number
~Other Information
#MNEM.UNIT  Information      Description
#---------- ---------------  ------------------------
# -------------------------- 
~A DEPTH  SANG   SANGB  TOOLFACE DELT TF GYRO  PAD1-AZ GAMMA    COS-GYRO SIN-GYRO XINCL YINCL CAGE    MAG-VECT MSANGB TIME    
# ...
 688.800   1.25  152.80  8.7     0.04    31.6  225.7    -999.3  -0.7775  0.5712   0.018 -0.013      0  274826.0313 261.56 0.10000 
 689.000   1.24  151.62  8.7     0.10    31.6  225.7      20.0  -0.7760  0.5710   0.017 -0.013      0  274823.1563 262.69 0.20000 
 689.200   1.24  158.07  8.5     -0.06   31.6  225.6    -999.3  -0.7752  0.5726   0.019 -0.011      0  274820.2813 256.12 0.10000 
 689.400   1.23  154.08  8.6     -0.21   31.6  225.6      25.0  -0.7751  0.5712   0.018 -0.012      0  274820.2813 260.18 0.20000 
 689.600   1.33  152.39  8.8     -0.10   31.5  225.7    -999.3  -0.7754  0.5672   0.019 -0.014      0  274820.2813 262.14 0.10000 
 689.800   1.20  153.41  8.9     -0.21   31.5  225.6      25.0  -0.7761  0.5655   0.017 -0.012      0  274823.1563 261.14 0.20000 
 690.000   1.24  153.42  9.1     -0.38   31.5  225.7      10.0  -0.7766  0.5616   0.018 -0.013      0  274823.1563 261.36 0.10000 
 690.200   1.26  150.92  9.5     -0.53   31.5  225.7      50.0  -0.7799  0.5562   0.017 -0.014      0  274826.0313 264.26 0.20000 
 690.400   1.28  151.15 10.0     -0.46   31.5  225.7      25.0  -0.7864  0.5499   0.017 -0.014      0  274823.1563 264.58 0.20000 
 690.600   1.25  155.93 10.5     -0.22   31.5  225.7    -999.3  -0.7911  0.5437   0.018 -0.012      0  274826.0313 260.23 0.10000 
 690.800   1.30  152.09 10.7     0.30    31.6  225.7      10.0  -0.7950  0.5419   0.018 -0.014      0  274826.0625 264.34 0.20000 
 691.000   1.24  150.11 10.4     0.18    31.6  225.7      80.0  -0.7926  0.5464   0.017 -0.014      0  274826.0313 265.97 0.10000 
 691.200   1.26  153.40 10.2     0.00    31.6  225.7      15.0  -0.7902  0.5484   0.018 -0.013      0  274820.2813 262.51 0.20000 
 691.400   1.23  153.17 10.2     0.10    31.5  225.6      10.0  -0.7880  0.5469   0.017 -0.013      0  274826.0313 262.72 0.10000 
 691.600   1.31  151.09 10.1     0.25    31.5  225.7      15.0  -0.7867  0.5481   0.018 -0.014      0  274820.2813 264.75 0.20000 
 691.800   1.26  153.41  9.9     0.29    31.5  225.7      10.0  -0.7820  0.5499   0.018 -0.013      0  274826.0313 262.15 0.10000 
 692.000   1.21  152.64  9.6     -0.25   31.4  225.6      25.0  -0.7786  0.5533   0.017 -0.013      0  274823.1563 262.60 0.20000 
 692.200   1.24  151.15  9.8     -0.05   31.4  225.7      30.0  -0.7789  0.5484   0.017 -0.013      0  274820.2813 264.35 0.10000 
 692.400   1.35  147.20  9.9     1.02    31.3  225.7      15.0  -0.7773  0.5463   0.017 -0.016      0  274823.1563 268.44 0.20000 
 692.600   1.23  152.22  8.9     0.64    31.2  225.6    -999.3  -0.7668  0.5596   0.017 -0.013      0  274820.2813 262.31 0.10000 
 692.800   1.17  154.69  8.2     -0.14   31.3  225.6      10.0  -0.7629  0.5699   0.017 -0.011      0  274826.0313 259.15 0.20000 
 693.000   1.26  151.76  8.4     -0.10   31.4  225.7      20.0  -0.7664  0.5695   0.018 -0.013      0  274820.2813 262.30 0.20000 
 693.200   1.30  150.72  8.5     -0.15   31.5  225.7      10.0  -0.7713  0.5711   0.018 -0.014      0  274826.0313 263.46 0.10000 
 693.400   1.20  151.33  8.6     -0.77   31.6  225.6      15.0  -0.7748  0.5705   0.017 -0.013      0  274820.2813 262.94 0.20000 
 693.600   1.20  149.27  9.4     -0.89   31.5  225.6    -999.3  -0.7815  0.5595   0.016 -0.013      0  274831.8438 265.77 0.10000 
 693.800   1.17  144.17 10.3     -0.80   31.5  225.6      30.0  -0.7890  0.5466   0.014 -0.015      0  274823.1563 271.73 0.20000 
 694.000   1.28  147.10 11.1     -0.77   31.4  225.7      20.0  -0.7941  0.5339   0.016 -0.016      0  274826.0313 269.68 0.10000 
 694.200   1.24  149.98 11.9     -0.94   31.5  225.7      20.0  -0.8020  0.5238   0.016 -0.014      0  274820.2813 267.53 0.20000 
 694.400   1.06  159.48 12.8     -1.87   31.4  225.5      30.0  -0.8078  0.5089   0.015 -0.010      0  274826.0313 258.83 0.10000 
 694.600   1.09  152.17 14.7     -2.09   31.4  225.6      20.0  -0.8239  0.4822   0.014 -0.013      0  274823.1563 268.05 0.20000 
 694.800   1.34  157.10 16.8     -1.83   31.3  225.7      10.0  -0.8395  0.4510   0.018 -0.015      0  274820.2813 265.38 0.10000 
 695.000   1.15  155.69 18.6     -1.87   31.4  225.6      25.0  -0.8570  0.4257   0.015 -0.014      0  274823.1875 268.50 0.20000 
 695.200   1.22  152.80 20.5     -0.80   31.4  225.6      40.0  -0.8717  0.3981   0.014 -0.016      0  274823.1563 273.30 0.10000 
 695.400   1.39  150.89 21.3     0.34    31.4  225.8      10.0  -0.8783  0.3864   0.015 -0.019      0  274820.2813 276.13 0.20000 
 695.600   1.19  153.46 20.9     0.76    31.5  225.6    -999.3  -0.8772  0.3921   0.014 -0.015      0  274826.0313 273.08 0.20000 
 695.800   1.13  156.30 20.2     0.24    31.6  225.6    -999.3  -0.8738  0.4046   0.014 -0.014      0  274820.2813 269.44 0.10000 
 696.000   1.21  154.24 19.9     0.57    31.5  225.6      10.0  -0.8706  0.4076   0.015 -0.015      0  274823.1563 271.31 0.20000 
 696.200   1.18  155.97 19.3     0.87    31.5  225.6      10.0  -0.8664  0.4163   0.015 -0.014      0  274820.2813 268.98 0.10000 
 696.400   1.16  154.30 18.5     0.30    31.6  225.6      10.0  -0.8610  0.4298   0.015 -0.014      0  274823.1563 269.78 0.20000 
 696.600   1.21  156.64 18.2     0.29    31.5  225.6      50.0  -0.8571  0.4335   0.016 -0.014      0  274820.2813 267.17 0.10000 
 696.800   1.24  151.32 17.9     0.36    31.5  225.7      15.0  -0.8545  0.4375   0.015 -0.016      0  274823.1563 272.23 0.20000 
 697.000   1.18  151.70 17.5     0.11    31.5  225.6      10.0  -0.8518  0.4429   0.014 -0.015      0  274820.2813 271.45 0.10000 
 697.200   1.24  152.81 17.4     0.07    31.5  225.7    -999.3  -0.8498  0.4440   0.015 -0.015      0  274826.0625 270.27 0.20000 
 697.400   1.22  151.55 17.3     0.04    31.4  225.6      10.0  -0.8473  0.4440   0.015 -0.015      0  274820.2813 271.45 0.10000 
 697.600   1.24  150.22 17.3     0.23    31.4  225.7      10.0  -0.8472  0.4447   0.015 -0.016      0  274820.2813 272.75 0.20000 
 697.800   1.21  154.48 17.1     -0.11   31.3  225.6    -999.3  -0.8432  0.4469   0.016 -0.014      0  274823.1563 268.24 0.10000 
 698.000   1.23  151.13 17.2     0.01    31.3  225.6       5.0  -0.8449  0.4457   0.015 -0.015      0  274820.2813 271.71 0.20000 
 698.200   1.31  149.84 17.2     0.73    31.4  225.7      30.0  -0.8479  0.4475   0.016 -0.017      0  274823.1563 273.05 0.20000 
 698.400   1.17  159.52 16.4     0.54    31.5  225.6      70.0  -0.8439  0.4593   0.016 -0.012      0  274820.2813 262.53 0.10000 
 698.600   1.27  158.70 15.9     -0.10   31.6  225.7      10.0  -0.8400  0.4674   0.018 -0.013      0  274823.1563 262.88 0.20000 
 698.800   0.88  147.27 16.0     -1.01   31.5  225.4      20.0  -0.8403  0.4658   0.010 -0.012      0  274820.2813 274.14 0.10000 
 699.000   1.35  152.26 17.0     -0.27   31.5  225.7      50.0  -0.8490  0.4512   0.017 -0.017      0  274823.1563 270.49 0.20000 
 699.200   1.32  152.78 17.3     0.56    31.5  225.7    -999.3  -0.8498  0.4466   0.016 -0.016      0  274820.2813 270.22 0.10000 
 699.400   1.22  154.37 16.7     0.36    31.4  225.6      20.0  -0.8420  0.4531   0.016 -0.014      0  274823.1563 267.99 0.20000 
 699.600   1.25  157.08 16.4     -0.43   31.3  225.7      20.0  -0.8359  0.4566   0.017 -0.014      0  274820.2813 264.94 0.10000 
 699.800   1.27  155.35 16.8     -0.30   31.3  225.7      60.0  -0.8390  0.4503   0.017 -0.015      0  274831.8438 267.11 0.20000 
 700.000   1.41  147.72 17.1     -0.13   31.3  225.8    -999.3  -0.8421  0.4462   0.016 -0.019      0  274820.2813 275.14 0.10000 
 700.200   1.17  158.02 17.2     -1.33   31.3  225.6       5.0  -0.8449  0.4452   0.016 -0.013      0  274826.0313 264.81 0.20000 
 700.400   1.39  149.82 18.5     -0.28   31.4  225.8      10.0  -0.8580  0.4271   0.016 -0.018      0  274826.0625 274.48 0.10000 
 700.600   1.26  158.70 18.8     -1.26   31.4  225.7      15.0  -0.8601  0.4230   0.017 -0.014      0  274820.2813 265.79 0.20000 
 700.800   1.21  160.73 20.1     -1.75   31.4  225.6      15.0  -0.8695  0.4040   0.016 -0.013      0  274826.0625 264.99 0.20000 
 701.000   1.51  147.78 21.8     0.32    31.5  225.8      20.0  -0.8855  0.3789   0.015 -0.021      0  274820.2813 279.88 0.10000 
