~Version Information
 VERS.                2.0:  CWLS LOG ASCII STANDARD -VERSION 2.0
 WRAP.                 NO:  ONE LINE PER DEPTH STEP
~WELL INFORMATION BLOCK
#MNEM.UNIT       DATA		            DESCRIPTION OF MNEMONIC
#---------    -------------            ------------------------
 STRT.FT  -3.600                         :START DEPTH
 STOP.FT  1314.400                       :STOP DEPTH
 STEP.FT  0.200                          :STEP  DOWN_HOLE  
 NULL.    -999.25                        :NULL VALUE
 COMP.    USGS                           :COMPANY
 WELL.    USGS 145                                                     :WELL
 FLD .    INL                            :FIELD\LOCATION
 LOC .                                   :LOCATION
 CNTY.    BUTTE                          :COUNTY
 STAT.    IDAHO                          :STATE
 CTRY.    USA                            :COUNTRY
 SRVC.    USGS                           :SERVICE COMPANY
 DATE.    07/16/2018                     :LOG DATE
 API .   CAL. 2017                           :API NUMBER
 LIC .    USGS                           :LICENSE NUMBER
~Curve Information Block
#MNEM.UNIT      API CODE     Curve Description
#---------    -------------  ------------------------
 DEPT     .FT        00 001 00 00          :  1  DEPTH   
 T DEPTH  .FT        00 960 00 00          :  2  TRUE DEPTH          
 D DIFF   .FT        00 000 00 00          :  3  DEPTH DIFFERENCE    
 N DEV    .FT        00 000 00 00          :  4  NORTH DEVIATION     
 E DEV    .FT        00 000 00 00          :  5  EAST DEVIATION      
 DISTANCE .FT        00 000 00 00          :  6  DEVIATED DISTANCE   
 AZIMUTH  .DEG       00 630 00 00          :  7  DEVIATED AZIMUTH    
 SANG     .DEG       00 620 00 00          :  8  SAMPLE SLANT ANGLE  
 SANGB    .DEG       00 631 00 00          :  9  SAMPLE ANG BEARING  
 TOOLFACE .DEG       00 000 00 00          : 10  TOOLFACE            
 DELT TF  .DEG       00 000 00 00          : 11  DELT TF             
 GYRO     .VOLTS     00 000 00 00          : 12  GYRO                
 PAD1-AZ  .DEG       00 632 00 00          : 13  SAMPLE PAD 1 AZIM   
 GAMMA    .CPS       00 310 00 00          : 14  GAMMA RAY           
 COS-GYRO .AMPL      00 000 00 00          : 15  COS-GYRO            
 SIN-GYRO .AMPL      00 000 00 00          : 16  SIN-GYRO            
 XINCL    .AMPL      00 000 00 00          : 17  XINCL               
 YINCL    .AMPL      00 000 00 00          : 18  YINCL               
 CAGE     .VOLTS     00 000 00 00          : 19  CAGE                
 MAG-VECT .AMPL      00 000 00 00          : 20  MAG-VECT            
 TENSION  .CPS       00 000 00 00          : 21  LINE TENSION        
 TIME     .MINUTES   00 000 00 00          : 22  TIME                
~Parameter Information Block
#MNEM.UNIT   Information     Description
#---------- ---------------  ------------------------
 FILE.      PROCESSED          :File Type
 FIID.      9095C              :File Type Identifier
 VERS.      3.60E              :System Version
 SER .      1                  :System Serial Number
 TRUK.      0.25               :Truck Calibration Number
 TOOL.        1203             :Tool Serial Number
 TIME.      1519               :Time    HrHrMinMin
 LAT .                         :Latitude
 LON .                         :Longitude
 LMF .      LSD                :Log Measured From
 DMF .      LSD                :Driller Measured From
 PD  .                         :Permanent Data
 PDEV.                         :Elevation Permanent Data
 EKB .M                        :Elevation Kelly Bushing
 ELEV.DF                       :Elevation DF
 EGL .M                        :Elevation Ground Level
 DRDP.      1368               :Driller's Depth
 CASD.      10.                :Casing Diameter
 CASB.      1328               :Casing Bottom
 CASX.      SURFACE            :Casing Type
 CAST.      .25                :Casing Thickness
 TNOC.                         :Time Circulation Stopped
 LOGU.      USGS               :Logging Unit
 RECB.      MJG                :Recorded By
 OSR1.      0024               :Other Services
 OSR2.       9057              :Other Services
 OSR3.                         :Other Services
 BS  .IN         3.9           :Bit Size
 MST .      SH                 :Mean Surface Temperature
 TGRD.                         :Temperature Gradiant
 MAGN.        12.500           :Magnetic Declination
 MDEN.      2.65               :Density Matrix
 MATR.      SANDSTONE          :Neutron Matrix
 DTMT.      54                 :Delta T Matrix
 DTFL.                         :Delta T Fluid
 MUDS.      FLOW LINE          :Mud Sample Source
 MRS .      .179               :Mud Resistivity
 MTP .      68.5               :Mud Temperature
 MFRS.                         :Resistivity Mud Filtrate
 MFTP.                         :Temperature Mud Filtrate
 MCRS.                         :Resistivity Mud Cake
 MCTP.                         :Temperature Mud Cake
 FTYP.      AIR                :Fluid Type
 FD  .LB/G    NA               :Mud Weight
 DFV .S                        :Fluid Viscosity
 FPH .                         :Fuild PH
 ELCO.      99999              :Electron Cutoff
 CASL.      3.5                :Casing Logger
 LOTD.      1328               :Logger TD
 ARTM.      12:20              :Arrival Time
 DPTM.                         :Departure Time
 RIGN.                         :Rig Number
~Other Information
#MNEM.UNIT  Information      Description
#---------- ---------------  ------------------------
# -------------------------- 
~A DEPTH  T DEPTH   D DIFF N DEV     E DEV     DISTANCE  AZIMUTH SANG   SANGB  TOOLFACE DELT TF GYRO  PAD1-AZ GAMMA    COS-GYRO SIN-GYRO XINCL YINCL CAGE    MAG-VECT TENSION  TIME    
# ...
 168.400   168.398  -0.0      0.635     0.173     0.658  15.3     0.30  12.10  220.9    -1.96   31.6  225.0      40.0  0.9524   -0.0683  0.004 -0.003      0  274846.2813    79.5  0.20000 
 168.600   168.598  -0.0      0.636     0.173     0.659  15.2     0.35   8.39  219.2    -1.66   31.6  225.0      20.0  0.9495   -0.0957  0.005 -0.004      0  274849.1563    79.5  0.10000 
 168.800   168.798  -0.0      0.637     0.174     0.660  15.2     0.28  11.24  217.5    -1.74   31.5  225.0      60.0  0.9443   -0.1244  0.004 -0.003      0  274846.2813    79.4  0.20000 
 169.000   168.998  -0.0      0.638     0.174     0.661  15.2     0.29   8.73  215.3    -2.24   31.6  225.0      20.0  0.9396   -0.1613  0.004 -0.003      0  274849.1875    79.4  0.20000 
 169.200   169.198  -0.0      0.639     0.174     0.662  15.2     0.31  11.05  213.2    -2.01   31.6  225.0      25.0  0.9342   -0.1944  0.005 -0.003      0  274846.2813    79.4  0.20000 
 169.400   169.398  -0.0      0.640     0.174     0.663  15.2     0.27  10.23  212.0    -1.25   31.6  225.0      35.0  0.9292   -0.2145  0.004 -0.003      0  274849.1563    79.4  0.10000 
 169.600   169.598  -0.0      0.641     0.174     0.664  15.2     0.32   5.63  211.0    -0.96   31.5  225.0      35.0  0.9239   -0.2296  0.004 -0.003      0  274846.2813    79.3  0.20000 
 169.800   169.798  -0.0      0.642     0.174     0.665  15.2     0.31  13.11  210.1    -0.94   31.4  225.0      60.0  0.9166   -0.2439  0.005 -0.003      0  274846.2813    79.3  0.20000 
 170.000   169.998  -0.0      0.643     0.175     0.667  15.2     0.33  14.35  209.9    -0.15   31.5  225.0      30.0  0.9169   -0.2466  0.005 -0.003      0  274843.4063    79.3  0.10000 
 170.200   170.198  -0.0      0.644     0.175     0.668  15.2     0.33  11.36  210.3    0.36    31.4  225.0      50.0  0.9151   -0.2399  0.005 -0.003      0  274852.0625    79.4  0.20000 
 170.400   170.398  -0.0      0.645     0.175     0.669  15.2     0.29  14.87  211.6    1.31    31.4  225.0      30.0  0.9224   -0.2194  0.004 -0.002      0  274843.4063    79.4  0.20000 
 170.600   170.598  -0.0      0.647     0.175     0.670  15.2     0.33  16.34  213.8    2.14    31.4  225.0      55.0  0.9293   -0.1847  0.005 -0.003      0  274849.1875    79.4  0.20000 
 170.800   170.798  -0.0      0.648     0.176     0.671  15.2     0.37  13.43  215.6    1.83    31.5  225.0      30.0  0.9375   -0.1554  0.005 -0.004      0  274843.4063    79.5  0.10000 
 171.000   170.998  -0.0      0.649     0.176     0.672  15.2     0.36  14.95  217.3    1.71    31.4  225.0      25.0  0.9412   -0.1274  0.005 -0.004      0  274852.0625    79.5  0.20000 
 171.200   171.198  -0.0      0.650     0.176     0.674  15.2     0.33  11.13  219.3    2.04    31.5  225.0      60.0  0.9467   -0.0939  0.004 -0.004      0  274846.2813    79.5  0.20000 
 171.400   171.398  -0.0      0.651     0.177     0.675  15.2     0.40  16.90  220.6    1.31    31.5  225.1      20.0  0.9484   -0.0722  0.006 -0.004      0  274849.1563    79.4  0.10000 
 171.600   171.598  -0.0      0.652     0.177     0.676  15.2     0.31  13.04  221.5    0.89    31.5  225.0      30.0  0.9512   -0.0576  0.004 -0.004      0  274849.1563    79.6  0.20000 
 171.800   171.798  -0.0      0.654     0.177     0.677  15.2     0.36  11.62  222.1    0.55    31.5  225.0      30.0  0.9514   -0.0484  0.005 -0.004      0  274846.2813    79.6  0.20000 
 172.000   171.998  -0.0      0.655     0.178     0.679  15.2     0.42  17.98  221.9    -0.17   31.5  225.1      70.0  0.9502   -0.0512  0.006 -0.004      0  274846.2813    79.5  0.20000 
 172.200   172.198  -0.0      0.656     0.178     0.680  15.2     0.32  12.85  221.4    -0.49   31.5  225.0      15.0  0.9492   -0.0592  0.004 -0.004      0  274849.1563    79.5  0.10000 
 172.400   172.398  -0.0      0.657     0.178     0.681  15.2     0.36  14.01  220.8    -0.62   31.4  225.0      65.0  0.9481   -0.0695  0.005 -0.004      0  274849.1875    79.5  0.20000 
 172.600   172.598  -0.0      0.659     0.179     0.683  15.2     0.42  16.69  219.9    -0.94   31.5  225.1      60.0  0.9465   -0.0850  0.006 -0.004      0  274843.4063    79.5  0.20000 
 172.800   172.798  -0.0      0.660     0.179     0.684  15.2     0.31   5.42  219.1    -0.79   31.4  225.0      30.0  0.9442   -0.0978  0.004 -0.004      0  274849.1563    79.5  0.10000 
 173.000   172.998  -0.0      0.661     0.179     0.685  15.2     0.46  19.08  218.3    -0.81   31.3  225.1      80.0  0.9400   -0.1109  0.007 -0.004      0  274843.4063    79.4  0.20000 
 173.200   173.198  -0.0      0.663     0.180     0.687  15.2     0.39  15.78  217.0    -1.31   31.4  225.1      40.0  0.9390   -0.1326  0.006 -0.004      0  274846.2813    79.3  0.20000 
 173.400   173.398  -0.0      0.664     0.180     0.688  15.2     0.44  17.30  215.5    -1.45   31.4  225.1      40.0  0.9334   -0.1560  0.007 -0.004      0  274852.0313    79.3  0.20000 
 173.600   173.598  -0.0      0.666     0.180     0.690  15.2     0.40  14.89  214.5    -1.03   31.4  225.1      30.0  0.9323   -0.1731  0.006 -0.004      0  274843.4063    79.3  0.10000 
 173.800   173.798  -0.0      0.667     0.181     0.691  15.2     0.38  17.55  213.6    -0.91   31.5  225.0      20.0  0.9311   -0.1882  0.006 -0.003      0  274846.2813    79.5  0.20000 
 174.000   173.998  -0.0      0.668     0.181     0.692  15.2     0.40  16.38  212.6    -0.95   31.5  225.1      60.0  0.9285   -0.2038  0.006 -0.003      0  274846.2813    79.5  0.20000 
 174.200   174.198  -0.0      0.670     0.182     0.694  15.2     0.41  16.15  212.1    -0.52   31.5  225.1      90.0  0.9273   -0.2124  0.006 -0.003      0  274849.1563    79.5  0.10000 
 174.400   174.398  -0.0      0.671     0.182     0.695  15.2     0.39  14.48  211.8    -0.32   31.5  225.1      30.0  0.9257   -0.2175  0.006 -0.003      0  274849.1875    79.7  0.20000 
 174.600   174.598  -0.0      0.672     0.182     0.696  15.2     0.36  11.65  211.5    -0.28   31.4  225.0      60.0  0.9218   -0.2213  0.005 -0.003      0  274849.1563    79.8  0.20000 
 174.800   174.798  -0.0      0.673     0.183     0.698  15.2     0.41  14.36  211.3    -0.17   31.3  225.1      35.0  0.9189   -0.2235  0.006 -0.003      0  274849.1875    79.8  0.20000 
 175.000   174.998  -0.0      0.675     0.183     0.699  15.2     0.39  13.66  211.2    -0.09   31.3  225.1      55.0  0.9183   -0.2249  0.006 -0.003      0  274849.1563    79.7  0.10000 
 175.200   175.198  -0.0      0.676     0.183     0.700  15.2     0.38  12.48  211.2    -0.08   31.3  225.0      55.0  0.9175   -0.2260  0.006 -0.003      0  274849.1875    79.7  0.20000 
 175.400   175.398  -0.0      0.677     0.184     0.702  15.2     0.39  15.13  211.1    -0.04   31.4  225.1      10.0  0.9191   -0.2270  0.006 -0.003      0  274849.1875    79.6  0.20000 
 175.600   175.598  -0.0      0.679     0.184     0.704  15.2     0.48  17.55  211.2    0.08    31.3  225.1      30.0  0.9184   -0.2254  0.008 -0.004      0  274854.9688    79.5  0.10000 
 175.800   175.798  -0.0      0.680     0.184     0.705  15.2     0.36   9.34  211.3    0.12    31.4  225.0      65.0  0.9203   -0.2238  0.005 -0.004      0  274846.2813    79.4  0.20000 
 176.000   175.998  -0.0      0.682     0.185     0.706  15.2     0.44  13.47  211.7    0.35    31.4  225.1      60.0  0.9225   -0.2183  0.007 -0.004      0  274849.1563    79.3  0.20000 
 176.200   176.198  -0.0      0.683     0.185     0.708  15.2     0.45  13.63  212.2    0.53    31.5  225.1      70.0  0.9263   -0.2102  0.007 -0.004      0  274843.4063    79.3  0.20000 
 176.400   176.398  -0.0      0.685     0.185     0.710  15.1     0.49  13.99  212.7    0.50    31.5  225.1      20.0  0.9292   -0.2024  0.007 -0.004      0  274854.9688    79.4  0.10000 
 176.600   176.598  -0.0      0.686     0.186     0.711  15.1     0.42  14.64  213.3    0.56    31.4  225.1      25.0  0.9286   -0.1927  0.006 -0.004      0  274846.2813    79.5  0.20000 
 176.800   176.798  -0.0      0.688     0.186     0.713  15.2     0.57  16.06  213.8    0.55    31.5  225.2      70.0  0.9322   -0.1842  0.009 -0.005      0  274846.2813    79.6  0.20000 
