~Version Information
 VERS.                2.0:  CWLS LOG ASCII STANDARD -VERSION 2.0
 WRAP.                 NO:  ONE LINE PER DEPTH STEP
~WELL INFORMATION BLOCK
#MNEM.UNIT       DATA		            DESCRIPTION OF MNEMONIC
#---------    -------------            ------------------------
 STRT.FT  -3.600                         :START DEPTH
 STOP.FT  1314.400                       :STOP DEPTH
 STEP.FT  0.200                          :STEP  DOWN_HOLE  
 NULL.    -999.25                        :NULL VALUE
 COMP.    USGS                           :COMPANY
 WELL.    USGS 145                                                     :WELL
 FLD .    INL                            :FIELD\LOCATION
 LOC .                                   :LOCATION
 CNTY.    BUTTE                          :COUNTY
 STAT.    IDAHO                          :STATE
 CTRY.    USA                            :COUNTRY
 SRVC.    USGS                           :SERVICE COMPANY
 DATE.    07/16/2018                     :LOG DATE
 API .   CAL. 2017                           :API NUMBER
 LIC .    USGS                           :LICENSE NUMBER
~Curve Information Block
#MNEM.UNIT      API CODE     Curve Description
#---------    -------------  ------------------------
 DEPT     .FT        00 001 00 00          :  1  DEPTH   
 T DEPTH  .FT        00 960 00 00          :  2  TRUE DEPTH          
 D DIFF   .FT        00 000 00 00          :  3  DEPTH DIFFERENCE    
 N DEV    .FT        00 000 00 00          :  4  NORTH DEVIATION     
 E DEV    .FT        00 000 00 00          :  5  EAST DEVIATION      
 DISTANCE .FT        00 000 00 00          :  6  DEVIATED DISTANCE   
 AZIMUTH  .DEG       00 630 00 00          :  7  DEVIATED AZIMUTH    
 SANG     .DEG       00 620 00 00          :  8  SAMPLE SLANT ANGLE  
 SANGB    .DEG       00 631 00 00          :  9  SAMPLE ANG BEARING  
 TOOLFACE .DEG       00 000 00 00          : 10  TOOLFACE            
 DELT TF  .DEG       00 000 00 00          : 11  DELT TF             
 GYRO     .VOLTS     00 000 00 00          : 12  GYRO                
 PAD1-AZ  .DEG       00 632 00 00          : 13  SAMPLE PAD 1 AZIM   
 GAMMA    .CPS       00 310 00 00          : 14  GAMMA RAY           
 COS-GYRO .AMPL      00 000 00 00          : 15  COS-GYRO            
 SIN-GYRO .AMPL      00 000 00 00          : 16  SIN-GYRO            
 XINCL    .AMPL      00 000 00 00          : 17  XINCL               
 YINCL    .AMPL      00 000 00 00          : 18  YINCL               
 CAGE     .VOLTS     00 000 00 00          : 19  CAGE                
 MAG-VECT .AMPL      00 000 00 00          : 20  MAG-VECT            
 TENSION  .CPS       00 000 00 00          : 21  LINE TENSION        
 TIME     .MINUTES   00 000 00 00          : 22  TIME                
~Parameter Information Block
#MNEM.UNIT   Information     Description
#---------- ---------------  ------------------------
 FILE.      PROCESSED          :File Type
 FIID.      9095C              :File Type Identifier
 VERS.      3.60E              :System Version
 SER .      1                  :System Serial Number
 TRUK.      0.25               :Truck Calibration Number
 TOOL.        1203             :Tool Serial Number
 TIME.      1519               :Time    HrHrMinMin
 LAT .                         :Latitude
 LON .                         :Longitude
 LMF .      LSD                :Log Measured From
 DMF .      LSD                :Driller Measured From
 PD  .                         :Permanent Data
 PDEV.                         :Elevation Permanent Data
 EKB .M                        :Elevation Kelly Bushing
 ELEV.DF                       :Elevation DF
 EGL .M                        :Elevation Ground Level
 DRDP.      1368               :Driller's Depth
 CASD.      10.                :Casing Diameter
 CASB.      1328               :Casing Bottom
 CASX.      SURFACE            :Casing Type
 CAST.      .25                :Casing Thickness
 TNOC.                         :Time Circulation Stopped
 LOGU.      USGS               :Logging Unit
 RECB.      MJG                :Recorded By
 OSR1.      0024               :Other Services
 OSR2.       9057              :Other Services
 OSR3.                         :Other Services
 BS  .IN         3.9           :Bit Size
 MST .      SH                 :Mean Surface Temperature
 TGRD.                         :Temperature Gradiant
 MAGN.        12.500           :Magnetic Declination
 MDEN.      2.65               :Density Matrix
 MATR.      SANDSTONE          :Neutron Matrix
 DTMT.      54                 :Delta T Matrix
 DTFL.                         :Delta T Fluid
 MUDS.      FLOW LINE          :Mud Sample Source
 MRS .      .179               :Mud Resistivity
 MTP .      68.5               :Mud Temperature
 MFRS.                         :Resistivity Mud Filtrate
 MFTP.                         :Temperature Mud Filtrate
 MCRS.                         :Resistivity Mud Cake
 MCTP.                         :Temperature Mud Cake
 FTYP.      AIR                :Fluid Type
 FD  .LB/G    NA               :Mud Weight
 DFV .S                        :Fluid Viscosity
 FPH .                         :Fuild PH
 ELCO.      99999              :Electron Cutoff
 CASL.      3.5                :Casing Logger
 LOTD.      1328               :Logger TD
 ARTM.      12:20              :Arrival Time
 DPTM.                         :Departure Time
 RIGN.                         :Rig Number
~Other Information
#MNEM.UNIT  Information      Description
#---------- ---------------  ------------------------
# -------------------------- 
~A DEPTH  T DEPTH   D DIFF N DEV     E DEV     DISTANCE  AZIMUTH SANG   SANGB  TOOLFACE DELT TF GYRO  PAD1-AZ GAMMA    COS-GYRO SIN-GYRO XINCL YINCL CAGE    MAG-VECT TENSION  TIME    
# ...
 951.000   950.854  -0.1     -8.963     5.099    10.312  150.4    1.18  155.95 273.9    0.13    31.5  224.7      20.0  0.6281   0.7210   0.013 0.016      0  274831.8438    81.2  0.10000 
 951.200   951.053  -0.1     -8.967     5.101    10.316  150.4    1.21  156.67 273.9    -0.03   31.5  224.7      25.0  0.6287   0.7208   0.013 0.017      0  274826.0625    81.1  0.20000 
 951.400   951.253  -0.1     -8.971     5.103    10.320  150.4    1.15  155.85 273.8    -0.12   31.5  224.7      40.0  0.6302   0.7196   0.012 0.016      0  274823.1563    81.1  0.20000 
 951.600   951.453  -0.1     -8.974     5.104    10.324  150.4    1.17  155.88 273.2    -0.57   31.6  224.7      25.0  0.6386   0.7146   0.012 0.016      0  274826.0625    81.2  0.20000 
 951.800   951.653  -0.1     -8.978     5.106    10.328  150.4    1.17  156.37 272.1    -1.17   31.7  224.7       5.0  0.6552   0.7039   0.012 0.017      0  274826.0938    81.3  0.20000 
 952.000   951.853  -0.1     -8.982     5.108    10.333  150.4    1.18  155.79 270.8    -1.23   31.7  224.6      30.0  0.6716   0.6911   0.012 0.017      0  274826.0938    81.4  0.20000 
 952.200   952.053  -0.1     -8.986     5.109    10.337  150.4    1.17  155.35 269.2    -1.58   31.7  224.6      30.0  0.6904   0.6722   0.012 0.017      0  274823.2188    81.4  0.20000 
 952.400   952.253  -0.1     -8.989     5.111    10.340  150.4    1.09  156.83 267.6    -1.62   31.6  224.6      20.0  0.7068   0.6503   0.010 0.016      0  274826.0938    81.4  0.10000 
 952.600   952.453  -0.1     -8.993     5.112    10.345  150.4    1.19  157.29 265.8    -1.81   31.6  224.6      25.0  0.7264   0.6272   0.010 0.018      0  274826.0938    81.4  0.20000 
 952.800   952.653  -0.1     -8.996     5.114    10.348  150.4    1.07  156.69 263.4    -2.37   31.6  224.6    -999.3  0.7512   0.5962   0.009 0.017      0  274823.1563    81.3  0.20000 
 953.000   952.853  -0.1     -9.000     5.116    10.352  150.4    1.18  157.32 260.8    -2.63   31.6  224.5      10.0  0.7788   0.5619   0.008 0.019      0  274826.0313    81.3  0.20000 
 953.200   953.053  -0.1     -9.004     5.117    10.356  150.4    1.08  158.23 258.0    -2.78   31.6  224.5      30.0  0.8060   0.5241   0.006 0.018      0  274826.0625    81.3  0.20000 
 953.400   953.253  -0.1     -9.007     5.118    10.360  150.4    1.11  158.16 255.7    -2.34   31.7  224.4      30.0  0.8266   0.4907   0.006 0.018      0  274831.8438    81.3  0.20000 
 953.600   953.453  -0.1     -9.011     5.120    10.364  150.4    1.12  156.52 254.3    -1.38   31.7  224.4      15.0  0.8391   0.4713   0.006 0.019      0  274826.0938    81.3  0.10000 
 953.800   953.653  -0.1     -9.015     5.121    10.368  150.4    1.16  157.70 253.3    -0.98   31.7  224.4      25.0  0.8482   0.4574   0.006 0.020      0  274826.0938    81.3  0.20000 
 954.000   953.853  -0.1     -9.018     5.123    10.372  150.4    1.15  157.53 252.3    -1.08   31.7  224.4      30.0  0.8567   0.4414   0.005 0.019      0  274826.0625    81.3  0.19900 
 954.200   954.053  -0.1     -9.022     5.125    10.376  150.4    1.13  156.84 251.5    -0.76   31.7  224.4      25.0  0.8623   0.4299   0.005 0.019      0  274823.1563    81.3  0.20100 
 954.400   954.253  -0.1     -9.025     5.126    10.380  150.4    1.12  156.67 251.1    -0.42   31.7  224.4      10.0  0.8655   0.4237   0.005 0.019      0  274823.1875    81.2  0.19900 
 954.600   954.453  -0.1     -9.029     5.128    10.384  150.4    1.13  155.06 250.7    -0.39   31.7  224.4      50.0  0.8678   0.4176   0.005 0.019      0  274826.0938    81.2  0.20000 
 954.800   954.653  -0.1     -9.033     5.129    10.387  150.4    1.14  157.61 250.5    -0.24   31.6  224.4      25.0  0.8671   0.4128   0.005 0.019      0  274826.0938    81.2  0.10000 
 955.000   954.853  -0.1     -9.036     5.131    10.391  150.4    1.11  156.08 250.4    -0.11   31.6  224.4       5.0  0.8677   0.4111   0.005 0.019      0  274828.9688    81.2  0.20000 
 955.200   955.053  -0.1     -9.040     5.132    10.395  150.4    1.08  156.41 250.2    -0.11   31.6  224.4    -999.3  0.8682   0.4092   0.005 0.018      0  274826.0938    81.2  0.20000 
 955.400   955.253  -0.1     -9.043     5.134    10.399  150.4    1.14  156.62 250.0    -0.19   31.5  224.4      25.0  0.8670   0.4052   0.005 0.019      0  274826.0938    81.2  0.20000 
 955.600   955.453  -0.1     -9.047     5.136    10.403  150.4    1.20  157.54 249.9    -0.12   31.6  224.3      20.0  0.8690   0.4038   0.005 0.020      0  274826.0625    81.2  0.20000 
 955.800   955.653  -0.1     -9.051     5.137    10.407  150.4    1.05  157.19 250.1    0.13    31.6  224.4      45.0  0.8694   0.4064   0.004 0.018      0  274823.1563    81.2  0.20000 
 956.000   955.853  -0.1     -9.054     5.138    10.411  150.4    1.17  157.92 250.6    0.54    31.6  224.3      45.0  0.8667   0.4152   0.005 0.020      0  274823.1875    81.2  0.20000 
 956.200   956.052  -0.1     -9.058     5.140    10.415  150.4    1.16  156.84 251.1    0.54    31.6  224.4      10.0  0.8632   0.4236   0.005 0.020      0  274826.0938    81.2  0.10000 
 956.400   956.253  -0.1     -9.062     5.142    10.419  150.4    1.13  158.04 251.9    0.72    31.6  224.4      35.0  0.8578   0.4344   0.005 0.019      0  274826.0938    81.2  0.20000 
 956.600   956.452  -0.1     -9.066     5.143    10.423  150.4    1.17  157.15 253.1    1.25    31.6  224.4      10.0  0.8458   0.4518   0.006 0.020      0  274826.0938    81.2  0.20000 
 956.800   956.652  -0.1     -9.069     5.145    10.427  150.4    1.14  156.95 254.6    1.52    31.5  224.4      15.0  0.8316   0.4730   0.006 0.019      0  274826.0938    81.3  0.20000 
 957.000   956.852  -0.1     -9.073     5.146    10.431  150.4    1.13  156.59 256.3    1.69    31.4  224.4      40.0  0.8150   0.4960   0.007 0.019      0  274823.1563    81.2  0.20000 
 957.200   957.052  -0.1     -9.077     5.148    10.435  150.4    1.18  155.92 258.2    1.86    31.4  224.5       5.0  0.7982   0.5221   0.008 0.019      0  274826.0625    81.2  0.20000 
 957.400   957.252  -0.1     -9.080     5.149    10.439  150.4    1.16  157.44 259.6    1.46    31.4  224.5       5.0  0.7845   0.5421   0.008 0.019      0  274826.0938    81.2  0.10000 
 957.600   957.452  -0.1     -9.084     5.151    10.443  150.4    1.23  157.14 261.2    1.60    31.5  224.5      15.0  0.7713   0.5655   0.009 0.020      0  274828.9688    81.1  0.20000 
 957.800   957.652  -0.1     -9.088     5.153    10.447  150.4    1.09  156.57 263.4    2.16    31.5  224.5    -999.3  0.7497   0.5945   0.009 0.017      0  274828.9688    81.0  0.20000 
 958.000   957.852  -0.1     -9.091     5.154    10.451  150.4    1.16  156.04 265.6    2.19    31.5  224.6      10.0  0.7266   0.6227   0.010 0.018      0  274826.0313    80.9  0.20000 
 958.200   958.052  -0.1     -9.095     5.156    10.455  150.5    1.25  156.57 267.9    2.26    31.5  224.6      25.0  0.7014   0.6507   0.011 0.019      0  274820.2813    80.8  0.20000 
 958.400   958.252  -0.1     -9.099     5.158    10.460  150.5    1.24  152.58 270.0    2.14    31.5  224.7      25.0  0.6771   0.6768   0.013 0.017      0  274828.9688    80.8  0.20000 
 958.600   958.452  -0.1     -9.103     5.160    10.464  150.5    1.21  156.99 272.1    2.15    31.5  224.6      75.0  0.6518   0.7025   0.012 0.017      0  274828.9688    80.9  0.20000 
 958.800   958.652  -0.1     -9.107     5.161    10.467  150.5    1.07  155.25 273.7    1.59    31.5  224.7      25.0  0.6300   0.7178   0.012 0.015      0  274826.0938    81.0  0.10000 
 959.000   958.852  -0.1     -9.111     5.163    10.472  150.5    1.26  157.23 275.0    1.30    31.5  224.7      20.0  0.6139   0.7324   0.014 0.017      0  274823.1563    81.1  0.20000 
 959.200   959.052  -0.1     -9.114     5.164    10.476  150.5    1.16  158.22 276.7    1.64    31.4  224.7      10.0  0.5911   0.7475   0.013 0.016      0  274823.1563    81.1  0.20000 
 959.400   959.252  -0.1     -9.119     5.166    10.481  150.5    1.45  158.20 278.7    2.03    31.4  224.7      65.0  0.5637   0.7672   0.017 0.019      0  274826.0938    81.1  0.20000 
