~Version Information
 VERS.                2.0:  CWLS LOG ASCII STANDARD -VERSION 2.0
 WRAP.                 NO:  ONE LINE PER DEPTH STEP
~WELL INFORMATION BLOCK
#MNEM.UNIT       DATA		            DESCRIPTION OF MNEMONIC
#---------    -------------            ------------------------
 STRT.FT  -3.600                         :START DEPTH
 STOP.FT  1314.400                       :STOP DEPTH
 STEP.FT  0.200                          :STEP  DOWN_HOLE  
 NULL.    -999.25                        :NULL VALUE
 COMP.    USGS                           :COMPANY
 WELL.    USGS 145                                                     :WELL
 FLD .    INL                            :FIELD\LOCATION
 LOC .                                   :LOCATION
 CNTY.    BUTTE                          :COUNTY
 STAT.    IDAHO                          :STATE
 CTRY.    USA                            :COUNTRY
 SRVC.    USGS                           :SERVICE COMPANY
 DATE.    07/16/2018                     :LOG DATE
 API .   CAL. 2017                           :API NUMBER
 LIC .    USGS                           :LICENSE NUMBER
~Curve Information Block
#MNEM.UNIT      API CODE     Curve Description
#---------    -------------  ------------------------
 DEPT     .FT        00 001 00 00          :  1  DEPTH   
 T DEPTH  .FT        00 960 00 00          :  2  TRUE DEPTH          
 D DIFF   .FT        00 000 00 00          :  3  DEPTH DIFFERENCE    
 N DEV    .FT        00 000 00 00          :  4  NORTH DEVIATION     
 E DEV    .FT        00 000 00 00          :  5  EAST DEVIATION      
 DISTANCE .FT        00 000 00 00          :  6  DEVIATED DISTANCE   
 AZIMUTH  .DEG       00 630 00 00          :  7  DEVIATED AZIMUTH    
 SANG     .DEG       00 620 00 00          :  8  SAMPLE SLANT ANGLE  
 SANGB    .DEG       00 631 00 00          :  9  SAMPLE ANG BEARING  
 TOOLFACE .DEG       00 000 00 00          : 10  TOOLFACE            
 DELT TF  .DEG       00 000 00 00          : 11  DELT TF             
 GYRO     .VOLTS     00 000 00 00          : 12  GYRO                
 PAD1-AZ  .DEG       00 632 00 00          : 13  SAMPLE PAD 1 AZIM   
 GAMMA    .CPS       00 310 00 00          : 14  GAMMA RAY           
 COS-GYRO .AMPL      00 000 00 00          : 15  COS-GYRO            
 SIN-GYRO .AMPL      00 000 00 00          : 16  SIN-GYRO            
 XINCL    .AMPL      00 000 00 00          : 17  XINCL               
 YINCL    .AMPL      00 000 00 00          : 18  YINCL               
 CAGE     .VOLTS     00 000 00 00          : 19  CAGE                
 MAG-VECT .AMPL      00 000 00 00          : 20  MAG-VECT            
 TENSION  .CPS       00 000 00 00          : 21  LINE TENSION        
 TIME     .MINUTES   00 000 00 00          : 22  TIME                
~Parameter Information Block
#MNEM.UNIT   Information     Description
#---------- ---------------  ------------------------
 FILE.      PROCESSED          :File Type
 FIID.      9095C              :File Type Identifier
 VERS.      3.60E              :System Version
 SER .      1                  :System Serial Number
 TRUK.      0.25               :Truck Calibration Number
 TOOL.        1203             :Tool Serial Number
 TIME.      1519               :Time    HrHrMinMin
 LAT .                         :Latitude
 LON .                         :Longitude
 LMF .      LSD                :Log Measured From
 DMF .      LSD                :Driller Measured From
 PD  .                         :Permanent Data
 PDEV.                         :Elevation Permanent Data
 EKB .M                        :Elevation Kelly Bushing
 ELEV.DF                       :Elevation DF
 EGL .M                        :Elevation Ground Level
 DRDP.      1368               :Driller's Depth
 CASD.      10.                :Casing Diameter
 CASB.      1328               :Casing Bottom
 CASX.      SURFACE            :Casing Type
 CAST.      .25                :Casing Thickness
 TNOC.                         :Time Circulation Stopped
 LOGU.      USGS               :Logging Unit
 RECB.      MJG                :Recorded By
 OSR1.      0024               :Other Services
 OSR2.       9057              :Other Services
 OSR3.                         :Other Services
 BS  .IN         3.9           :Bit Size
 MST .      SH                 :Mean Surface Temperature
 TGRD.                         :Temperature Gradiant
 MAGN.        12.500           :Magnetic Declination
 MDEN.      2.65               :Density Matrix
 MATR.      SANDSTONE          :Neutron Matrix
 DTMT.      54                 :Delta T Matrix
 DTFL.                         :Delta T Fluid
 MUDS.      FLOW LINE          :Mud Sample Source
 MRS .      .179               :Mud Resistivity
 MTP .      68.5               :Mud Temperature
 MFRS.                         :Resistivity Mud Filtrate
 MFTP.                         :Temperature Mud Filtrate
 MCRS.                         :Resistivity Mud Cake
 MCTP.                         :Temperature Mud Cake
 FTYP.      AIR                :Fluid Type
 FD  .LB/G    NA               :Mud Weight
 DFV .S                        :Fluid Viscosity
 FPH .                         :Fuild PH
 ELCO.      99999              :Electron Cutoff
 CASL.      3.5                :Casing Logger
 LOTD.      1328               :Logger TD
 ARTM.      12:20              :Arrival Time
 DPTM.                         :Departure Time
 RIGN.                         :Rig Number
~Other Information
#MNEM.UNIT  Information      Description
#---------- ---------------  ------------------------
# -------------------------- 
~A DEPTH  T DEPTH   D DIFF N DEV     E DEV     DISTANCE  AZIMUTH SANG   SANGB  TOOLFACE DELT TF GYRO  PAD1-AZ GAMMA    COS-GYRO SIN-GYRO XINCL YINCL CAGE    MAG-VECT TENSION  TIME    
# ...
 607.000   606.923  -0.1     -2.373     3.302     4.067  125.7    1.26  151.82 316.3    0.34    31.4  225.4      50.0  -0.0208  0.9501   0.022 0.002      0  274843.4063    80.1  0.10000 
 607.200   607.123  -0.1     -2.377     3.305     4.071  125.7    1.33  152.36 316.5    0.23    31.4  225.4      35.0  -0.0246  0.9506   0.023 0.002      0  274843.4063    80.0  0.20000 
 607.400   607.323  -0.1     -2.381     3.307     4.075  125.8    1.26  153.96 316.8    0.28    31.4  225.4      40.0  -0.0292  0.9520   0.022 0.002      0  274843.4063    80.0  0.20000 
 607.600   607.523  -0.1     -2.385     3.309     4.079  125.8    1.34  154.32 317.3    0.52    31.4  225.4      25.0  -0.0379  0.9522   0.023 0.002      0  274840.5313    80.1  0.20000 
 607.800   607.723  -0.1     -2.389     3.311     4.083  125.8    1.29  151.66 318.1    0.86    31.4  225.4      45.0  -0.0521  0.9516   0.022 0.001      0  274840.5313    80.1  0.20000 
 608.000   607.923  -0.1     -2.393     3.313     4.087  125.8    1.28  152.80 318.7    0.58    31.4  225.4      40.0  -0.0618  0.9513   0.022 0.001      0  274834.7500    80.1  0.20000 
 608.200   608.123  -0.1     -2.397     3.315     4.091  125.9    1.35  153.35 319.1    0.37    31.4  225.4      15.0  -0.0679  0.9498   0.024 0.001      0  274837.6563    80.0  0.10000 
 608.400   608.323  -0.1     -2.401     3.317     4.095  125.9    1.28  150.13 319.4    0.36    31.4  225.4      25.0  -0.0737  0.9482   0.022 -0.000      0  274837.6563    80.0  0.20000 
 608.600   608.523  -0.1     -2.405     3.319     4.099  125.9    1.30  153.87 319.5    0.05    31.4  225.4      30.0  -0.0746  0.9490   0.023 0.001      0  274843.4063    79.9  0.20000 
 608.800   608.722  -0.1     -2.409     3.321     4.103  126.0    1.32  154.30 319.6    0.12    31.4  225.4      25.0  -0.0766  0.9481   0.023 0.001      0  274837.6563    79.9  0.20000 
 609.000   608.922  -0.1     -2.413     3.323     4.107  126.0    1.29  151.98 319.9    0.26    31.3  225.4      50.0  -0.0806  0.9455   0.023 0.000      0  274843.4063    79.9  0.20000 
 609.200   609.122  -0.1     -2.417     3.325     4.111  126.0    1.27  152.25 320.1    0.25    31.3  225.4      25.0  -0.0846  0.9428   0.022 0.000      0  274843.4063    80.0  0.20000 
 609.400   609.322  -0.1     -2.421     3.327     4.115  126.0    1.32  152.72 320.5    0.33    31.3  225.4      45.0  -0.0903  0.9447   0.023 0.000      0  274843.4063    80.0  0.10000 
 609.600   609.522  -0.1     -2.426     3.329     4.119  126.1    1.33  154.85 320.5    0.08    31.4  225.4      45.0  -0.0918  0.9464   0.023 0.001      0  274843.4063    80.1  0.20000 
 609.800   609.722  -0.1     -2.430     3.331     4.123  126.1    1.31  152.91 320.8    0.28    31.4  225.4      20.0  -0.0966  0.9479   0.023 0.000      0  274843.4063    80.1  0.20000 
 610.000   609.922  -0.1     -2.434     3.334     4.127  126.1    1.30  152.38 321.2    0.34    31.4  225.4      25.0  -0.1021  0.9466   0.023 0.000      0  274843.4063    80.1  0.20000 
 610.200   610.122  -0.1     -2.438     3.336     4.132  126.2    1.31  151.86 321.3    0.18    31.4  225.5      15.0  -0.1050  0.9451   0.023 -0.000      0  274843.4063    80.0  0.20000 
 610.400   610.322  -0.1     -2.442     3.338     4.136  126.2    1.32  152.17 321.3    -0.03   31.4  225.5      30.0  -0.1046  0.9463   0.023 -0.000      0  274843.4063    80.0  0.20000 
 610.600   610.522  -0.1     -2.446     3.340     4.140  126.2    1.34  152.38 321.2    -0.14   31.4  225.5       5.0  -0.1022  0.9469   0.023 0.000      0  274843.4063    80.0  0.10000 
 610.800   610.722  -0.1     -2.450     3.342     4.144  126.2    1.34  152.18 321.0    -0.20   31.3  225.5      10.0  -0.0986  0.9446   0.023 0.000      0  274831.8438    80.1  0.20000 
 611.000   610.922  -0.1     -2.454     3.344     4.148  126.3    1.28  153.67 320.5    -0.47   31.3  225.4      50.0  -0.0907  0.9440   0.022 0.001      0  274831.8438    80.1  0.20000 
 611.200   611.122  -0.1     -2.458     3.346     4.152  126.3    1.29  153.94 320.1    -0.41   31.3  225.4      45.0  -0.0837  0.9433   0.023 0.001      0  274831.8438    80.1  0.20000 
 611.400   611.322  -0.1     -2.462     3.348     4.156  126.3    1.34  153.47 319.9    -0.21   31.2  225.4      60.0  -0.0801  0.9418   0.023 0.001      0  274837.5938    80.2  0.20000 
 611.600   611.522  -0.1     -2.466     3.350     4.160  126.4    1.30  152.97 319.6    -0.22   31.2  225.4      55.0  -0.0765  0.9425   0.023 0.001      0  274837.5938    80.2  0.20000 
 611.800   611.722  -0.1     -2.471     3.352     4.164  126.4    1.33  152.90 319.6    -0.01   31.3  225.4      50.0  -0.0763  0.9433   0.023 0.001      0  274837.5938    80.2  0.10000 
 612.000   611.922  -0.1     -2.475     3.355     4.169  126.4    1.31  152.48 319.5    -0.10   31.3  225.4      35.0  -0.0747  0.9439   0.023 0.001      0  274837.5938    80.2  0.20000 
 612.200   612.122  -0.1     -2.479     3.357     4.173  126.4    1.32  152.01 319.2    -0.29   31.3  225.4      30.0  -0.0701  0.9458   0.023 0.001      0  274837.5938    80.3  0.20000 
 612.400   612.321  -0.1     -2.483     3.359     4.177  126.5    1.37  152.49 318.9    -0.30   31.3  225.5      35.0  -0.0652  0.9472   0.024 0.001      0  274837.5938    80.3  0.20000 
 612.600   612.521  -0.1     -2.487     3.361     4.181  126.5    1.30  153.04 318.3    -0.62   31.4  225.4      20.0  -0.0552  0.9518   0.023 0.001      0  274837.5938    80.1  0.20000 
 612.800   612.721  -0.1     -2.491     3.363     4.185  126.5    1.35  153.93 317.6    -0.70   31.4  225.4      75.0  -0.0435  0.9522   0.023 0.002      0  274837.5938    80.2  0.20000 
 613.000   612.921  -0.1     -2.495     3.366     4.190  126.5    1.32  141.65 317.0    -0.57   31.5  225.5      50.0  -0.0341  0.9539   0.023 -0.003      0  274831.8438    80.2  0.10000 
 613.200   613.121  -0.1     -2.499     3.368     4.194  126.6    1.32  154.38 316.4    -0.66   31.4  225.4      25.0  -0.0231  0.9533   0.023 0.003      0  274831.8438    80.2  0.20000 
 613.400   613.321  -0.1     -2.503     3.370     4.198  126.6    1.34  153.25 315.7    -0.67   31.4  225.4      10.0  -0.0120  0.9506   0.023 0.003      0  274834.7500    80.2  0.20000 
 613.600   613.521  -0.1     -2.507     3.372     4.202  126.6    1.33  153.69 315.1    -0.67   31.4  225.4      30.0  -0.0009  0.9510   0.023 0.003      0  274834.7188    80.3  0.20000 
 613.800   613.721  -0.1     -2.511     3.374     4.206  126.7    1.34  153.27 314.5    -0.52   31.4  225.4      15.0  0.0078   0.9524   0.023 0.003      0  274837.5938    80.4  0.20000 
 614.000   613.921  -0.1     -2.516     3.376     4.210  126.7    1.31  153.85 314.1    -0.47   31.5  225.3      25.0  0.0156   0.9546   0.023 0.003      0  274843.4063    80.4  0.20000 
 614.200   614.121  -0.1     -2.520     3.378     4.214  126.7    1.34  153.86 313.7    -0.32   31.5  225.4      35.0  0.0209   0.9558   0.023 0.004      0  274843.4063    80.3  0.10000 
 614.400   614.321  -0.1     -2.524     3.380     4.219  126.7    1.34  153.94 313.5    -0.25   31.5  225.4      70.0  0.0251   0.9544   0.023 0.004      0  274843.4063    80.4  0.20000 
 614.600   614.521  -0.1     -2.528     3.382     4.223  126.8    1.31  154.23 313.0    -0.45   31.5  225.3     130.0  0.0326   0.9551   0.023 0.004      0  274843.4063    80.4  0.20000 
 614.800   614.721  -0.1     -2.532     3.384     4.227  126.8    1.33  153.36 312.9    -0.19   31.5  225.3      85.0  0.0358   0.9557   0.023 0.004      0  274843.4063    80.3  0.20000 
 615.000   614.921  -0.1     -2.536     3.386     4.231  126.8    1.33  153.60 312.7    -0.12   31.5  225.3      20.0  0.0378   0.9550   0.023 0.004      0  274837.6563    80.2  0.20000 
 615.200   615.121  -0.1     -2.541     3.389     4.235  126.9    1.34  153.02 312.6    -0.16   31.5  225.4      25.0  0.0404   0.9544   0.023 0.004      0  274837.6563    80.1  0.20000 
 615.400   615.321  -0.1     -2.545     3.391     4.239  126.9    1.34  153.13 312.7    0.11    31.5  225.4      30.0  0.0386   0.9539   0.023 0.004      0  274837.6563    80.0  0.10000 
