~Version Information
 VERS.                2.0:  CWLS LOG ASCII STANDARD -VERSION 2.0
 WRAP.                 NO:  ONE LINE PER DEPTH STEP
~WELL INFORMATION BLOCK
#MNEM.UNIT       DATA		            DESCRIPTION OF MNEMONIC
#---------    -------------            ------------------------
 STRT.FT  -4.400                         :START DEPTH
 STOP.FT  1314.600                       :STOP DEPTH
 STEP.FT  0.200                          :STEP    UP_HOLE  
 NULL.    -999.25                        :NULL VALUE
 COMP.    USGS                           :COMPANY
 WELL.    USGS 145                                                     :WELL
 FLD .    INL                            :FIELD\LOCATION
 LOC .                                   :LOCATION
 CNTY.    BUTTE                          :COUNTY
 STAT.    IDAHO                          :STATE
 CTRY.    USA                            :COUNTRY
 SRVC.    USGS                           :SERVICE COMPANY
 DATE.    07/16/2018                     :LOG DATE
 API .   CAL. 2017                           :API NUMBER
 LIC .    USGS                           :LICENSE NUMBER
~Curve Information Block
#MNEM.UNIT      API CODE     Curve Description
#---------    -------------  ------------------------
 DEPT     .FT        00 001 00 00          :  1  DEPTH   
 SANG     .DEG       00 620 00 00          :  2  SAMPLE SLANT ANGLE  
 SANGB    .DEG       00 631 00 00          :  3  SAMPLE ANG BEARING  
 TOOLFACE .DEG       00 000 00 00          :  4  TOOLFACE            
 DELT TF  .DEG       00 000 00 00          :  5  DELT TF             
 GYRO     .VOLTS     00 000 00 00          :  6  GYRO                
 PAD1-AZ  .DEG       00 632 00 00          :  7  SAMPLE PAD 1 AZIM   
 GAMMA    .CPS       00 310 00 00          :  8  GAMMA RAY           
 COS-GYRO .AMPL      00 000 00 00          :  9  COS-GYRO            
 SIN-GYRO .AMPL      00 000 00 00          : 10  SIN-GYRO            
 XINCL    .AMPL      00 000 00 00          : 11  XINCL               
 YINCL    .AMPL      00 000 00 00          : 12  YINCL               
 CAGE     .VOLTS     00 000 00 00          : 13  CAGE                
 MAG-VECT .AMPL      00 000 00 00          : 14  MAG-VECT            
 MSANGB   .DEG       00 000 00 00          : 15  MSANGB              
 TIME     .MINUTES   00 000 00 00          : 16  TIME                
~Parameter Information Block
#MNEM.UNIT   Information     Description
#---------- ---------------  ------------------------
 FILE.      PROCESSED          :File Type
 FIID.      9095C              :File Type Identifier
 VERS.      3.60E              :System Version
 SER .      1                  :System Serial Number
 TRUK.      0.25               :Truck Calibration Number
 TOOL.        1203             :Tool Serial Number
 TIME.      1600               :Time    HrHrMinMin
 LAT .                         :Latitude
 LON .                         :Longitude
 LMF .      LSD                :Log Measured From
 DMF .      LSD                :Driller Measured From
 PD  .                         :Permanent Data
 PDEV.                         :Elevation Permanent Data
 EKB .M                        :Elevation Kelly Bushing
 ELEV.DF                       :Elevation DF
 EGL .M                        :Elevation Ground Level
 DRDP.      1368               :Driller's Depth
 CASD.      10.                :Casing Diameter
 CASB.      1328               :Casing Bottom
 CASX.      SURFACE            :Casing Type
 CAST.      .25                :Casing Thickness
 TNOC.                         :Time Circulation Stopped
 LOGU.      USGS               :Logging Unit
 RECB.      MJG                :Recorded By
 OSR1.      0024               :Other Services
 OSR2.       9057              :Other Services
 OSR3.                         :Other Services
 BS  .IN         3.9           :Bit Size
 MST .      SH                 :Mean Surface Temperature
 TGRD.                         :Temperature Gradiant
 MAGN.      0                  :Magnetic Declination
 MDEN.      2.65               :Density Matrix
 MATR.      SANDSTONE          :Neutron Matrix
 DTMT.      54                 :Delta T Matrix
 DTFL.                         :Delta T Fluid
 MUDS.      FLOW LINE          :Mud Sample Source
 MRS .      .179               :Mud Resistivity
 MTP .      68.5               :Mud Temperature
 MFRS.                         :Resistivity Mud Filtrate
 MFTP.                         :Temperature Mud Filtrate
 MCRS.                         :Resistivity Mud Cake
 MCTP.                         :Temperature Mud Cake
 FTYP.      AIR                :Fluid Type
 FD  .LB/G    NA               :Mud Weight
 DFV .S                        :Fluid Viscosity
 FPH .                         :Fuild PH
 ELCO.      99999              :Electron Cutoff
 CASL.      3.5                :Casing Logger
 LOTD.      1328               :Logger TD
 ARTM.      12:20              :Arrival Time
 DPTM.                         :Departure Time
 RIGN.                         :Rig Number
~Other Information
#MNEM.UNIT  Information      Description
#---------- ---------------  ------------------------
# -------------------------- 
~A DEPTH  SANG   SANGB  TOOLFACE DELT TF GYRO  PAD1-AZ GAMMA    COS-GYRO SIN-GYRO XINCL YINCL CAGE    MAG-VECT MSANGB TIME    
# ...
1209.600   1.21  159.31  9.4     -0.29   31.7  225.6      50.0  -0.7853  0.5624   0.018 -0.011      0  274820.2813 255.70 0.20000 
1209.800   1.30  158.82  9.7     -0.20   31.7  225.7     130.0  -0.7880  0.5583   0.019 -0.012      0  274820.2813 256.54 0.20000 
1210.000   1.37  159.40  9.9     -0.04   31.7  225.7      70.0  -0.7908  0.5561   0.021 -0.012      0  274820.2813 256.22 0.10000 
1210.200   1.31  158.73  9.9     -0.04   31.6  225.7      60.0  -0.7885  0.5537   0.020 -0.012      0  274820.2813 256.89 0.20000 
1210.400   1.29  158.18 10.0     0.04    31.7  225.7     195.0  -0.7898  0.5538   0.019 -0.012      0  274826.0313 257.46 0.20000 
1210.600   1.36  160.18  9.9     -0.20   31.6  225.7     175.0  -0.7877  0.5532   0.021 -0.012      0  274823.1875 255.46 0.20000 
1210.800   1.26  159.45 10.1     -0.19   31.6  225.6     160.0  -0.7909  0.5512   0.019 -0.011      0  274823.1563 256.33 0.10000 
1211.000   1.32  159.84 10.3     0.07    31.7  225.7     135.0  -0.7936  0.5493   0.020 -0.012      0  274823.1563 256.17 0.20000 
1211.200   1.41  158.93 10.2     0.36    31.7  225.8     150.0  -0.7935  0.5507   0.021 -0.013      0  274820.2813 257.07 0.20000 
1211.400   1.31  159.14  9.9     0.71    31.7  225.7     135.0  -0.7899  0.5556   0.020 -0.012      0  274826.0313 256.43 0.20000 
1211.600   1.47  160.85  9.2     0.62    31.7  225.8     200.0  -0.7838  0.5659   0.023 -0.012      0  274826.0625 254.11 0.10000 
1211.800   1.11  158.54  8.6     0.63    31.8  225.5     150.0  -0.7799  0.5759   0.017 -0.010      0  274814.5313 255.57 0.20000 
1212.000   1.34  159.49  7.9     1.21    31.8  225.7      85.0  -0.7728  0.5840   0.021 -0.011      0  274820.2813 254.13 0.20000 
1212.200   1.33  159.58  6.7     1.48    31.7  225.7     140.0  -0.7583  0.5986   0.021 -0.011      0  274826.0625 252.82 0.10000 
1212.400   1.38  159.02  5.2     1.24    31.6  225.7     195.0  -0.7409  0.6165   0.022 -0.011      0  274823.1563 251.94 0.20000 
1212.600   1.27  159.10  4.0     1.16    31.6  225.6     195.0  -0.7263  0.6314   0.020 -0.009      0  274820.2813 250.54 0.20000 
1212.800   1.33  158.86  2.8     1.52    31.6  225.7      70.0  -0.7128  0.6454   0.021 -0.009      0  274823.1875 249.65 0.20000 
1213.000   1.40  159.12  1.3     -358.55 31.6  225.7     160.0  -0.6962  0.6648   0.023 -0.009      0  274823.1563 247.91 0.10000 
1213.200   1.30  159.04 359.9    0.93    31.5  225.6     120.0  -0.6771  0.6803   0.021 -0.008      0  274823.1563 246.46 0.20000 
1213.400   1.36  158.75 358.9    0.65    31.5  225.7     145.0  -0.6654  0.6905   0.022 -0.008      0  274831.8125 245.86 0.20000 
1213.600   1.33  159.03 358.3    0.53    31.6  225.6      60.0  -0.6603  0.7011   0.022 -0.008      0  274820.2813 244.89 0.20000 
1213.800   1.33  159.16 357.8    0.17    31.7  225.6     120.0  -0.6555  0.7091   0.022 -0.007      0  274820.2813 244.24 0.10000 
1214.000   1.32  159.15 357.6    -0.05   31.7  225.6     140.0  -0.6537  0.7112   0.022 -0.007      0  274820.2813 244.06 0.20000 
1214.200   1.30  159.14 357.6    -0.35   31.7  225.6     200.0  -0.6540  0.7105   0.022 -0.007      0  274831.8125 244.11 0.20000 
1214.400   1.32  160.10 358.0    -1.06   31.7  225.6     150.0  -0.6593  0.7074   0.022 -0.007      0  274823.1563 243.51 0.20000 
1214.600   1.33  160.61 359.0    358.51  31.7  225.6     100.0  -0.6710  0.6938   0.022 -0.007      0  274820.2813 244.07 0.10000 
1214.800   1.34  161.19  0.5     -2.27   31.7  225.6     130.0  -0.6886  0.6760   0.022 -0.008      0  274820.2813 245.00 0.20000 
1215.000   1.34  162.04  2.8     -4.25   31.7  225.7     140.0  -0.7142  0.6475   0.022 -0.008      0  274826.0625 246.42 0.20000 
1215.200   1.29  162.37  7.1     -5.61   31.7  225.6     130.0  -0.7610  0.5933   0.020 -0.009      0  274820.2813 250.33 0.10000 
1215.400   1.40  161.18 12.7     -4.61   31.7  225.7     120.0  -0.8166  0.5170   0.021 -0.013      0  274826.0625 257.24 0.20000 
1215.600   1.32  159.18 17.3     -4.34   31.7  225.7     150.0  -0.8572  0.4506   0.018 -0.014      0  274820.2813 263.80 0.20000 
1215.800   1.34  159.03 21.6     -5.14   31.8  225.7      75.0  -0.8912  0.3855   0.017 -0.016      0  274826.0625 268.31 0.20000 
1216.000   1.39  159.08 26.7     -4.47   31.7  225.8     120.0  -0.9209  0.3037   0.016 -0.018      0  274823.1563 273.43 0.10000 
1216.200   1.29  159.41 31.2     -2.87   31.7  225.7     150.0  -0.9415  0.2310   0.014 -0.018      0  274820.2813 277.49 0.20000 
1216.400   1.27  161.14 34.1     -2.25   31.8  225.7     140.0  -0.9540  0.1840   0.013 -0.018      0  274826.0313 278.61 0.20000 
1216.600   1.37  160.41 36.3     -2.63   31.7  225.7     205.0  -0.9601  0.1464   0.013 -0.020      0  274826.0313 281.66 0.20000 
1216.800   1.34  160.53 39.0     -2.41   31.8  225.7      70.0  -0.9673  0.1023   0.012 -0.020      0  274823.1563 284.14 0.10000 
1217.000   1.38  161.00 41.4     -1.46   31.7  225.7      90.0  -0.9684  0.0615   0.012 -0.021      0  274820.2813 286.08 0.20000 
1217.200   1.32  161.96 42.8     -1.02   31.7  225.7     165.0  -0.9684  0.0367   0.011 -0.020      0  274820.2813 286.54 0.20000 
1217.400   1.35  161.87 43.9     -0.66   31.7  225.7     130.0  -0.9703  0.0195   0.011 -0.021      0  274820.2813 287.68 0.20000 
1217.600   1.37  161.84 44.5     0.13    31.7  225.7     240.0  -0.9697  0.0083   0.011 -0.021      0  274820.2813 288.37 0.10000 
1217.800   1.39  161.92 44.4     0.87    31.7  225.7     175.0  -0.9711  0.0104   0.011 -0.022      0  274820.2813 288.18 0.20000 
1218.000   1.37  161.44 43.5     2.46    31.7  225.7     170.0  -0.9719  0.0253   0.011 -0.021      0  274820.2813 287.77 0.20000 
1218.200   1.38  160.75 41.1     4.56    31.7  225.7      70.0  -0.9677  0.0668   0.012 -0.021      0  274823.1563 286.02 0.10000 
1218.400   1.40  159.83 36.5     5.20    31.7  225.7     145.0  -0.9600  0.1437   0.013 -0.020      0  274823.1563 282.40 0.20000 
1218.600   1.40  159.12 31.3     7.29    31.7  225.8     165.0  -0.9401  0.2294   0.015 -0.019      0  274820.2813 277.93 0.20000 
1218.800   1.40  157.28 24.0     13.24   31.7  225.8     155.0  -0.9005  0.3457   0.017 -0.018      0  274817.4063 272.50 0.20000 
1219.000   1.54  156.87 10.8     -341.91 31.6  225.9     160.0  -0.7917  0.5389   0.022 -0.015      0  274823.1563 259.75 0.10000 
1219.200   1.49  159.88 352.7    15.33   31.5  225.7     100.0  -0.5829  0.7553   0.025 -0.006      0  274820.2813 238.48 0.20000 
1219.400   1.44  160.56 337.3    16.06   31.6  225.5     135.0  -0.3652  0.8892   0.025 0.001      0  274820.2813 222.25 0.20000 
1219.600   1.55  160.73 321.3    22.26   31.6  225.3     125.0  -0.1044  0.9499   0.025 0.009      0  274826.0625 205.82 0.20000 
1219.800   1.60  161.32 299.0    23.09   31.6  224.9     130.0  0.2630   0.9183   0.021 0.019      0  274826.0625 182.53 0.10000 
1220.000   1.53  159.52 275.9    17.30   31.5  224.4     150.0  0.5992   0.7382   0.012 0.024      0  274828.9375 160.84 0.20000 
1220.200   1.45  155.11 258.6    17.73   31.5  224.2     185.0  0.7964   0.5297   0.006 0.025      0  274820.2813 147.75 0.20000 
1220.400   1.46  150.76 240.9    24.58   31.6  224.0      85.0  0.9188   0.2616   0.000 0.026      0  274823.1563 134.17 0.20000 
1220.600   1.37  151.68 216.3    18.81   31.7  223.9      50.0  0.9433   -0.1442  -0.010 0.022      0  274823.1563 108.50 0.10000 
1220.800   1.61  152.69 197.5    18.99   31.6  223.6     155.0  0.8449   -0.4398  -0.020 0.020      0  274820.2813 88.47  0.20000 
1221.000   1.36  154.62 178.5    24.44   31.6  223.9     100.0  0.6504   -0.6852  -0.022 0.010      0  274823.1563 67.80  0.20000 
1221.200   1.23  155.67 154.1    21.47   31.6  224.2     170.0  0.3087   -0.8934  -0.021 -0.001      0  274820.2813 42.60  0.10000 
1221.400   1.18  155.07 132.6    14.39   31.6  224.5     145.0  -0.0399  -0.9483  -0.019 -0.008      0  274820.2813 22.00  0.20000 
1221.600   1.33  155.83 118.2    13.56   31.6  224.7     100.0  -0.2753  -0.9119  -0.018 -0.014      0  274820.2813  7.04  0.20000 
1221.800   1.28  155.31 104.6    16.40   31.6  224.9     180.0  -0.4810  -0.8211  -0.014 -0.017      0  274820.2813 354.21 0.20000 
