~Version Information
 VERS.                2.0:  CWLS LOG ASCII STANDARD -VERSION 2.0
 WRAP.                 NO:  ONE LINE PER DEPTH STEP
~WELL INFORMATION BLOCK
#MNEM.UNIT       DATA		            DESCRIPTION OF MNEMONIC
#---------    -------------            ------------------------
 STRT.FT  -3.600                         :START DEPTH
 STOP.FT  1314.400                       :STOP DEPTH
 STEP.FT  0.200                          :STEP  DOWN_HOLE  
 NULL.    -999.25                        :NULL VALUE
 COMP.    USGS                           :COMPANY
 WELL.    USGS 145                                                     :WELL
 FLD .    INL                            :FIELD\LOCATION
 LOC .                                   :LOCATION
 CNTY.    BUTTE                          :COUNTY
 STAT.    IDAHO                          :STATE
 CTRY.    USA                            :COUNTRY
 SRVC.    USGS                           :SERVICE COMPANY
 DATE.    07/16/2018                     :LOG DATE
 API .   CAL. 2017                           :API NUMBER
 LIC .    USGS                           :LICENSE NUMBER
~Curve Information Block
#MNEM.UNIT      API CODE     Curve Description
#---------    -------------  ------------------------
 DEPT     .FT        00 001 00 00          :  1  DEPTH   
 T DEPTH  .FT        00 960 00 00          :  2  TRUE DEPTH          
 D DIFF   .FT        00 000 00 00          :  3  DEPTH DIFFERENCE    
 N DEV    .FT        00 000 00 00          :  4  NORTH DEVIATION     
 E DEV    .FT        00 000 00 00          :  5  EAST DEVIATION      
 DISTANCE .FT        00 000 00 00          :  6  DEVIATED DISTANCE   
 AZIMUTH  .DEG       00 630 00 00          :  7  DEVIATED AZIMUTH    
 SANG     .DEG       00 620 00 00          :  8  SAMPLE SLANT ANGLE  
 SANGB    .DEG       00 631 00 00          :  9  SAMPLE ANG BEARING  
 TOOLFACE .DEG       00 000 00 00          : 10  TOOLFACE            
 DELT TF  .DEG       00 000 00 00          : 11  DELT TF             
 GYRO     .VOLTS     00 000 00 00          : 12  GYRO                
 PAD1-AZ  .DEG       00 632 00 00          : 13  SAMPLE PAD 1 AZIM   
 GAMMA    .CPS       00 310 00 00          : 14  GAMMA RAY           
 COS-GYRO .AMPL      00 000 00 00          : 15  COS-GYRO            
 SIN-GYRO .AMPL      00 000 00 00          : 16  SIN-GYRO            
 XINCL    .AMPL      00 000 00 00          : 17  XINCL               
 YINCL    .AMPL      00 000 00 00          : 18  YINCL               
 CAGE     .VOLTS     00 000 00 00          : 19  CAGE                
 MAG-VECT .AMPL      00 000 00 00          : 20  MAG-VECT            
 TENSION  .CPS       00 000 00 00          : 21  LINE TENSION        
 TIME     .MINUTES   00 000 00 00          : 22  TIME                
~Parameter Information Block
#MNEM.UNIT   Information     Description
#---------- ---------------  ------------------------
 FILE.      PROCESSED          :File Type
 FIID.      9095C              :File Type Identifier
 VERS.      3.60E              :System Version
 SER .      1                  :System Serial Number
 TRUK.      0.25               :Truck Calibration Number
 TOOL.        1203             :Tool Serial Number
 TIME.      1519               :Time    HrHrMinMin
 LAT .                         :Latitude
 LON .                         :Longitude
 LMF .      LSD                :Log Measured From
 DMF .      LSD                :Driller Measured From
 PD  .                         :Permanent Data
 PDEV.                         :Elevation Permanent Data
 EKB .M                        :Elevation Kelly Bushing
 ELEV.DF                       :Elevation DF
 EGL .M                        :Elevation Ground Level
 DRDP.      1368               :Driller's Depth
 CASD.      10.                :Casing Diameter
 CASB.      1328               :Casing Bottom
 CASX.      SURFACE            :Casing Type
 CAST.      .25                :Casing Thickness
 TNOC.                         :Time Circulation Stopped
 LOGU.      USGS               :Logging Unit
 RECB.      MJG                :Recorded By
 OSR1.      0024               :Other Services
 OSR2.       9057              :Other Services
 OSR3.                         :Other Services
 BS  .IN         3.9           :Bit Size
 MST .      SH                 :Mean Surface Temperature
 TGRD.                         :Temperature Gradiant
 MAGN.        12.500           :Magnetic Declination
 MDEN.      2.65               :Density Matrix
 MATR.      SANDSTONE          :Neutron Matrix
 DTMT.      54                 :Delta T Matrix
 DTFL.                         :Delta T Fluid
 MUDS.      FLOW LINE          :Mud Sample Source
 MRS .      .179               :Mud Resistivity
 MTP .      68.5               :Mud Temperature
 MFRS.                         :Resistivity Mud Filtrate
 MFTP.                         :Temperature Mud Filtrate
 MCRS.                         :Resistivity Mud Cake
 MCTP.                         :Temperature Mud Cake
 FTYP.      AIR                :Fluid Type
 FD  .LB/G    NA               :Mud Weight
 DFV .S                        :Fluid Viscosity
 FPH .                         :Fuild PH
 ELCO.      99999              :Electron Cutoff
 CASL.      3.5                :Casing Logger
 LOTD.      1328               :Logger TD
 ARTM.      12:20              :Arrival Time
 DPTM.                         :Departure Time
 RIGN.                         :Rig Number
~Other Information
#MNEM.UNIT  Information      Description
#---------- ---------------  ------------------------
# -------------------------- 
~A DEPTH  T DEPTH   D DIFF N DEV     E DEV     DISTANCE  AZIMUTH SANG   SANGB  TOOLFACE DELT TF GYRO  PAD1-AZ GAMMA    COS-GYRO SIN-GYRO XINCL YINCL CAGE    MAG-VECT TENSION  TIME    
# ...
 693.000   692.903  -0.1     -4.102     3.931     5.681  136.2    1.13  165.37 180.9    -0.12   31.4  224.0      25.0  0.6764   -0.6551  -0.018 0.009      0  274831.8750    80.3  0.20000 
 693.200   693.103  -0.1     -4.106     3.932     5.685  136.2    1.24  161.85 181.0    0.05    31.4  223.9      35.0  0.6773   -0.6548  -0.019 0.011      0  274826.0938    80.3  0.10000 
 693.400   693.303  -0.1     -4.110     3.934     5.689  136.3    1.15  163.53 181.1    0.08    31.4  224.0      35.0  0.6800   -0.6555  -0.018 0.009      0  274840.5313    80.3  0.20000 
 693.600   693.503  -0.1     -4.113     3.935     5.692  136.3    1.07  164.50 180.6    -0.44   31.5  224.1      40.0  0.6755   -0.6613  -0.017 0.008      0  274837.6250    80.3  0.20000 
 693.800   693.703  -0.1     -4.117     3.936     5.696  136.3    1.22  163.45 180.1    -0.49   31.5  224.0      50.0  0.6705   -0.6678  -0.019 0.010      0  274843.4063    80.3  0.10000 
 694.000   693.903  -0.1     -4.121     3.937     5.699  136.3    1.08  164.37 179.6    -0.49   31.5  224.1      30.0  0.6647   -0.6735  -0.017 0.008      0  274831.8750    80.4  0.20000 
 694.200   694.103  -0.1     -4.125     3.938     5.703  136.3    1.16  164.44 179.1    -0.51   31.5  224.0      30.0  0.6588   -0.6795  -0.018 0.009      0  274831.8750    80.3  0.20000 
 694.400   694.303  -0.1     -4.129     3.939     5.706  136.3    1.13  162.02 179.4    0.28    31.4  224.0      25.0  0.6608   -0.6750  -0.017 0.009      0  274834.7500    80.3  0.20000 
 694.600   694.503  -0.1     -4.132     3.940     5.710  136.4    1.10  160.59 179.6    0.18    31.5  224.0      35.0  0.6632   -0.6732  -0.017 0.009      0  274831.8438    80.3  0.10000 
 694.800   694.703  -0.1     -4.136     3.942     5.713  136.4    1.13  161.91 179.2    -0.39   31.4  224.0      30.0  0.6578   -0.6769  -0.017 0.009      0  274834.7500    80.3  0.20000 
 695.000   694.902  -0.1     -4.140     3.943     5.717  136.4    1.15  166.92 178.8    -0.43   31.4  224.0      70.0  0.6527   -0.6818  -0.019 0.008      0  274828.9688    80.3  0.20000 
 695.200   695.102  -0.1     -4.144     3.944     5.720  136.4    1.14  165.10 179.0    0.20    31.4  224.0      10.0  0.6549   -0.6793  -0.018 0.008      0  274837.6563    80.2  0.10000 
 695.400   695.302  -0.1     -4.147     3.945     5.724  136.4    1.01  161.60 179.2    0.30    31.5  224.1      10.0  0.6594   -0.6769  -0.015 0.008      0  274834.7188    80.2  0.20000 
 695.600   695.502  -0.1     -4.151     3.946     5.727  136.4    1.20  158.02 178.0    -1.23   31.5  224.0      20.0  0.6452   -0.6914  -0.018 0.011      0  274840.5000    80.2  0.20000 
 695.800   695.702  -0.1     -4.154     3.947     5.730  136.5    0.83  163.85 174.7    -3.29   31.5  224.3      10.0  0.6045   -0.7273  -0.013 0.005      0  274843.4063    80.2  0.10000 
 696.000   695.902  -0.1     -4.158     3.948     5.733  136.5    1.18  171.04 170.4    -4.34   31.5  224.1      15.0  0.5485   -0.7720  -0.020 0.004      0  274826.0938    80.1  0.20000 
 696.200   696.102  -0.1     -4.162     3.948     5.737  136.5    1.16  171.07 166.0    -4.36   31.5  224.2      60.0  0.4880   -0.8110  -0.020 0.002      0  274834.7500    80.2  0.20000 
 696.400   696.302  -0.1     -4.166     3.949     5.741  136.5    1.23  164.99 163.8    -2.23   31.5  224.1      20.0  0.4564   -0.8301  -0.021 0.004      0  274837.6250    80.2  0.20000 
 696.600   696.502  -0.1     -4.170     3.951     5.744  136.5    1.12  163.88 162.8    -1.01   31.6  224.2      20.0  0.4419   -0.8384  -0.019 0.003      0  274837.5938    80.1  0.10000 
 696.800   696.702  -0.1     -4.173     3.952     5.748  136.6    1.10  156.88 161.4    -1.38   31.5  224.1      10.0  0.4217   -0.8490  -0.019 0.005      0  274828.9688    80.1  0.20000 
 697.000   696.902  -0.1     -4.177     3.953     5.751  136.6    1.09  159.86 159.3    -2.15   31.5  224.2      40.0  0.3889   -0.8629  -0.019 0.003      0  274840.5000    80.2  0.20000 
 697.200   697.102  -0.1     -4.181     3.954     5.755  136.6    1.25  167.25 157.8    -1.46   31.5  224.2      50.0  0.3665   -0.8719  -0.022 0.000      0  274837.6563    80.2  0.10000 
 697.400   697.302  -0.1     -4.185     3.955     5.758  136.6    1.17  166.96 157.8    -0.02   31.5  224.2       5.0  0.3661   -0.8717  -0.020 0.001      0  274828.9688    80.2  0.20000 
 697.600   697.502  -0.1     -4.189     3.956     5.762  136.6    1.13  163.37 159.3    1.57    31.5  224.2    -999.3  0.3888   -0.8593  -0.020 0.002      0  274834.7500    80.2  0.20000 
 697.800   697.702  -0.1     -4.193     3.957     5.765  136.7    1.11  164.68 160.1    0.79    31.4  224.2      45.0  0.4003   -0.8532  -0.019 0.002      0  274831.8750    80.3  0.20000 
 698.000   697.902  -0.1     -4.196     3.958     5.769  136.7    1.13  168.63 160.1    -0.03   31.5  224.2      40.0  0.4008   -0.8553  -0.020 0.001      0  274837.5938    80.3  0.10000 
 698.200   698.102  -0.1     -4.200     3.959     5.772  136.7    1.07  168.71 160.1    -0.02   31.4  224.2      40.0  0.4002   -0.8548  -0.019 0.001      0  274837.6250    80.2  0.20000 
 698.400   698.302  -0.1     -4.204     3.960     5.775  136.7    1.13  164.81 160.3    0.25    31.5  224.2      30.0  0.4052   -0.8559  -0.020 0.002      0  274831.8750    80.2  0.20000 
 698.600   698.502  -0.1     -4.207     3.961     5.778  136.7    0.96  169.00 160.4    0.04    31.5  224.3      20.0  0.4052   -0.8542  -0.017 0.001      0  274826.0938    80.2  0.10000 
 698.800   698.702  -0.1     -4.212     3.962     5.782  136.8    1.30  163.17 160.0    -0.36   31.5  224.1      10.0  0.3999   -0.8568  -0.023 0.003      0  274837.6250    80.2  0.20000 
 699.000   698.902  -0.1     -4.215     3.963     5.785  136.8    1.05  165.54 158.5    -1.54   31.5  224.2      20.0  0.3764   -0.8664  -0.018 0.001      0  274831.8438    80.2  0.20000 
 699.200   699.102  -0.1     -4.219     3.963     5.789  136.8    1.13  170.65 155.7    -2.81   31.4  224.3      20.0  0.3321   -0.8803  -0.020 -0.002      0  274831.8750    80.2  0.20000 
 699.400   699.302  -0.1     -4.223     3.964     5.792  136.8    1.24  169.65 153.6    -2.09   31.3  224.2      40.0  0.2991   -0.8898  -0.022 -0.002      0  274843.4063    80.1  0.10000 
 699.600   699.502  -0.1     -4.228     3.965     5.796  136.8    1.28  167.98 153.0    -0.61   31.4  224.2      40.0  0.2899   -0.8938  -0.022 -0.002      0  274831.8438    80.1  0.20000 
 699.800   699.702  -0.1     -4.231     3.966     5.800  136.9    1.09  166.85 153.8    0.83    31.4  224.3    -999.3  0.3029   -0.8896  -0.019 -0.001      0  274834.7500    80.1  0.20000 
 700.000   699.901  -0.1     -4.235     3.968     5.804  136.9    1.25  158.18 155.0    1.18    31.3  224.1      25.0  0.3204   -0.8810  -0.022 0.003      0  274826.0938    80.0  0.10000 
 700.200   700.101  -0.1     -4.239     3.969     5.807  136.9    1.11  165.58 154.8    -0.14   31.4  224.2      25.0  0.3192   -0.8849  -0.019 -0.000      0  274840.5000    80.1  0.20000 
 700.400   700.301  -0.1     -4.243     3.970     5.810  136.9    1.15  166.72 152.6    -2.23   31.3  224.3      30.0  0.2843   -0.8956  -0.020 -0.001      0  274834.7500    80.1  0.20000 
 700.600   700.501  -0.1     -4.247     3.970     5.814  136.9    1.28  167.73 150.2    -2.44   31.4  224.3       5.0  0.2464   -0.9086  -0.022 -0.003      0  274834.7500    80.1  0.20000 
 700.800   700.701  -0.1     -4.251     3.971     5.818  137.0    1.15  169.35 148.8    -1.35   31.3  224.3      25.0  0.2243   -0.9115  -0.020 -0.003      0  274831.8438    80.1  0.10000 
 701.000   700.901  -0.1     -4.256     3.972     5.821  137.0    1.22  169.14 147.7    -1.13   31.4  224.3      10.0  0.2067   -0.9176  -0.021 -0.004      0  274837.6250    80.1  0.20000 
 701.200   701.101  -0.1     -4.260     3.973     5.825  137.0    1.21  169.20 146.5    -1.23   31.4  224.3    -999.3  0.1871   -0.9227  -0.021 -0.004      0  274837.6250    79.9  0.20000 
 701.400   701.301  -0.1     -4.264     3.974     5.829  137.0    1.27  167.58 145.4    -1.01   31.4  224.3      35.0  0.1712   -0.9282  -0.022 -0.004      0  274826.0938    79.8  0.10000 
