~Version Information
 VERS.                2.0:  CWLS LOG ASCII STANDARD -VERSION 2.0
 WRAP.                 NO:  ONE LINE PER DEPTH STEP
~WELL INFORMATION BLOCK
#MNEM.UNIT       DATA		            DESCRIPTION OF MNEMONIC
#---------    -------------            ------------------------
 STRT.FT  -3.600                         :START DEPTH
 STOP.FT  1314.400                       :STOP DEPTH
 STEP.FT  0.200                          :STEP  DOWN_HOLE  
 NULL.    -999.25                        :NULL VALUE
 COMP.    USGS                           :COMPANY
 WELL.    USGS 145                                                     :WELL
 FLD .    INL                            :FIELD\LOCATION
 LOC .                                   :LOCATION
 CNTY.    BUTTE                          :COUNTY
 STAT.    IDAHO                          :STATE
 CTRY.    USA                            :COUNTRY
 SRVC.    USGS                           :SERVICE COMPANY
 DATE.    07/16/2018                     :LOG DATE
 API .   CAL. 2017                           :API NUMBER
 LIC .    USGS                           :LICENSE NUMBER
~Curve Information Block
#MNEM.UNIT      API CODE     Curve Description
#---------    -------------  ------------------------
 DEPT     .FT        00 001 00 00          :  1  DEPTH   
 T DEPTH  .FT        00 960 00 00          :  2  TRUE DEPTH          
 D DIFF   .FT        00 000 00 00          :  3  DEPTH DIFFERENCE    
 N DEV    .FT        00 000 00 00          :  4  NORTH DEVIATION     
 E DEV    .FT        00 000 00 00          :  5  EAST DEVIATION      
 DISTANCE .FT        00 000 00 00          :  6  DEVIATED DISTANCE   
 AZIMUTH  .DEG       00 630 00 00          :  7  DEVIATED AZIMUTH    
 SANG     .DEG       00 620 00 00          :  8  SAMPLE SLANT ANGLE  
 SANGB    .DEG       00 631 00 00          :  9  SAMPLE ANG BEARING  
 TOOLFACE .DEG       00 000 00 00          : 10  TOOLFACE            
 DELT TF  .DEG       00 000 00 00          : 11  DELT TF             
 GYRO     .VOLTS     00 000 00 00          : 12  GYRO                
 PAD1-AZ  .DEG       00 632 00 00          : 13  SAMPLE PAD 1 AZIM   
 GAMMA    .CPS       00 310 00 00          : 14  GAMMA RAY           
 COS-GYRO .AMPL      00 000 00 00          : 15  COS-GYRO            
 SIN-GYRO .AMPL      00 000 00 00          : 16  SIN-GYRO            
 XINCL    .AMPL      00 000 00 00          : 17  XINCL               
 YINCL    .AMPL      00 000 00 00          : 18  YINCL               
 CAGE     .VOLTS     00 000 00 00          : 19  CAGE                
 MAG-VECT .AMPL      00 000 00 00          : 20  MAG-VECT            
 TENSION  .CPS       00 000 00 00          : 21  LINE TENSION        
 TIME     .MINUTES   00 000 00 00          : 22  TIME                
~Parameter Information Block
#MNEM.UNIT   Information     Description
#---------- ---------------  ------------------------
 FILE.      PROCESSED          :File Type
 FIID.      9095C              :File Type Identifier
 VERS.      3.60E              :System Version
 SER .      1                  :System Serial Number
 TRUK.      0.25               :Truck Calibration Number
 TOOL.        1203             :Tool Serial Number
 TIME.      1519               :Time    HrHrMinMin
 LAT .                         :Latitude
 LON .                         :Longitude
 LMF .      LSD                :Log Measured From
 DMF .      LSD                :Driller Measured From
 PD  .                         :Permanent Data
 PDEV.                         :Elevation Permanent Data
 EKB .M                        :Elevation Kelly Bushing
 ELEV.DF                       :Elevation DF
 EGL .M                        :Elevation Ground Level
 DRDP.      1368               :Driller's Depth
 CASD.      10.                :Casing Diameter
 CASB.      1328               :Casing Bottom
 CASX.      SURFACE            :Casing Type
 CAST.      .25                :Casing Thickness
 TNOC.                         :Time Circulation Stopped
 LOGU.      USGS               :Logging Unit
 RECB.      MJG                :Recorded By
 OSR1.      0024               :Other Services
 OSR2.       9057              :Other Services
 OSR3.                         :Other Services
 BS  .IN         3.9           :Bit Size
 MST .      SH                 :Mean Surface Temperature
 TGRD.                         :Temperature Gradiant
 MAGN.        12.500           :Magnetic Declination
 MDEN.      2.65               :Density Matrix
 MATR.      SANDSTONE          :Neutron Matrix
 DTMT.      54                 :Delta T Matrix
 DTFL.                         :Delta T Fluid
 MUDS.      FLOW LINE          :Mud Sample Source
 MRS .      .179               :Mud Resistivity
 MTP .      68.5               :Mud Temperature
 MFRS.                         :Resistivity Mud Filtrate
 MFTP.                         :Temperature Mud Filtrate
 MCRS.                         :Resistivity Mud Cake
 MCTP.                         :Temperature Mud Cake
 FTYP.      AIR                :Fluid Type
 FD  .LB/G    NA               :Mud Weight
 DFV .S                        :Fluid Viscosity
 FPH .                         :Fuild PH
 ELCO.      99999              :Electron Cutoff
 CASL.      3.5                :Casing Logger
 LOTD.      1328               :Logger TD
 ARTM.      12:20              :Arrival Time
 DPTM.                         :Departure Time
 RIGN.                         :Rig Number
~Other Information
#MNEM.UNIT  Information      Description
#---------- ---------------  ------------------------
# -------------------------- 
~A DEPTH  T DEPTH   D DIFF N DEV     E DEV     DISTANCE  AZIMUTH SANG   SANGB  TOOLFACE DELT TF GYRO  PAD1-AZ GAMMA    COS-GYRO SIN-GYRO XINCL YINCL CAGE    MAG-VECT TENSION  TIME    
# ...
 254.400   254.393  -0.0      1.477     0.587     1.589  21.7     0.74  30.09   4.5     -0.47   31.1  224.5      30.0  -0.7126  0.6085   -0.012 -0.003      0  274849.1875    79.5  0.20000 
 254.600   254.593  -0.0      1.479     0.588     1.592  21.7     0.70  31.90   4.5     -0.03   31.2  224.6      30.0  -0.7130  0.6094   -0.012 -0.003      0  274843.4063    79.5  0.10000 
 254.800   254.793  -0.0      1.481     0.590     1.594  21.7     0.73  29.29   4.6     0.14    31.2  224.5      15.0  -0.7149  0.6081   -0.012 -0.003      0  274849.1563    79.5  0.20000 
 255.000   254.993  -0.0      1.483     0.591     1.597  21.7     0.70  30.73   5.1     0.53    31.2  224.5      40.0  -0.7214  0.6022   -0.012 -0.003      0  274846.2813    79.5  0.20000 
 255.200   255.193  -0.0      1.486     0.592     1.599  21.7     0.81  25.61   5.6     0.46    31.2  224.5      65.0  -0.7266  0.5966   -0.014 -0.002      0  274843.4063    79.5  0.10000 
 255.400   255.393  -0.0      1.488     0.593     1.602  21.7     0.69  30.42   6.0     0.42    31.3  224.5      45.0  -0.7321  0.5921   -0.012 -0.003      0  274846.2813    79.5  0.20000 
 255.600   255.593  -0.0      1.490     0.595     1.604  21.8     0.69  33.61   6.0     -0.02   31.3  224.6      30.0  -0.7340  0.5941   -0.012 -0.003      0  274849.1875    79.5  0.20000 
 255.800   255.793  -0.0      1.492     0.596     1.607  21.8     0.78  30.71   5.6     -0.45   31.4  224.5      45.0  -0.7315  0.6017   -0.013 -0.003      0  274846.3125    79.4  0.20000 
 256.000   255.993  -0.0      1.494     0.597     1.609  21.8     0.71  34.21   5.1     -0.45   31.5  224.6      45.0  -0.7279  0.6084   -0.012 -0.004      0  274843.4063    79.4  0.10000 
 256.200   256.193  -0.0      1.496     0.599     1.612  21.8     0.67  36.79   4.5     -0.59   31.5  224.6      40.0  -0.7218  0.6160   -0.011 -0.004      0  274849.1875    79.5  0.20000 
 256.400   256.392  -0.0      1.499     0.600     1.614  21.8     0.77  32.19   4.0     -0.56   31.5  224.5      50.0  -0.7153  0.6227   -0.013 -0.004      0  274843.4063    79.3  0.20000 
 256.600   256.592  -0.0      1.500     0.601     1.616  21.8     0.61  32.00   3.8     -0.20   31.5  224.6      45.0  -0.7139  0.6259   -0.010 -0.003      0  274849.2188    79.2  0.10000 
 256.800   256.792  -0.0      1.502     0.603     1.619  21.9     0.74  31.76   3.6     -0.14   31.5  224.5      40.0  -0.7119  0.6272   -0.012 -0.004      0  274849.1563    79.2  0.20000 
 257.000   256.992  -0.0      1.505     0.604     1.621  21.9     0.71  31.32   3.6     0.02    31.5  224.6      20.0  -0.7126  0.6273   -0.012 -0.003      0  274843.4063    79.2  0.20000 
 257.200   257.192  -0.0      1.507     0.605     1.624  21.9     0.69  31.90   3.3     -0.39   31.5  224.6      25.0  -0.7080  0.6319   -0.011 -0.004      0  274843.4063    79.2  0.20000 
 257.400   257.392  -0.0      1.509     0.607     1.626  21.9     0.81  28.39   2.6     -0.65   31.5  224.5      20.0  -0.7008  0.6398   -0.014 -0.003      0  274849.1563    79.2  0.10000 
 257.600   257.592  -0.0      1.511     0.608     1.629  21.9     0.73  31.41   1.8     -0.81   31.5  224.6      70.0  -0.6917  0.6496   -0.012 -0.004      0  274843.4063    79.3  0.20000 
 257.800   257.792  -0.0      1.513     0.609     1.632  21.9     0.74  33.16   0.6     -1.18   31.5  224.6      20.0  -0.6780  0.6636   -0.012 -0.005      0  274840.5000    79.3  0.20000 
 258.000   257.992  -0.0      1.515     0.611     1.634  22.0     0.63  39.22  359.9    359.24  31.5  224.7      40.0  -0.6698  0.6731   -0.010 -0.005      0  274849.1563    79.3  0.10000 
 258.200   258.192  -0.0      1.517     0.612     1.636  22.0     0.72  32.38  359.5    -0.40   31.5  224.6      15.0  -0.6641  0.6768   -0.012 -0.005      0  274846.3125    79.3  0.20000 
 258.400   258.392  -0.0      1.519     0.613     1.638  22.0     0.69  33.46  359.4    -0.02   31.5  224.6      60.0  -0.6646  0.6779   -0.011 -0.005      0  274849.1563    79.2  0.20000 
 258.600   258.592  -0.0      1.521     0.615     1.641  22.0     0.67  29.20   0.1     -359.38 31.5  224.6      20.0  -0.6716  0.6704   -0.011 -0.004      0  274843.4063    79.1  0.20000 
 258.800   258.792  -0.0      1.524     0.616     1.643  22.0     0.75  29.13   0.4     0.33    31.4  224.5      50.0  -0.6746  0.6657   -0.013 -0.004      0  274849.1563    79.1  0.10000 
 259.000   258.992  -0.0      1.526     0.617     1.646  22.0     0.69  32.84   0.3     -0.08   31.4  224.6      25.0  -0.6740  0.6670   -0.011 -0.004      0  274843.4063    79.2  0.20000 
 259.200   259.192  -0.0      1.528     0.619     1.648  22.0     0.71  35.25   0.1     -0.24   31.4  224.6      60.0  -0.6689  0.6675   -0.011 -0.005      0  274846.3125    79.2  0.20000 
 259.400   259.392  -0.0      1.530     0.620     1.651  22.1     0.77  30.09  359.8    359.75  31.3  224.6      50.0  -0.6657  0.6702   -0.013 -0.004      0  274843.4063    79.2  0.10000 
 259.600   259.592  -0.0      1.532     0.621     1.653  22.1     0.71  34.83  359.5    -0.29   31.4  224.6      20.0  -0.6623  0.6737   -0.011 -0.005      0  274846.2813    79.3  0.20000 
 259.800   259.792  -0.0      1.534     0.623     1.656  22.1     0.69  33.01  358.9    -0.58   31.4  224.6      50.0  -0.6557  0.6806   -0.011 -0.005      0  274843.4063    79.4  0.20000 
 260.000   259.992  -0.0      1.536     0.624     1.658  22.1     0.67  34.83  358.6    -0.34   31.3  224.6      30.0  -0.6504  0.6833   -0.011 -0.005      0  274843.4063    79.4  0.20000 
 260.200   260.192  -0.0      1.538     0.626     1.660  22.1     0.74  36.47  358.7    0.11    31.3  224.6      30.0  -0.6518  0.6822   -0.012 -0.006      0  274843.4063    79.5  0.10000 
 260.400   260.392  -0.0      1.540     0.627     1.663  22.1     0.68  31.79  359.1    0.43    31.3  224.6      30.0  -0.6566  0.6770   -0.011 -0.004      0  274843.4063    79.5  0.20000 
 260.600   260.592  -0.0      1.542     0.628     1.665  22.2     0.63  33.57  359.6    0.43    31.4  224.6      20.0  -0.6629  0.6733   -0.010 -0.004      0  274846.2813    79.4  0.20000 
 260.800   260.792  -0.0      1.544     0.629     1.668  22.2     0.78  25.99  359.2    -0.34   31.4  224.5      35.0  -0.6593  0.6776   -0.013 -0.004      0  274843.4063    79.4  0.10000 
 261.000   260.992  -0.0      1.546     0.631     1.670  22.2     0.69  34.43  358.4    -0.77   31.4  224.6      10.0  -0.6510  0.6874   -0.011 -0.005      0  274846.2813    79.4  0.20000 
 261.200   261.192  -0.0      1.548     0.632     1.672  22.2     0.68  37.64  357.2    -1.26   31.5  224.7      40.0  -0.6368  0.7026   -0.010 -0.006      0  274843.4063    79.4  0.20000 
 261.400   261.392  -0.0      1.550     0.633     1.675  22.2     0.69  36.59  356.0    -1.18   31.5  224.7      30.0  -0.6225  0.7160   -0.010 -0.006      0  274843.4063    79.3  0.20000 
 261.600   261.592  -0.0      1.552     0.635     1.677  22.2     0.70  37.20  355.6    -0.37   31.4  224.7      40.0  -0.6170  0.7190   -0.011 -0.006      0  274843.4063    79.3  0.10000 
 261.800   261.792  -0.0      1.554     0.636     1.679  22.3     0.67  34.70  355.7    0.10    31.3  224.6      10.0  -0.6167  0.7162   -0.010 -0.005      0  274849.1875    79.4  0.20000 
 262.000   261.992  -0.0      1.556     0.638     1.682  22.3     0.69  33.61  356.3    0.56    31.3  224.6      30.0  -0.6224  0.7087   -0.011 -0.005      0  274849.1875    79.4  0.20000 
 262.200   262.192  -0.0      1.558     0.639     1.684  22.3     0.58  34.32  357.0    0.68    31.3  224.7      40.0  -0.6308  0.7014   -0.009 -0.004      0  274843.4063    79.4  0.10000 
 262.400   262.392  -0.0      1.560     0.640     1.686  22.3     0.67  31.88  357.2    0.23    31.3  224.6      40.0  -0.6336  0.6988   -0.011 -0.005      0  274846.2813    79.4  0.20000 
 262.600   262.592  -0.0      1.562     0.641     1.688  22.3     0.67  34.69  357.1    -0.11   31.4  224.6      20.0  -0.6348  0.7028   -0.010 -0.005      0  274846.2813    79.5  0.20000 
 262.800   262.792  -0.0      1.564     0.643     1.691  22.3     0.76  30.23  356.6    -0.47   31.4  224.6      65.0  -0.6289  0.7080   -0.012 -0.005      0  274849.1875    79.5  0.20000 
