~Version Information
 VERS.                2.0:  CWLS LOG ASCII STANDARD -VERSION 2.0
 WRAP.                 NO:  ONE LINE PER DEPTH STEP
~WELL INFORMATION BLOCK
#MNEM.UNIT       DATA		            DESCRIPTION OF MNEMONIC
#---------    -------------            ------------------------
 STRT.FT  -3.600                         :START DEPTH
 STOP.FT  1314.400                       :STOP DEPTH
 STEP.FT  0.200                          :STEP  DOWN_HOLE  
 NULL.    -999.25                        :NULL VALUE
 COMP.    USGS                           :COMPANY
 WELL.    USGS 145                                                     :WELL
 FLD .    INL                            :FIELD\LOCATION
 LOC .                                   :LOCATION
 CNTY.    BUTTE                          :COUNTY
 STAT.    IDAHO                          :STATE
 CTRY.    USA                            :COUNTRY
 SRVC.    USGS                           :SERVICE COMPANY
 DATE.    07/16/2018                     :LOG DATE
 API .   CAL. 2017                           :API NUMBER
 LIC .    USGS                           :LICENSE NUMBER
~Curve Information Block
#MNEM.UNIT      API CODE     Curve Description
#---------    -------------  ------------------------
 DEPT     .FT        00 001 00 00          :  1  DEPTH   
 T DEPTH  .FT        00 960 00 00          :  2  TRUE DEPTH          
 D DIFF   .FT        00 000 00 00          :  3  DEPTH DIFFERENCE    
 N DEV    .FT        00 000 00 00          :  4  NORTH DEVIATION     
 E DEV    .FT        00 000 00 00          :  5  EAST DEVIATION      
 DISTANCE .FT        00 000 00 00          :  6  DEVIATED DISTANCE   
 AZIMUTH  .DEG       00 630 00 00          :  7  DEVIATED AZIMUTH    
 SANG     .DEG       00 620 00 00          :  8  SAMPLE SLANT ANGLE  
 SANGB    .DEG       00 631 00 00          :  9  SAMPLE ANG BEARING  
 TOOLFACE .DEG       00 000 00 00          : 10  TOOLFACE            
 DELT TF  .DEG       00 000 00 00          : 11  DELT TF             
 GYRO     .VOLTS     00 000 00 00          : 12  GYRO                
 PAD1-AZ  .DEG       00 632 00 00          : 13  SAMPLE PAD 1 AZIM   
 GAMMA    .CPS       00 310 00 00          : 14  GAMMA RAY           
 COS-GYRO .AMPL      00 000 00 00          : 15  COS-GYRO            
 SIN-GYRO .AMPL      00 000 00 00          : 16  SIN-GYRO            
 XINCL    .AMPL      00 000 00 00          : 17  XINCL               
 YINCL    .AMPL      00 000 00 00          : 18  YINCL               
 CAGE     .VOLTS     00 000 00 00          : 19  CAGE                
 MAG-VECT .AMPL      00 000 00 00          : 20  MAG-VECT            
 TENSION  .CPS       00 000 00 00          : 21  LINE TENSION        
 TIME     .MINUTES   00 000 00 00          : 22  TIME                
~Parameter Information Block
#MNEM.UNIT   Information     Description
#---------- ---------------  ------------------------
 FILE.      PROCESSED          :File Type
 FIID.      9095C              :File Type Identifier
 VERS.      3.60E              :System Version
 SER .      1                  :System Serial Number
 TRUK.      0.25               :Truck Calibration Number
 TOOL.        1203             :Tool Serial Number
 TIME.      1519               :Time    HrHrMinMin
 LAT .                         :Latitude
 LON .                         :Longitude
 LMF .      LSD                :Log Measured From
 DMF .      LSD                :Driller Measured From
 PD  .                         :Permanent Data
 PDEV.                         :Elevation Permanent Data
 EKB .M                        :Elevation Kelly Bushing
 ELEV.DF                       :Elevation DF
 EGL .M                        :Elevation Ground Level
 DRDP.      1368               :Driller's Depth
 CASD.      10.                :Casing Diameter
 CASB.      1328               :Casing Bottom
 CASX.      SURFACE            :Casing Type
 CAST.      .25                :Casing Thickness
 TNOC.                         :Time Circulation Stopped
 LOGU.      USGS               :Logging Unit
 RECB.      MJG                :Recorded By
 OSR1.      0024               :Other Services
 OSR2.       9057              :Other Services
 OSR3.                         :Other Services
 BS  .IN         3.9           :Bit Size
 MST .      SH                 :Mean Surface Temperature
 TGRD.                         :Temperature Gradiant
 MAGN.        12.500           :Magnetic Declination
 MDEN.      2.65               :Density Matrix
 MATR.      SANDSTONE          :Neutron Matrix
 DTMT.      54                 :Delta T Matrix
 DTFL.                         :Delta T Fluid
 MUDS.      FLOW LINE          :Mud Sample Source
 MRS .      .179               :Mud Resistivity
 MTP .      68.5               :Mud Temperature
 MFRS.                         :Resistivity Mud Filtrate
 MFTP.                         :Temperature Mud Filtrate
 MCRS.                         :Resistivity Mud Cake
 MCTP.                         :Temperature Mud Cake
 FTYP.      AIR                :Fluid Type
 FD  .LB/G    NA               :Mud Weight
 DFV .S                        :Fluid Viscosity
 FPH .                         :Fuild PH
 ELCO.      99999              :Electron Cutoff
 CASL.      3.5                :Casing Logger
 LOTD.      1328               :Logger TD
 ARTM.      12:20              :Arrival Time
 DPTM.                         :Departure Time
 RIGN.                         :Rig Number
~Other Information
#MNEM.UNIT  Information      Description
#---------- ---------------  ------------------------
# -------------------------- 
~A DEPTH  T DEPTH   D DIFF N DEV     E DEV     DISTANCE  AZIMUTH SANG   SANGB  TOOLFACE DELT TF GYRO  PAD1-AZ GAMMA    COS-GYRO SIN-GYRO XINCL YINCL CAGE    MAG-VECT TENSION  TIME    
# ...
 435.000   434.980  -0.0      1.708     1.747     2.444  45.6     1.59  168.40 195.2    -0.59   31.4  223.7      55.0  0.8173   -0.4678  -0.022 0.017      0  274843.4063    79.5  0.20000 
 435.200   435.180  -0.0      1.703     1.749     2.441  45.7     1.49  167.93 194.4    -0.83   31.4  223.7      60.0  0.8098   -0.4792  -0.020 0.016      0  274843.4063    79.5  0.10000 
 435.400   435.379  -0.0      1.698     1.750     2.438  45.9     1.53  167.37 193.7    -0.66   31.2  223.7      70.0  0.8013   -0.4867  -0.021 0.016      0  274840.5000    79.6  0.20000 
 435.600   435.579  -0.0      1.693     1.751     2.435  46.0     1.54  167.02 192.8    -0.95   31.2  223.7      10.0  0.7927   -0.4996  -0.021 0.016      0  274843.4063    79.5  0.20000 
 435.800   435.779  -0.0      1.687     1.752     2.433  46.1     1.57  168.49 192.0    -0.81   31.2  223.7      30.0  0.7838   -0.5097  -0.022 0.016      0  274843.4063    79.5  0.20000 
 436.000   435.979  -0.0      1.683     1.753     2.430  46.2     1.43  165.31 191.7    -0.22   31.2  223.8      80.0  0.7809   -0.5122  -0.020 0.015      0  274843.4063    79.5  0.10000 
 436.200   436.179  -0.0      1.677     1.754     2.427  46.3     1.59  168.33 191.5    -0.23   31.2  223.7      70.0  0.7795   -0.5157  -0.023 0.016      0  274840.5000    79.5  0.20000 
 436.400   436.379  -0.0      1.672     1.756     2.424  46.4     1.56  165.88 191.2    -0.29   31.3  223.7      10.0  0.7805   -0.5220  -0.022 0.016      0  274843.4063    79.5  0.20000 
 436.600   436.579  -0.0      1.667     1.757     2.422  46.5     1.51  167.63 190.9    -0.37   31.4  223.7      30.0  0.7803   -0.5292  -0.022 0.015      0  274849.1875    79.6  0.20000 
 436.800   436.779  -0.0      1.661     1.758     2.419  46.6     1.55  167.96 190.4    -0.47   31.5  223.7      20.0  0.7773   -0.5364  -0.023 0.015      0  274843.4063    79.6  0.20000 
 437.000   436.979  -0.0      1.657     1.759     2.416  46.7     1.46  165.96 190.1    -0.34   31.5  223.8      60.0  0.7739   -0.5408  -0.021 0.015      0  274849.2188    79.6  0.10000 
 437.200   437.179  -0.0      1.651     1.761     2.414  46.8     1.60  165.42 189.5    -0.51   31.4  223.7      75.0  0.7675   -0.5466  -0.023 0.016      0  274846.2813    79.6  0.20000 
 437.400   437.379  -0.0      1.646     1.762     2.411  46.9     1.53  168.26 189.0    -0.56   31.4  223.7      40.0  0.7629   -0.5546  -0.023 0.014      0  274843.4063    79.6  0.20000 
 437.600   437.579  -0.0      1.641     1.763     2.408  47.1     1.54  170.58 188.8    -0.19   31.3  223.7      30.0  0.7571   -0.5542  -0.023 0.013      0  274840.5313    79.6  0.20000 
 437.800   437.779  -0.0      1.635     1.764     2.406  47.2     1.54  162.34 188.8    0.02    31.2  223.7      50.0  0.7540   -0.5515  -0.021 0.016      0  274843.4063    79.5  0.10000 
 438.000   437.979  -0.0      1.630     1.766     2.403  47.3     1.52  165.27 188.1    -0.70   31.1  223.7      20.0  0.7454   -0.5592  -0.022 0.015      0  274843.4063    79.3  0.20000 
 438.200   438.178  -0.0      1.625     1.766     2.400  47.4     1.61  172.39 186.3    -1.84   31.1  223.7      90.0  0.7266   -0.5825  -0.025 0.012      0  274846.2813    79.3  0.20000 
 438.400   438.378  -0.0      1.619     1.768     2.397  47.5     1.67  168.06 185.6    -0.68   31.2  223.7      40.0  0.7215   -0.5926  -0.026 0.014      0  274843.4063    79.3  0.20000 
 438.600   438.578  -0.0      1.613     1.769     2.394  47.6     1.69  162.80 186.4    0.81    31.2  223.6      55.0  0.7312   -0.5833  -0.024 0.017      0  274843.4063    79.3  0.10000 
 438.800   438.778  -0.0      1.608     1.771     2.392  47.8     1.55  164.22 187.9    1.47    31.2  223.7      20.0  0.7455   -0.5642  -0.022 0.015      0  274843.4063    79.3  0.20000 
 439.000   438.978  -0.0      1.603     1.772     2.389  47.9     1.59  166.09 189.6    1.74    31.3  223.7     100.0  0.7631   -0.5418  -0.023 0.016      0  274843.4063    79.5  0.20000 
 439.200   439.178  -0.0      1.597     1.773     2.387  48.0     1.64  167.39 190.3    0.68    31.3  223.7      35.0  0.7707   -0.5335  -0.024 0.016      0  274843.4063    79.6  0.20000 
 439.400   439.378  -0.0      1.592     1.775     2.384  48.1     1.62  166.65 190.1    -0.17   31.4  223.7      55.0  0.7717   -0.5376  -0.023 0.016      0  274843.4063    79.7  0.20000 
 439.600   439.578  -0.0      1.586     1.776     2.381  48.2     1.60  165.69 189.8    -0.36   31.4  223.7      30.0  0.7680   -0.5422  -0.023 0.016      0  274843.4063    79.7  0.10000 
 439.800   439.778  -0.0      1.581     1.777     2.379  48.3     1.61  165.93 189.1    -0.72   31.4  223.7       5.0  0.7622   -0.5524  -0.023 0.016      0  274846.2813    79.7  0.20000 
 440.000   439.978  -0.0      1.575     1.778     2.376  48.5     1.60  170.60 188.4    -0.68   31.4  223.7      30.0  0.7551   -0.5612  -0.024 0.014      0  274840.5313    79.7  0.20000 
 440.200   440.178  -0.0      1.570     1.780     2.373  48.6     1.68  166.97 188.5    0.14    31.4  223.6      30.0  0.7558   -0.5589  -0.025 0.016      0  274840.5313    79.6  0.20000 
 440.400   440.378  -0.0      1.564     1.781     2.370  48.7     1.57  166.50 188.9    0.41    31.3  223.7      60.0  0.7584   -0.5524  -0.023 0.015      0  274849.1563    79.6  0.10000 
 440.600   440.577  -0.0      1.559     1.782     2.368  48.8     1.64  166.88 189.2    0.29    31.2  223.7      60.0  0.7592   -0.5471  -0.024 0.016      0  274843.4063    79.5  0.20000 
 440.800   440.777  -0.0      1.553     1.783     2.365  48.9     1.64  167.80 189.5    0.23    31.2  223.7     140.0  0.7610   -0.5437  -0.024 0.016      0  274843.4063    79.5  0.20000 
 441.000   440.977  -0.0      1.548     1.785     2.363  49.1     1.63  162.23 189.7    0.27    31.3  223.6      45.0  0.7654   -0.5415  -0.022 0.018      0  274840.5000    79.5  0.20000 
 441.200   441.177  -0.0      1.542     1.786     2.360  49.2     1.63  166.67 189.4    -0.36   31.4  223.7      35.0  0.7631   -0.5469  -0.024 0.016      0  274846.2813    79.6  0.20000 
 441.400   441.377  -0.0      1.537     1.788     2.357  49.3     1.66  167.19 188.7    -0.67   31.4  223.6      50.0  0.7582   -0.5571  -0.024 0.016      0  274843.4063    79.6  0.10000 
 441.600   441.577  -0.0      1.531     1.789     2.354  49.4     1.63  169.60 188.1    -0.61   31.4  223.7      45.0  0.7528   -0.5655  -0.025 0.014      0  274837.6563    79.6  0.20000 
 441.800   441.777  -0.0      1.526     1.790     2.352  49.6     1.53  168.01 188.0    -0.04   31.5  223.7      20.0  0.7537   -0.5671  -0.023 0.014      0  274846.2813    79.6  0.20000 
 442.000   441.977  -0.0      1.520     1.791     2.349  49.7     1.62  166.95 188.5    0.47    31.5  223.7      30.0  0.7596   -0.5618  -0.024 0.015      0  274843.4063    79.6  0.20000 
 442.200   442.177  -0.0      1.514     1.792     2.346  49.8     1.95  168.85 188.8    0.27    31.5  223.5      20.0  0.7622   -0.5584  -0.029 0.018      0  274843.4063    79.5  0.10000 
 442.400   442.377  -0.0      1.508     1.793     2.343  49.9     1.69  170.45 189.4    0.66    31.5  223.6      55.0  0.7659   -0.5475  -0.025 0.015      0  274840.5313    79.5  0.20000 
 442.600   442.577  -0.0      1.503     1.795     2.341  50.1     1.49  163.41 191.0    1.54    31.4  223.7    -999.3  0.7814   -0.5275  -0.020 0.016      0  274846.2813    79.5  0.20000 
 442.800   442.777  -0.0      1.497     1.796     2.339  50.2     1.58  166.08 192.7    1.76    31.4  223.7      35.0  0.7978   -0.5035  -0.022 0.017      0  274843.4063    79.5  0.20000 
 443.000   442.977  -0.0      1.492     1.797     2.336  50.3     1.51  169.64 194.0    1.27    31.5  223.7     105.0  0.8094   -0.4860  -0.021 0.015      0  274843.4063    79.5  0.10000 
 443.200   443.176  -0.0      1.487     1.798     2.333  50.4     1.61  168.30 195.5    1.52    31.4  223.7      60.0  0.8199   -0.4632  -0.022 0.018      0  274843.4063    79.5  0.20000 
 443.400   443.376  -0.0      1.481     1.800     2.331  50.5     1.59  165.60 197.4    1.89    31.4  223.7      60.0  0.8362   -0.4367  -0.020 0.019      0  274843.4063    79.5  0.20000 
