~Version Information
 VERS.                2.0:  CWLS LOG ASCII STANDARD -VERSION 2.0
 WRAP.                 NO:  ONE LINE PER DEPTH STEP
~WELL INFORMATION BLOCK
#MNEM.UNIT       DATA		            DESCRIPTION OF MNEMONIC
#---------    -------------            ------------------------
 STRT.FT  -4.400                         :START DEPTH
 STOP.FT  1314.600                       :STOP DEPTH
 STEP.FT  0.200                          :STEP    UP_HOLE  
 NULL.    -999.25                        :NULL VALUE
 COMP.    USGS                           :COMPANY
 WELL.    USGS 145                                                     :WELL
 FLD .    INL                            :FIELD\LOCATION
 LOC .                                   :LOCATION
 CNTY.    BUTTE                          :COUNTY
 STAT.    IDAHO                          :STATE
 CTRY.    USA                            :COUNTRY
 SRVC.    USGS                           :SERVICE COMPANY
 DATE.    07/16/2018                     :LOG DATE
 API .   CAL. 2017                           :API NUMBER
 LIC .    USGS                           :LICENSE NUMBER
~Curve Information Block
#MNEM.UNIT      API CODE     Curve Description
#---------    -------------  ------------------------
 DEPT     .FT        00 001 00 00          :  1  DEPTH   
 SANG     .DEG       00 620 00 00          :  2  SAMPLE SLANT ANGLE  
 SANGB    .DEG       00 631 00 00          :  3  SAMPLE ANG BEARING  
 TOOLFACE .DEG       00 000 00 00          :  4  TOOLFACE            
 DELT TF  .DEG       00 000 00 00          :  5  DELT TF             
 GYRO     .VOLTS     00 000 00 00          :  6  GYRO                
 PAD1-AZ  .DEG       00 632 00 00          :  7  SAMPLE PAD 1 AZIM   
 GAMMA    .CPS       00 310 00 00          :  8  GAMMA RAY           
 COS-GYRO .AMPL      00 000 00 00          :  9  COS-GYRO            
 SIN-GYRO .AMPL      00 000 00 00          : 10  SIN-GYRO            
 XINCL    .AMPL      00 000 00 00          : 11  XINCL               
 YINCL    .AMPL      00 000 00 00          : 12  YINCL               
 CAGE     .VOLTS     00 000 00 00          : 13  CAGE                
 MAG-VECT .AMPL      00 000 00 00          : 14  MAG-VECT            
 MSANGB   .DEG       00 000 00 00          : 15  MSANGB              
 TIME     .MINUTES   00 000 00 00          : 16  TIME                
~Parameter Information Block
#MNEM.UNIT   Information     Description
#---------- ---------------  ------------------------
 FILE.      PROCESSED          :File Type
 FIID.      9095C              :File Type Identifier
 VERS.      3.60E              :System Version
 SER .      1                  :System Serial Number
 TRUK.      0.25               :Truck Calibration Number
 TOOL.        1203             :Tool Serial Number
 TIME.      1600               :Time    HrHrMinMin
 LAT .                         :Latitude
 LON .                         :Longitude
 LMF .      LSD                :Log Measured From
 DMF .      LSD                :Driller Measured From
 PD  .                         :Permanent Data
 PDEV.                         :Elevation Permanent Data
 EKB .M                        :Elevation Kelly Bushing
 ELEV.DF                       :Elevation DF
 EGL .M                        :Elevation Ground Level
 DRDP.      1368               :Driller's Depth
 CASD.      10.                :Casing Diameter
 CASB.      1328               :Casing Bottom
 CASX.      SURFACE            :Casing Type
 CAST.      .25                :Casing Thickness
 TNOC.                         :Time Circulation Stopped
 LOGU.      USGS               :Logging Unit
 RECB.      MJG                :Recorded By
 OSR1.      0024               :Other Services
 OSR2.       9057              :Other Services
 OSR3.                         :Other Services
 BS  .IN         3.9           :Bit Size
 MST .      SH                 :Mean Surface Temperature
 TGRD.                         :Temperature Gradiant
 MAGN.      0                  :Magnetic Declination
 MDEN.      2.65               :Density Matrix
 MATR.      SANDSTONE          :Neutron Matrix
 DTMT.      54                 :Delta T Matrix
 DTFL.                         :Delta T Fluid
 MUDS.      FLOW LINE          :Mud Sample Source
 MRS .      .179               :Mud Resistivity
 MTP .      68.5               :Mud Temperature
 MFRS.                         :Resistivity Mud Filtrate
 MFTP.                         :Temperature Mud Filtrate
 MCRS.                         :Resistivity Mud Cake
 MCTP.                         :Temperature Mud Cake
 FTYP.      AIR                :Fluid Type
 FD  .LB/G    NA               :Mud Weight
 DFV .S                        :Fluid Viscosity
 FPH .                         :Fuild PH
 ELCO.      99999              :Electron Cutoff
 CASL.      3.5                :Casing Logger
 LOTD.      1328               :Logger TD
 ARTM.      12:20              :Arrival Time
 DPTM.                         :Departure Time
 RIGN.                         :Rig Number
~Other Information
#MNEM.UNIT  Information      Description
#---------- ---------------  ------------------------
# -------------------------- 
~A DEPTH  SANG   SANGB  TOOLFACE DELT TF GYRO  PAD1-AZ GAMMA    COS-GYRO SIN-GYRO XINCL YINCL CAGE    MAG-VECT MSANGB TIME    
# ...
 862.400   1.16  162.91 31.1     -0.86   31.6  225.6      20.0  -0.9366  0.2316   0.014 -0.015      0  274823.1563 273.81 0.20000 
 862.600   1.15  162.87 32.0     -0.42   31.5  225.6    -999.3  -0.9386  0.2172   0.013 -0.015      0  274823.1563 274.69 0.10000 
 862.800   0.99  161.13 32.4     -0.06   31.5  225.5      25.0  -0.9393  0.2102   0.011 -0.013      0  274826.0313 276.73 0.20000 
 863.000   1.29  161.04 32.4     0.37    31.6  225.7      35.0  -0.9416  0.2096   0.014 -0.018      0  274823.1563 277.10 0.20000 
 863.200   0.95  159.17 32.1     0.60    31.6  225.4      60.0  -0.9407  0.2158   0.010 -0.013      0  274820.2813 278.36 0.10000 
 863.400   1.22  159.97 31.5     1.73    31.6  225.6      35.0  -0.9390  0.2258   0.013 -0.017      0  274817.4063 277.15 0.20000 
 863.600   1.23  160.52 29.7     2.16    31.6  225.6      20.0  -0.9301  0.2536   0.014 -0.016      0  274820.2813 274.88 0.10000 
 863.800   1.29  165.11 27.6     1.93    31.5  225.7      30.0  -0.9177  0.2878   0.017 -0.015      0  274814.4688 268.17 0.20000 
 864.000   1.21  163.47 25.7     1.44    31.6  225.6      40.0  -0.9089  0.3190   0.016 -0.014      0  274823.1563 267.83 0.20000 
 864.200   0.98  163.15 24.2     0.69    31.6  225.5      40.0  -0.9035  0.3429   0.013 -0.011      0  274820.2813 266.55 0.10000 
 864.400   1.12  164.15 23.5     0.49    31.7  225.6      35.0  -0.9012  0.3545   0.015 -0.012      0  274820.2813 264.96 0.20000 
 864.600   1.20  165.34 23.0     0.02    31.7  225.6      30.0  -0.8968  0.3618   0.017 -0.013      0  274817.3750 263.32 0.10000 
 864.800   0.49  157.19 23.0     -0.74   31.6  225.1      30.0  -0.8952  0.3615   0.006 -0.006      0  274820.2813 270.96 0.20000 
 865.000   1.38  163.23 23.8     -0.61   31.5  225.8      60.0  -0.8964  0.3486   0.018 -0.016      0  274820.2813 266.28 0.20000 
 865.200   0.72  164.26 24.4     -0.46   31.5  225.3      20.0  -0.9000  0.3391   0.010 -0.008      0  274826.0313 265.39 0.10000 
 865.400   1.29  160.45 24.8     0.58    31.5  225.7      25.0  -0.9026  0.3317   0.016 -0.016      0  274823.1563 270.07 0.20000 
 865.600   1.10  161.29 24.2     0.80    31.5  225.6      10.0  -0.9017  0.3417   0.014 -0.013      0  274823.1563 268.53 0.10000 
 865.800   0.69  162.13 23.4     0.28    31.7  225.3      30.0  -0.8995  0.3554   0.009 -0.008      0  274820.2813 266.58 0.20000 
 866.000   1.26  163.30 23.2     0.38    31.6  225.7      30.0  -0.8975  0.3597   0.017 -0.014      0  274817.4063 265.53 0.20000 
 866.200   1.11  162.45 22.8     0.45    31.6  225.6      10.0  -0.8931  0.3649   0.015 -0.013      0  274826.0313 265.90 0.10000 
 866.400   1.03  162.66 22.3     0.51    31.5  225.5      10.0  -0.8876  0.3708   0.014 -0.011      0  274823.1563 265.18 0.20000 
 866.600   1.13  162.41 21.8     0.45    31.5  225.6    -999.3  -0.8827  0.3781   0.015 -0.013      0  274820.2813 264.99 0.10000 
 866.800   0.97  163.37 21.4     -0.03   31.4  225.5      20.0  -0.8788  0.3846   0.013 -0.010      0  274808.7188 263.47 0.20000 
 867.000   1.10  162.55 21.4     -0.41   31.5  225.6      20.0  -0.8814  0.3852   0.015 -0.012      0  274823.1563 264.41 0.20000 
 867.200   1.04  162.73 21.8     -0.49   31.5  225.5      10.0  -0.8843  0.3789   0.014 -0.011      0  274826.0313 264.59 0.10000 
 867.400   1.09  162.04 22.3     -0.17   31.5  225.6      15.0  -0.8886  0.3717   0.015 -0.012      0  274820.2813 265.81 0.20000 
 867.600   1.19  156.93 22.5     0.19    31.6  225.6      20.0  -0.8926  0.3702   0.015 -0.015      0  274820.2813 271.18 0.10000 
 867.800   1.17  163.09 22.3     -0.01   31.6  225.6      30.0  -0.8912  0.3732   0.016 -0.013      0  274820.2813 264.81 0.20000 
 868.000   1.09  161.73 22.3     0.02    31.6  225.6    -999.3  -0.8899  0.3725   0.014 -0.012      0  274820.2813 266.11 0.20000 
 868.200   1.11  162.79 22.3     -0.08   31.6  225.6      10.0  -0.8900  0.3729   0.015 -0.012      0  274820.2813 265.06 0.10000 
 868.400   1.02  162.42 22.3     -0.27   31.5  225.5      10.0  -0.8891  0.3711   0.014 -0.011      0  274820.2813 265.43 0.20000 
 868.600   1.23  161.96 22.6     -0.00   31.5  225.6      30.0  -0.8898  0.3665   0.016 -0.014      0  274817.4063 266.30 0.10000 
 868.800   1.04  161.96 22.6     0.10    31.5  225.5      15.0  -0.8897  0.3665   0.014 -0.012      0  274820.2813 266.17 0.20000 
 869.000   1.12  162.87 22.5     0.23    31.4  225.6      15.0  -0.8864  0.3669   0.015 -0.012      0  274820.2813 265.22 0.20000 
 869.200   1.04  160.68 22.3     0.18    31.5  225.5      30.0  -0.8855  0.3707   0.014 -0.012      0  274820.2813 267.13 0.10000 
 869.400   1.18  157.93 22.1     0.08    31.5  225.6       5.0  -0.8852  0.3737   0.015 -0.014      0  274820.2813 269.81 0.20000 
 869.600   1.14  163.26 22.0     0.13    31.5  225.6      60.0  -0.8854  0.3753   0.016 -0.013      0  274823.1563 264.36 0.10000 
 869.800   1.35  162.20 21.9     0.68    31.5  225.7      40.0  -0.8839  0.3771   0.018 -0.015      0  274826.0313 265.43 0.20000 
 870.000   1.04  162.26 21.2     0.44    31.7  225.5      20.0  -0.8859  0.3904   0.014 -0.011      0  274820.2813 264.49 0.20000 
 870.200   1.08  164.18 20.8     -0.28   31.6  225.5    -999.3  -0.8813  0.3964   0.015 -0.011      0  274820.2813 262.15 0.10000 
 870.400   1.18  164.06 21.1     -0.67   31.7  225.6      45.0  -0.8852  0.3930   0.016 -0.012      0  274820.2813 262.62 0.20000 
 870.600   1.14  161.41 21.7     -0.34   31.7  225.6      30.0  -0.8885  0.3822   0.015 -0.013      0  274820.2813 265.90 0.10000 
 870.800   1.14  161.34 22.1     0.10    31.6  225.6      30.0  -0.8893  0.3762   0.015 -0.013      0  274820.2813 266.31 0.20000 
 871.000   1.24  160.62 22.0     0.57    31.7  225.7      25.0  -0.8908  0.3788   0.016 -0.014      0  274823.1563 267.01 0.20000 
 871.200   1.26  159.98 21.4     0.78    31.7  225.7    -999.3  -0.8864  0.3874   0.017 -0.015      0  274826.0313 267.09 0.10000 
 871.400   1.09  162.62 20.6     0.20    31.6  225.5      20.0  -0.8786  0.3983   0.015 -0.012      0  274820.2813 263.54 0.20000 
 871.600   1.08  159.75 20.4     -0.93   31.5  225.5      50.0  -0.8750  0.4004   0.014 -0.012      0  274823.1563 266.22 0.10000 
 871.800   1.14  164.58 21.3     -1.82   31.5  225.6      20.0  -0.8813  0.3860   0.016 -0.012      0  274814.4688 262.36 0.20000 
 872.000   1.15  161.53 23.2     -1.87   31.5  225.6      50.0  -0.8931  0.3579   0.015 -0.013      0  274820.2813 267.23 0.20000 
 872.200   1.25  160.82 25.0     -1.59   31.6  225.7      40.0  -0.9079  0.3298   0.016 -0.015      0  274814.5313 269.88 0.10000 
 872.400   1.17  160.51 26.6     -1.83   31.5  225.6      20.0  -0.9149  0.3040   0.014 -0.015      0  274820.2813 271.73 0.20000 
 872.600   1.25  161.51 28.4     -1.04   31.6  225.7      20.0  -0.9251  0.2749   0.015 -0.016      0  274823.1563 272.61 0.10000 
 872.800   1.11  160.37 29.5     -0.64   31.6  225.6      60.0  -0.9319  0.2587   0.013 -0.015      0  274820.2813 274.68 0.20000 
 873.000   1.23  160.37 30.1     -0.05   31.6  225.6      15.0  -0.9336  0.2479   0.014 -0.016      0  274820.2813 275.41 0.20000 
 873.200   1.16  160.16 30.2     0.84    31.5  225.6      10.0  -0.9293  0.2458   0.013 -0.016      0  274826.0313 275.63 0.10000 
 873.400   1.30  160.85 29.3     2.28    31.5  225.7      15.0  -0.9257  0.2595   0.015 -0.017      0  274823.1563 274.19 0.20000 
 873.600   1.08  163.10 27.1     1.43    31.5  225.5      10.0  -0.9156  0.2964   0.014 -0.013      0  274823.1563 269.51 0.10000 
 873.800   1.14  166.30 25.6     0.95    31.4  225.6      25.0  -0.9055  0.3183   0.015 -0.013      0  274814.4688 264.93 0.20000 
 874.000   1.27  166.84 24.7     0.45    31.5  225.7      30.0  -0.9007  0.3334   0.018 -0.014      0  274820.2813 263.53 0.20000 
 874.200   1.03  164.54 24.2     -0.24   31.4  225.5      40.0  -0.8953  0.3395   0.014 -0.012      0  274826.0313 265.21 0.10000 
 874.400   1.06  162.07 24.5     0.58    31.5  225.5      20.0  -0.9003  0.3370   0.014 -0.012      0  274820.2813 267.95 0.20000 
 874.600   1.40  161.22 23.9     1.93    31.6  225.8    -999.3  -0.9009  0.3476   0.018 -0.017      0  274820.2813 268.46 0.10000 
