~Version Information
 VERS.                2.0:  CWLS LOG ASCII STANDARD -VERSION 2.0
 WRAP.                 NO:  ONE LINE PER DEPTH STEP
~WELL INFORMATION BLOCK
#MNEM.UNIT       DATA		            DESCRIPTION OF MNEMONIC
#---------    -------------            ------------------------
 STRT.FT  -3.600                         :START DEPTH
 STOP.FT  1314.400                       :STOP DEPTH
 STEP.FT  0.200                          :STEP  DOWN_HOLE  
 NULL.    -999.25                        :NULL VALUE
 COMP.    USGS                           :COMPANY
 WELL.    USGS 145                                                     :WELL
 FLD .    INL                            :FIELD\LOCATION
 LOC .                                   :LOCATION
 CNTY.    BUTTE                          :COUNTY
 STAT.    IDAHO                          :STATE
 CTRY.    USA                            :COUNTRY
 SRVC.    USGS                           :SERVICE COMPANY
 DATE.    07/16/2018                     :LOG DATE
 API .   CAL. 2017                           :API NUMBER
 LIC .    USGS                           :LICENSE NUMBER
~Curve Information Block
#MNEM.UNIT      API CODE     Curve Description
#---------    -------------  ------------------------
 DEPT     .FT        00 001 00 00          :  1  DEPTH   
 T DEPTH  .FT        00 960 00 00          :  2  TRUE DEPTH          
 D DIFF   .FT        00 000 00 00          :  3  DEPTH DIFFERENCE    
 N DEV    .FT        00 000 00 00          :  4  NORTH DEVIATION     
 E DEV    .FT        00 000 00 00          :  5  EAST DEVIATION      
 DISTANCE .FT        00 000 00 00          :  6  DEVIATED DISTANCE   
 AZIMUTH  .DEG       00 630 00 00          :  7  DEVIATED AZIMUTH    
 SANG     .DEG       00 620 00 00          :  8  SAMPLE SLANT ANGLE  
 SANGB    .DEG       00 631 00 00          :  9  SAMPLE ANG BEARING  
 TOOLFACE .DEG       00 000 00 00          : 10  TOOLFACE            
 DELT TF  .DEG       00 000 00 00          : 11  DELT TF             
 GYRO     .VOLTS     00 000 00 00          : 12  GYRO                
 PAD1-AZ  .DEG       00 632 00 00          : 13  SAMPLE PAD 1 AZIM   
 GAMMA    .CPS       00 310 00 00          : 14  GAMMA RAY           
 COS-GYRO .AMPL      00 000 00 00          : 15  COS-GYRO            
 SIN-GYRO .AMPL      00 000 00 00          : 16  SIN-GYRO            
 XINCL    .AMPL      00 000 00 00          : 17  XINCL               
 YINCL    .AMPL      00 000 00 00          : 18  YINCL               
 CAGE     .VOLTS     00 000 00 00          : 19  CAGE                
 MAG-VECT .AMPL      00 000 00 00          : 20  MAG-VECT            
 TENSION  .CPS       00 000 00 00          : 21  LINE TENSION        
 TIME     .MINUTES   00 000 00 00          : 22  TIME                
~Parameter Information Block
#MNEM.UNIT   Information     Description
#---------- ---------------  ------------------------
 FILE.      PROCESSED          :File Type
 FIID.      9095C              :File Type Identifier
 VERS.      3.60E              :System Version
 SER .      1                  :System Serial Number
 TRUK.      0.25               :Truck Calibration Number
 TOOL.        1203             :Tool Serial Number
 TIME.      1519               :Time    HrHrMinMin
 LAT .                         :Latitude
 LON .                         :Longitude
 LMF .      LSD                :Log Measured From
 DMF .      LSD                :Driller Measured From
 PD  .                         :Permanent Data
 PDEV.                         :Elevation Permanent Data
 EKB .M                        :Elevation Kelly Bushing
 ELEV.DF                       :Elevation DF
 EGL .M                        :Elevation Ground Level
 DRDP.      1368               :Driller's Depth
 CASD.      10.                :Casing Diameter
 CASB.      1328               :Casing Bottom
 CASX.      SURFACE            :Casing Type
 CAST.      .25                :Casing Thickness
 TNOC.                         :Time Circulation Stopped
 LOGU.      USGS               :Logging Unit
 RECB.      MJG                :Recorded By
 OSR1.      0024               :Other Services
 OSR2.       9057              :Other Services
 OSR3.                         :Other Services
 BS  .IN         3.9           :Bit Size
 MST .      SH                 :Mean Surface Temperature
 TGRD.                         :Temperature Gradiant
 MAGN.        12.500           :Magnetic Declination
 MDEN.      2.65               :Density Matrix
 MATR.      SANDSTONE          :Neutron Matrix
 DTMT.      54                 :Delta T Matrix
 DTFL.                         :Delta T Fluid
 MUDS.      FLOW LINE          :Mud Sample Source
 MRS .      .179               :Mud Resistivity
 MTP .      68.5               :Mud Temperature
 MFRS.                         :Resistivity Mud Filtrate
 MFTP.                         :Temperature Mud Filtrate
 MCRS.                         :Resistivity Mud Cake
 MCTP.                         :Temperature Mud Cake
 FTYP.      AIR                :Fluid Type
 FD  .LB/G    NA               :Mud Weight
 DFV .S                        :Fluid Viscosity
 FPH .                         :Fuild PH
 ELCO.      99999              :Electron Cutoff
 CASL.      3.5                :Casing Logger
 LOTD.      1328               :Logger TD
 ARTM.      12:20              :Arrival Time
 DPTM.                         :Departure Time
 RIGN.                         :Rig Number
~Other Information
#MNEM.UNIT  Information      Description
#---------- ---------------  ------------------------
# -------------------------- 
~A DEPTH  T DEPTH   D DIFF N DEV     E DEV     DISTANCE  AZIMUTH SANG   SANGB  TOOLFACE DELT TF GYRO  PAD1-AZ GAMMA    COS-GYRO SIN-GYRO XINCL YINCL CAGE    MAG-VECT TENSION  TIME    
# ...
1131.600  1131.410  -0.2    -12.662     6.452    14.211  153.0    1.19  160.82 177.8    1.47    31.7  224.0      10.0  0.6514   -0.7046  -0.018 0.009      0  274826.0625    81.7  0.20000 
1131.800  1131.610  -0.2    -12.667     6.453    14.216  153.0    1.28  157.70 179.1    1.39    31.7  223.9      10.0  0.6688   -0.6892  -0.019 0.012      0  274820.2813    81.6  0.10000 
1132.000  1131.810  -0.2    -12.671     6.455    14.220  153.0    1.22  159.92 180.4    1.30    31.8  224.0      15.0  0.6856   -0.6752  -0.018 0.011      0  274823.1875    81.6  0.20000 
1132.200  1132.010  -0.2    -12.675     6.456    14.224  153.0    1.21  159.08 182.6    2.11    31.8  224.0      30.0  0.7102   -0.6496  -0.018 0.012      0  274823.1875    81.6  0.20000 
1132.400  1132.210  -0.2    -12.679     6.458    14.228  153.0    1.23  162.37 185.0    2.41    31.8  223.9      20.0  0.7386   -0.6205  -0.018 0.012      0  274823.1875    81.6  0.20000 
1132.600  1132.410  -0.2    -12.683     6.459    14.233  153.0    1.19  161.33 187.7    2.71    31.8  224.0      30.0  0.7670   -0.5847  -0.017 0.012      0  274820.3125    81.8  0.20000 
1132.800  1132.610  -0.2    -12.687     6.460    14.237  153.0    1.23  160.94 190.2    2.55    31.8  223.9      10.0  0.7917   -0.5497  -0.017 0.014      0  274823.1875    81.9  0.20000 
1133.000  1132.810  -0.2    -12.690     6.461    14.240  153.0    1.02  160.96 192.0    1.74    31.6  224.1      30.0  0.8049   -0.5233  -0.013 0.012      0  274823.1875    82.0  0.20000 
1133.200  1133.010  -0.2    -12.694     6.463    14.245  153.0    1.34  159.21 192.4    0.48    31.6  223.8      10.0  0.8072   -0.5153  -0.017 0.016      0  274817.4063    81.9  0.20000 
1133.400  1133.210  -0.2    -12.698     6.464    14.249  153.0    1.21  163.12 192.5    0.01    31.5  223.9      20.0  0.8047   -0.5136  -0.016 0.013      0  274820.2813    82.0  0.20000 
1133.600  1133.410  -0.2    -12.703     6.466    14.254  153.0    1.28  161.66 192.9    0.46    31.5  223.9      15.0  0.8092   -0.5073  -0.017 0.015      0  274823.1875    82.1  0.20000 
1133.800  1133.610  -0.2    -12.707     6.467    14.258  153.0    1.25  161.23 194.0    1.05    31.5  223.9      35.0  0.8184   -0.4923  -0.016 0.015      0  274826.0625    82.1  0.20000 
1134.000  1133.810  -0.2    -12.711     6.469    14.262  153.0    1.24  161.26 195.4    1.45    31.6  223.9      10.0  0.8332   -0.4729  -0.016 0.015      0  274823.1875    82.1  0.20000 
1134.200  1134.010  -0.2    -12.714     6.470    14.266  153.0    1.10  158.60 196.5    1.10    31.7  224.0      15.0  0.8457   -0.4587  -0.013 0.014      0  274820.2813    82.1  0.10000 
1134.400  1134.210  -0.2    -12.718     6.471    14.270  153.0    1.16  159.49 197.1    0.58    31.8  224.0      20.0  0.8530   -0.4515  -0.014 0.015      0  274823.1875    82.2  0.20000 
1134.600  1134.410  -0.2    -12.722     6.473    14.274  153.0    1.27  159.17 196.9    -0.18   31.8  223.9      20.0  0.8521   -0.4545  -0.015 0.016      0  274817.4375    82.2  0.20000 
1134.800  1134.610  -0.2    -12.726     6.474    14.279  153.0    1.24  159.75 195.6    -1.32   31.7  223.9      10.0  0.8394   -0.4728  -0.015 0.016      0  274826.0625    82.2  0.20000 
1135.000  1134.810  -0.2    -12.730     6.476    14.283  153.0    1.24  158.67 193.9    -1.74   31.8  223.9      55.0  0.8250   -0.4982  -0.015 0.015      0  274826.0625    82.2  0.20000 
1135.200  1135.010  -0.2    -12.735     6.477    14.287  153.0    1.24  160.64 192.2    -1.69   31.7  223.9      20.0  0.8095   -0.5220  -0.016 0.014      0  274817.4063    82.2  0.20000 
1135.400  1135.209  -0.2    -12.739     6.479    14.292  153.0    1.23  161.33 190.7    -1.47   31.7  223.9      10.0  0.7953   -0.5422  -0.017 0.014      0  274820.2813    82.0  0.20000 
1135.600  1135.409  -0.2    -12.743     6.480    14.296  153.0    1.20  158.61 189.9    -0.81   31.7  223.9      25.0  0.7864   -0.5526  -0.016 0.014      0  274820.2813    81.9  0.20000 
1135.800  1135.609  -0.2    -12.747     6.482    14.300  153.0    1.28  158.19 189.2    -0.69   31.7  223.9      15.0  0.7799   -0.5622  -0.017 0.015      0  274820.2813    81.9  0.20000 
1136.000  1135.809  -0.2    -12.751     6.483    14.304  153.0    1.20  159.32 187.8    -1.44   31.7  223.9      20.0  0.7650   -0.5812  -0.016 0.013      0  274817.4063    81.9  0.20000 
1136.200  1136.009  -0.2    -12.755     6.485    14.308  153.0    1.21  160.26 185.9    -1.84   31.7  223.9      35.0  0.7473   -0.6064  -0.017 0.012      0  274823.1563    81.8  0.20000 
1136.400  1136.209  -0.2    -12.759     6.487    14.313  153.1    1.36  158.20 185.0    -0.94   31.8  223.8      20.0  0.7372   -0.6187  -0.019 0.014      0  274820.2813    81.9  0.10000 
1136.600  1136.409  -0.2    -12.763     6.488    14.317  153.1    1.22  158.60 184.3    -0.68   31.8  223.9      20.0  0.7313   -0.6286  -0.017 0.012      0  274820.2813    81.9  0.20000 
1136.800  1136.609  -0.2    -12.767     6.490    14.322  153.1    1.19  157.06 183.3    -1.01   31.8  224.0    -999.3  0.7185   -0.6400  -0.017 0.012      0  274820.2813    82.0  0.20000 
1137.000  1136.809  -0.2    -12.771     6.491    14.326  153.1    1.20  157.72 181.6    -1.74   31.7  224.0      10.0  0.6981   -0.6610  -0.017 0.012      0  274817.4063    82.1  0.20000 
1137.200  1137.009  -0.2    -12.774     6.493    14.330  153.1    1.15  162.84 179.2    -2.39   31.7  224.0      15.0  0.6701   -0.6896  -0.018 0.009      0  274820.2813    82.0  0.20000 
1137.400  1137.209  -0.2    -12.778     6.494    14.334  153.1    1.19  159.43 176.2    -2.98   31.6  224.0    -999.3  0.6310   -0.7207  -0.018 0.009      0  274820.2813    82.1  0.20000 
1137.600  1137.409  -0.2    -12.782     6.495    14.338  153.1    1.16  159.17 172.3    -3.89   31.6  224.0      50.0  0.5802   -0.7612  -0.019 0.008      0  274823.1563    82.1  0.20000 
1137.800  1137.609  -0.2    -12.786     6.497    14.342  153.1    1.29  159.46 168.0    -4.36   31.7  224.0      30.0  0.5210   -0.8037  -0.021 0.007      0  274820.2813    82.1  0.20000 
1138.000  1137.809  -0.2    -12.790     6.498    14.346  153.1    1.17  160.97 163.5    -4.41   31.7  224.1      20.0  0.4575   -0.8411  -0.020 0.004      0  274814.5313    82.0  0.20000 
1138.200  1138.009  -0.2    -12.794     6.500    14.351  153.1    1.24  162.71 159.3    -4.21   31.7  224.1       5.0  0.3950   -0.8732  -0.021 0.003      0  274820.2813    82.0  0.20000 
1138.400  1138.209  -0.2    -12.798     6.501    14.355  153.1    1.22  161.74 156.8    -2.56   31.7  224.1      15.0  0.3558   -0.8908  -0.021 0.002      0  274820.2813    82.0  0.20000 
1138.600  1138.409  -0.2    -12.802     6.503    14.359  153.1    1.25  159.69 156.5    -0.32   31.7  224.1      35.0  0.3513   -0.8940  -0.022 0.003      0  274820.2813    81.8  0.20000 
1138.800  1138.609  -0.2    -12.806     6.504    14.363  153.1    1.12  155.55 157.0    0.53    31.7  224.1      60.0  0.3592   -0.8895  -0.019 0.004      0  274826.0938    81.8  0.10000 
1139.000  1138.809  -0.2    -12.810     6.506    14.367  153.1    1.17  157.11 156.9    -0.10   31.6  224.1      15.0  0.3567   -0.8881  -0.020 0.004      0  274826.0625    81.7  0.20000 
1139.200  1139.009  -0.2    -12.814     6.507    14.371  153.1    1.24  159.78 155.8    -1.05   31.6  224.1      20.0  0.3396   -0.8925  -0.022 0.002      0  274820.3125    81.8  0.20000 
1139.400  1139.209  -0.2    -12.818     6.509    14.376  153.1    1.19  159.90 155.3    -0.56   31.4  224.2      30.0  0.3295   -0.8921  -0.021 0.002      0  274823.1875    81.8  0.20000 
1139.600  1139.409  -0.2    -12.822     6.510    14.380  153.1    1.22  160.66 155.3    0.04    31.4  224.1      25.0  0.3296   -0.8906  -0.021 0.002      0  274817.4063    81.9  0.20000 
1139.800  1139.609  -0.2    -12.826     6.511    14.384  153.1    1.16  161.24 155.5    0.24    31.5  224.2      30.0  0.3343   -0.8918  -0.020 0.002      0  274826.0625    82.0  0.20000 
1140.000  1139.808  -0.2    -12.830     6.513    14.388  153.1    1.25  161.60 155.8    0.24    31.5  224.1      15.0  0.3383   -0.8912  -0.022 0.002      0  274823.1563    82.0  0.20000 
