~Version Information
 VERS.                2.0:  CWLS LOG ASCII STANDARD -VERSION 2.0
 WRAP.                 NO:  ONE LINE PER DEPTH STEP
~WELL INFORMATION BLOCK
#MNEM.UNIT       DATA		            DESCRIPTION OF MNEMONIC
#---------    -------------            ------------------------
 STRT.FT  -4.400                         :START DEPTH
 STOP.FT  1314.600                       :STOP DEPTH
 STEP.FT  0.200                          :STEP    UP_HOLE  
 NULL.    -999.25                        :NULL VALUE
 COMP.    USGS                           :COMPANY
 WELL.    USGS 145                                                     :WELL
 FLD .    INL                            :FIELD\LOCATION
 LOC .                                   :LOCATION
 CNTY.    BUTTE                          :COUNTY
 STAT.    IDAHO                          :STATE
 CTRY.    USA                            :COUNTRY
 SRVC.    USGS                           :SERVICE COMPANY
 DATE.    07/16/2018                     :LOG DATE
 API .   CAL. 2017                           :API NUMBER
 LIC .    USGS                           :LICENSE NUMBER
~Curve Information Block
#MNEM.UNIT      API CODE     Curve Description
#---------    -------------  ------------------------
 DEPT     .FT        00 001 00 00          :  1  DEPTH   
 SANG     .DEG       00 620 00 00          :  2  SAMPLE SLANT ANGLE  
 SANGB    .DEG       00 631 00 00          :  3  SAMPLE ANG BEARING  
 TOOLFACE .DEG       00 000 00 00          :  4  TOOLFACE            
 DELT TF  .DEG       00 000 00 00          :  5  DELT TF             
 GYRO     .VOLTS     00 000 00 00          :  6  GYRO                
 PAD1-AZ  .DEG       00 632 00 00          :  7  SAMPLE PAD 1 AZIM   
 GAMMA    .CPS       00 310 00 00          :  8  GAMMA RAY           
 COS-GYRO .AMPL      00 000 00 00          :  9  COS-GYRO            
 SIN-GYRO .AMPL      00 000 00 00          : 10  SIN-GYRO            
 XINCL    .AMPL      00 000 00 00          : 11  XINCL               
 YINCL    .AMPL      00 000 00 00          : 12  YINCL               
 CAGE     .VOLTS     00 000 00 00          : 13  CAGE                
 MAG-VECT .AMPL      00 000 00 00          : 14  MAG-VECT            
 MSANGB   .DEG       00 000 00 00          : 15  MSANGB              
 TIME     .MINUTES   00 000 00 00          : 16  TIME                
~Parameter Information Block
#MNEM.UNIT   Information     Description
#---------- ---------------  ------------------------
 FILE.      PROCESSED          :File Type
 FIID.      9095C              :File Type Identifier
 VERS.      3.60E              :System Version
 SER .      1                  :System Serial Number
 TRUK.      0.25               :Truck Calibration Number
 TOOL.        1203             :Tool Serial Number
 TIME.      1600               :Time    HrHrMinMin
 LAT .                         :Latitude
 LON .                         :Longitude
 LMF .      LSD                :Log Measured From
 DMF .      LSD                :Driller Measured From
 PD  .                         :Permanent Data
 PDEV.                         :Elevation Permanent Data
 EKB .M                        :Elevation Kelly Bushing
 ELEV.DF                       :Elevation DF
 EGL .M                        :Elevation Ground Level
 DRDP.      1368               :Driller's Depth
 CASD.      10.                :Casing Diameter
 CASB.      1328               :Casing Bottom
 CASX.      SURFACE            :Casing Type
 CAST.      .25                :Casing Thickness
 TNOC.                         :Time Circulation Stopped
 LOGU.      USGS               :Logging Unit
 RECB.      MJG                :Recorded By
 OSR1.      0024               :Other Services
 OSR2.       9057              :Other Services
 OSR3.                         :Other Services
 BS  .IN         3.9           :Bit Size
 MST .      SH                 :Mean Surface Temperature
 TGRD.                         :Temperature Gradiant
 MAGN.      0                  :Magnetic Declination
 MDEN.      2.65               :Density Matrix
 MATR.      SANDSTONE          :Neutron Matrix
 DTMT.      54                 :Delta T Matrix
 DTFL.                         :Delta T Fluid
 MUDS.      FLOW LINE          :Mud Sample Source
 MRS .      .179               :Mud Resistivity
 MTP .      68.5               :Mud Temperature
 MFRS.                         :Resistivity Mud Filtrate
 MFTP.                         :Temperature Mud Filtrate
 MCRS.                         :Resistivity Mud Cake
 MCTP.                         :Temperature Mud Cake
 FTYP.      AIR                :Fluid Type
 FD  .LB/G    NA               :Mud Weight
 DFV .S                        :Fluid Viscosity
 FPH .                         :Fuild PH
 ELCO.      99999              :Electron Cutoff
 CASL.      3.5                :Casing Logger
 LOTD.      1328               :Logger TD
 ARTM.      12:20              :Arrival Time
 DPTM.                         :Departure Time
 RIGN.                         :Rig Number
~Other Information
#MNEM.UNIT  Information      Description
#---------- ---------------  ------------------------
# -------------------------- 
~A DEPTH  SANG   SANGB  TOOLFACE DELT TF GYRO  PAD1-AZ GAMMA    COS-GYRO SIN-GYRO XINCL YINCL CAGE    MAG-VECT MSANGB TIME    
# ...
 949.200   1.14  157.63 351.0    -0.48   31.5  225.5      15.0  -0.5636  0.7766   0.019 -0.005      0  274823.1563 238.82 0.20000 
 949.400   1.20  157.61 351.4    -0.44   31.6  225.5      40.0  -0.5720  0.7746   0.020 -0.005      0  274826.0625 239.36 0.10000 
 949.600   1.18  159.04 351.9    -0.44   31.7  225.5       5.0  -0.5790  0.7714   0.020 -0.005      0  274820.2813 238.35 0.20000 
 949.800   1.09  158.15 352.3    -0.49   31.7  225.5      25.0  -0.5854  0.7677   0.018 -0.005      0  274820.2813 239.63 0.20000 
 950.000   1.19  157.68 352.8    -0.06   31.6  225.5    -999.3  -0.5907  0.7610   0.020 -0.005      0  274823.1563 240.67 0.10000 
 950.200   1.18  158.81 352.9    0.02    31.6  225.5       5.0  -0.5911  0.7598   0.020 -0.005      0  274826.0313 239.58 0.20000 
 950.400   1.11  159.04 352.9    -0.19   31.6  225.5      40.0  -0.5899  0.7586   0.019 -0.005      0  274823.1875 239.29 0.20000 
 950.600   1.18  159.41 353.1    -0.23   31.5  225.5      30.0  -0.5920  0.7563   0.020 -0.005      0  274823.1875 239.15 0.10000 
 950.800   1.14  158.33 353.3    -0.08   31.5  225.5       5.0  -0.5947  0.7535   0.019 -0.005      0  274820.2813 240.44 0.20000 
 951.000   1.16  158.34 353.4    -0.01   31.6  225.5      15.0  -0.5964  0.7536   0.020 -0.005      0  274823.1563 240.53 0.20000 
 951.200   1.17  158.58 353.4    0.16    31.5  225.5      10.0  -0.5953  0.7521   0.020 -0.005      0  274820.2500 240.29 0.10000 
 951.400   1.19  159.32 353.2    0.35    31.5  225.5      30.0  -0.5929  0.7532   0.020 -0.005      0  274820.2813 239.40 0.20000 
 951.600   1.17  158.45 352.9    0.71    31.6  225.5      15.0  -0.5911  0.7606   0.020 -0.005      0  274817.3750 239.91 0.20000 
 951.800   1.16  157.93 352.1    0.77    31.6  225.5      30.0  -0.5820  0.7683   0.020 -0.005      0  274823.1563 239.72 0.10000 
 952.000   1.18  157.77 351.4    1.00    31.7  225.5      25.0  -0.5718  0.7763   0.020 -0.005      0  274820.3125 239.11 0.20000 
 952.200   1.19  156.91 350.4    1.55    31.6  225.5      40.0  -0.5574  0.7849   0.020 -0.005      0  274820.2813 238.98 0.20000 
 952.400   1.15  157.31 348.8    1.07    31.5  225.5      30.0  -0.5342  0.7971   0.020 -0.004      0  274823.1563 237.00 0.10000 
 952.600   1.23  157.75 347.8    0.70    31.5  225.5      15.0  -0.5188  0.8063   0.021 -0.004      0  274826.0313 235.52 0.20000 
 952.800   1.20  158.34 347.1    0.50    31.5  225.5      15.0  -0.5090  0.8128   0.021 -0.003      0  274823.1563 234.19 0.20000 
 953.000   1.14  156.92 346.6    0.12    31.5  225.4      40.0  -0.5022  0.8179   0.020 -0.003      0  274820.2813 235.08 0.10000 
 953.200   1.15  157.69 346.4    -0.30   31.5  225.4      30.0  -0.5006  0.8189   0.020 -0.003      0  274820.2813 234.19 0.20000 
 953.400   1.17  157.02 346.7    -0.86   31.6  225.5      45.0  -0.5064  0.8187   0.020 -0.003      0  274823.1563 235.19 0.20000 
 953.600   1.19  155.86 347.6    -0.80   31.6  225.5      40.0  -0.5190  0.8115   0.020 -0.004      0  274823.1563 237.24 0.10000 
 953.800   1.23  156.86 348.4    -0.89   31.6  225.5       5.0  -0.5309  0.8051   0.021 -0.004      0  274820.2813 237.06 0.20000 
 954.000   1.14  157.70 349.3    -1.02   31.7  225.5      25.0  -0.5445  0.7984   0.020 -0.004      0  274817.4063 237.07 0.20000 
 954.200   1.19  157.97 350.3    -0.65   31.8  225.5      40.0  -0.5597  0.7900   0.020 -0.004      0  274820.2813 237.85 0.10000 
 954.400   1.17  159.65 351.0    -0.83   31.7  225.5      55.0  -0.5678  0.7824   0.020 -0.004      0  274820.2813 236.81 0.20000 
 954.600   1.12  160.40 351.8    -1.69   31.8  225.5      20.0  -0.5806  0.7760   0.019 -0.004      0  274823.1563 236.86 0.20000 
 954.800   1.00  161.08 353.5    -1.86   31.8  225.4      10.0  -0.6031  0.7583   0.017 -0.004      0  274823.1563 237.80 0.10000 
 955.000   1.54  164.63 355.4    -2.35   31.7  225.7      15.0  -0.6256  0.7361   0.026 -0.005      0  274826.0313 236.43 0.20000 
 955.200   1.07  159.94 357.7    357.14  31.7  225.5      15.0  -0.6551  0.7097   0.018 -0.006      0  274820.2813 243.24 0.20000 
 955.400   1.10  160.55  0.6     -1.84   31.7  225.5      70.0  -0.6905  0.6770   0.018 -0.007      0  274823.1563 245.52 0.10000 
 955.600   1.13  158.41  2.4     -1.32   31.7  225.5      40.0  -0.7118  0.6545   0.018 -0.008      0  274820.2813 249.54 0.20000 
 955.800   1.17  160.26  3.7     -0.51   31.8  225.6      15.0  -0.7283  0.6394   0.019 -0.008      0  274817.4063 249.02 0.20000 
 956.000   1.07  159.62  4.2     0.43    31.8  225.5      10.0  -0.7351  0.6337   0.017 -0.008      0  274823.1563 250.11 0.10000 
 956.200   1.05  157.86  3.8     1.46    31.8  225.5      80.0  -0.7301  0.6390   0.017 -0.008      0  274820.2813 251.44 0.20000 
 956.400   1.26  155.91  2.3     -355.92 31.8  225.6      15.0  -0.7127  0.6566   0.020 -0.010      0  274823.1875 252.07 0.20000 
 956.600   1.17  155.32 358.3    4.61    31.8  225.6      20.0  -0.6637  0.7051   0.019 -0.008      0  274820.2813 248.51 0.10000 
 956.800   1.37  144.74 353.7    5.84    31.8  225.7      40.0  -0.6044  0.7556   0.021 -0.012      0  274826.0938 254.63 0.20000 
 957.000   1.15  154.28 347.8    9.19    31.7  225.5      30.0  -0.5227  0.8105   0.020 -0.005      0  274823.1563 239.03 0.20000 
 957.200   1.26  153.79 338.6    7.98    31.6  225.5    -999.3  -0.3853  0.8809   0.022 -0.002      0  274817.4063 230.32 0.10000 
 957.400   1.22  153.33 330.6    8.86    31.5  225.4    -999.3  -0.2589  0.9244   0.021 0.001      0  274820.2813 222.70 0.20000 
 957.600   1.23  153.41 321.8    12.60   31.5  225.3      30.0  -0.1132  0.9520   0.021 0.004      0  274820.2813 213.65 0.20000 
 957.800   1.27  153.15 309.2    10.10   31.5  225.1      10.0  0.0969   0.9507   0.020 0.009      0  274823.1875 201.15 0.10000 
 958.000   1.33  154.64 299.1    10.46   31.5  225.0      15.0  0.2626   0.9207   0.019 0.014      0  274826.0313 189.39 0.20000 
 958.200   1.25  154.22 288.6    13.96   31.6  224.8       5.0  0.4244   0.8557   0.015 0.016      0  274820.2813 179.17 0.20000 
 958.400   1.18  152.39 274.7    10.64   31.7  224.6      70.0  0.6203   0.7304   0.011 0.017      0  274820.2813 166.87 0.10000 
 958.600   1.28  150.30 264.0    10.74   31.6  224.5      40.0  0.7441   0.6030   0.009 0.020      0  274820.2813 158.17 0.20000 
 958.800   1.17  148.19 253.3    14.97   31.6  224.4      35.0  0.8443   0.4543   0.005 0.020      0  274820.2813 149.46 0.20000 
 959.000   1.20  148.91 238.3    11.34   31.5  224.2      50.0  0.9315   0.2204   -0.000 0.021      0  274823.1563 133.57 0.10000 
 959.200   0.96  149.33 227.0    11.01   31.5  224.2    -999.3  0.9584   0.0329   -0.004 0.016      0  274820.2813 121.85 0.20000 
 959.400   1.21  149.80 216.0    11.33   31.5  224.0       5.0  0.9443   -0.1503  -0.009 0.019      0  274823.1563 110.13 0.20000 
 959.600   1.31  148.35 204.6    11.89   31.6  223.9      50.0  0.8958   -0.3328  -0.013 0.019      0  274820.2813 100.15 0.10000 
 959.800   1.16  152.54 192.7    16.18   31.6  224.0       5.0  0.8043   -0.5079  -0.016 0.013      0  274820.2813 84.16  0.20000 
 960.000   0.97  151.27 176.6    12.14   31.7  224.1      20.0  0.6321   -0.7132  -0.015 0.007      0  274823.1563 69.43  0.10000 
 960.200   0.97  151.55 164.4    12.29   31.6  224.2      20.0  0.4675   -0.8295  -0.017 0.004      0  274814.5313 57.07  0.20000 
 960.400   1.16  149.29 152.1    16.33   31.6  224.2      10.0  0.2801   -0.9094  -0.020 0.001      0  274820.2813 47.03  0.20000 
 960.600   1.14  160.75 135.8    11.29   31.7  224.5      10.0  0.0131   -0.9573  -0.018 -0.008      0  274820.2813 19.56  0.10000 
 960.800   1.19  161.84 124.5    10.80   31.7  224.7      15.0  -0.1752  -0.9447  -0.017 -0.013      0  274814.4688  7.34  0.20000 
 961.000   1.20  161.23 113.7    13.68   31.8  224.8      40.0  -0.3487  -0.8942  -0.014 -0.015      0  274823.1563 357.30 0.20000 
 961.200   1.16  159.06 100.0    9.58    31.7  225.0      10.0  -0.5506  -0.7867  -0.010 -0.017      0  274823.1563 345.94 0.10000 
 961.400   1.06  157.01 90.4     8.86    31.7  225.1      20.0  -0.6744  -0.6846  -0.007 -0.017      0  274820.2813 338.48 0.20000 
