~Version Information
 VERS.                2.0:  CWLS LOG ASCII STANDARD -VERSION 2.0
 WRAP.                 NO:  ONE LINE PER DEPTH STEP
~WELL INFORMATION BLOCK
#MNEM.UNIT       DATA		            DESCRIPTION OF MNEMONIC
#---------    -------------            ------------------------
 STRT.FT  -3.600                         :START DEPTH
 STOP.FT  1314.400                       :STOP DEPTH
 STEP.FT  0.200                          :STEP  DOWN_HOLE  
 NULL.    -999.25                        :NULL VALUE
 COMP.    USGS                           :COMPANY
 WELL.    USGS 145                                                     :WELL
 FLD .    INL                            :FIELD\LOCATION
 LOC .                                   :LOCATION
 CNTY.    BUTTE                          :COUNTY
 STAT.    IDAHO                          :STATE
 CTRY.    USA                            :COUNTRY
 SRVC.    USGS                           :SERVICE COMPANY
 DATE.    07/16/2018                     :LOG DATE
 API .   CAL. 2017                           :API NUMBER
 LIC .    USGS                           :LICENSE NUMBER
~Curve Information Block
#MNEM.UNIT      API CODE     Curve Description
#---------    -------------  ------------------------
 DEPT     .FT        00 001 00 00          :  1  DEPTH   
 T DEPTH  .FT        00 960 00 00          :  2  TRUE DEPTH          
 D DIFF   .FT        00 000 00 00          :  3  DEPTH DIFFERENCE    
 N DEV    .FT        00 000 00 00          :  4  NORTH DEVIATION     
 E DEV    .FT        00 000 00 00          :  5  EAST DEVIATION      
 DISTANCE .FT        00 000 00 00          :  6  DEVIATED DISTANCE   
 AZIMUTH  .DEG       00 630 00 00          :  7  DEVIATED AZIMUTH    
 SANG     .DEG       00 620 00 00          :  8  SAMPLE SLANT ANGLE  
 SANGB    .DEG       00 631 00 00          :  9  SAMPLE ANG BEARING  
 TOOLFACE .DEG       00 000 00 00          : 10  TOOLFACE            
 DELT TF  .DEG       00 000 00 00          : 11  DELT TF             
 GYRO     .VOLTS     00 000 00 00          : 12  GYRO                
 PAD1-AZ  .DEG       00 632 00 00          : 13  SAMPLE PAD 1 AZIM   
 GAMMA    .CPS       00 310 00 00          : 14  GAMMA RAY           
 COS-GYRO .AMPL      00 000 00 00          : 15  COS-GYRO            
 SIN-GYRO .AMPL      00 000 00 00          : 16  SIN-GYRO            
 XINCL    .AMPL      00 000 00 00          : 17  XINCL               
 YINCL    .AMPL      00 000 00 00          : 18  YINCL               
 CAGE     .VOLTS     00 000 00 00          : 19  CAGE                
 MAG-VECT .AMPL      00 000 00 00          : 20  MAG-VECT            
 TENSION  .CPS       00 000 00 00          : 21  LINE TENSION        
 TIME     .MINUTES   00 000 00 00          : 22  TIME                
~Parameter Information Block
#MNEM.UNIT   Information     Description
#---------- ---------------  ------------------------
 FILE.      PROCESSED          :File Type
 FIID.      9095C              :File Type Identifier
 VERS.      3.60E              :System Version
 SER .      1                  :System Serial Number
 TRUK.      0.25               :Truck Calibration Number
 TOOL.        1203             :Tool Serial Number
 TIME.      1519               :Time    HrHrMinMin
 LAT .                         :Latitude
 LON .                         :Longitude
 LMF .      LSD                :Log Measured From
 DMF .      LSD                :Driller Measured From
 PD  .                         :Permanent Data
 PDEV.                         :Elevation Permanent Data
 EKB .M                        :Elevation Kelly Bushing
 ELEV.DF                       :Elevation DF
 EGL .M                        :Elevation Ground Level
 DRDP.      1368               :Driller's Depth
 CASD.      10.                :Casing Diameter
 CASB.      1328               :Casing Bottom
 CASX.      SURFACE            :Casing Type
 CAST.      .25                :Casing Thickness
 TNOC.                         :Time Circulation Stopped
 LOGU.      USGS               :Logging Unit
 RECB.      MJG                :Recorded By
 OSR1.      0024               :Other Services
 OSR2.       9057              :Other Services
 OSR3.                         :Other Services
 BS  .IN         3.9           :Bit Size
 MST .      SH                 :Mean Surface Temperature
 TGRD.                         :Temperature Gradiant
 MAGN.        12.500           :Magnetic Declination
 MDEN.      2.65               :Density Matrix
 MATR.      SANDSTONE          :Neutron Matrix
 DTMT.      54                 :Delta T Matrix
 DTFL.                         :Delta T Fluid
 MUDS.      FLOW LINE          :Mud Sample Source
 MRS .      .179               :Mud Resistivity
 MTP .      68.5               :Mud Temperature
 MFRS.                         :Resistivity Mud Filtrate
 MFTP.                         :Temperature Mud Filtrate
 MCRS.                         :Resistivity Mud Cake
 MCTP.                         :Temperature Mud Cake
 FTYP.      AIR                :Fluid Type
 FD  .LB/G    NA               :Mud Weight
 DFV .S                        :Fluid Viscosity
 FPH .                         :Fuild PH
 ELCO.      99999              :Electron Cutoff
 CASL.      3.5                :Casing Logger
 LOTD.      1328               :Logger TD
 ARTM.      12:20              :Arrival Time
 DPTM.                         :Departure Time
 RIGN.                         :Rig Number
~Other Information
#MNEM.UNIT  Information      Description
#---------- ---------------  ------------------------
# -------------------------- 
~A DEPTH  T DEPTH   D DIFF N DEV     E DEV     DISTANCE  AZIMUTH SANG   SANGB  TOOLFACE DELT TF GYRO  PAD1-AZ GAMMA    COS-GYRO SIN-GYRO XINCL YINCL CAGE    MAG-VECT TENSION  TIME    
# ...
1045.600  1045.431  -0.2    -10.887     5.845    12.357  151.8    1.20  161.44 147.1    -0.22   31.8  224.2      75.0  0.2018   -0.9406  -0.021 -0.002      0  274823.1875    81.6  0.20000 
1045.800  1045.631  -0.2    -10.891     5.847    12.361  151.8    1.30  160.57 146.9    -0.19   31.7  224.2      15.0  0.1982   -0.9391  -0.023 -0.001      0  274823.1875    81.5  0.20000 
1046.000  1045.831  -0.2    -10.896     5.848    12.366  151.8    1.33  160.72 147.1    0.21    31.7  224.2      35.0  0.2015   -0.9377  -0.023 -0.001      0  274820.2813    81.5  0.10000 
1046.200  1046.031  -0.2    -10.900     5.850    12.370  151.8    1.30  160.80 147.5    0.34    31.6  224.2      30.0  0.2066   -0.9341  -0.023 -0.001      0  274826.0625    81.4  0.20000 
1046.400  1046.231  -0.2    -10.904     5.851    12.375  151.8    1.23  161.27 147.6    0.13    31.7  224.2      20.0  0.2091   -0.9355  -0.021 -0.001      0  274823.1563    81.3  0.20000 
1046.600  1046.431  -0.2    -10.908     5.852    12.379  151.8    1.31  160.48 147.2    -0.42   31.7  224.2      25.0  0.2028   -0.9392  -0.023 -0.001      0  274814.5313    81.2  0.20000 
1046.800  1046.631  -0.2    -10.913     5.854    12.383  151.8    1.24  161.27 146.9    -0.30   31.8  224.2      35.0  0.1981   -0.9415  -0.022 -0.002      0  274823.1875    81.3  0.20000 
1047.000  1046.831  -0.2    -10.917     5.855    12.388  151.8    1.21  161.89 146.9    -0.03   31.8  224.3      55.0  0.1975   -0.9410  -0.021 -0.002      0  274826.0625    81.4  0.20000 
1047.200  1047.031  -0.2    -10.921     5.857    12.392  151.8    1.22  160.96 146.7    -0.17   31.7  224.2      40.0  0.1946   -0.9418  -0.021 -0.002      0  274820.2813    81.4  0.10000 
1047.400  1047.230  -0.2    -10.925     5.858    12.396  151.8    1.28  161.21 146.4    -0.27   31.8  224.2      35.0  0.1905   -0.9437  -0.022 -0.002      0  274823.1875    81.4  0.20000 
1047.600  1047.430  -0.2    -10.929     5.859    12.401  151.8    1.27  161.36 146.9    0.48    31.8  224.2      90.0  0.1983   -0.9419  -0.022 -0.002      0  274823.1875    81.4  0.20000 
1047.800  1047.630  -0.2    -10.933     5.861    12.405  151.8    1.25  161.40 147.4    0.53    31.8  224.2      25.0  0.2070   -0.9400  -0.022 -0.001      0  274823.1563    81.3  0.20000 
1048.000  1047.830  -0.2    -10.937     5.862    12.409  151.8    1.26  160.21 147.7    0.29    31.7  224.2      15.0  0.2115   -0.9381  -0.022 -0.001      0  274820.2813    81.4  0.20000 
1048.200  1048.030  -0.2    -10.942     5.864    12.414  151.8    1.29  160.51 148.0    0.34    31.7  224.2      20.0  0.2171   -0.9368  -0.022 -0.001      0  274820.3125    81.4  0.20000 
1048.400  1048.230  -0.2    -10.946     5.865    12.418  151.8    1.24  161.28 148.4    0.31    31.7  224.2      10.0  0.2216   -0.9334  -0.022 -0.001      0  274820.3125    81.4  0.20000 
1048.600  1048.430  -0.2    -10.949     5.866    12.422  151.8    1.08  162.80 148.4    0.08    31.6  224.3      25.0  0.2226   -0.9320  -0.019 -0.001      0  274820.2813    81.4  0.10000 
1048.800  1048.630  -0.2    -10.953     5.868    12.426  151.8    1.26  161.26 148.2    -0.22   31.7  224.2      30.0  0.2194   -0.9344  -0.022 -0.001      0  274826.0625    81.4  0.20000 
1049.000  1048.830  -0.2    -10.958     5.869    12.431  151.8    1.32  160.96 148.0    -0.17   31.7  224.2      10.0  0.2167   -0.9358  -0.023 -0.001      0  274814.5313    81.4  0.20000 
1049.200  1049.030  -0.2    -10.962     5.871    12.435  151.8    1.20  161.60 148.4    0.37    31.8  224.2      15.0  0.2233   -0.9368  -0.021 -0.001      0  274823.1563    81.3  0.20000 
1049.400  1049.230  -0.2    -10.966     5.872    12.439  151.8    1.26  161.97 148.9    0.50    31.8  224.2      10.0  0.2314   -0.9343  -0.022 -0.001      0  274820.3125    81.3  0.20000 
1049.600  1049.430  -0.2    -10.970     5.873    12.443  151.8    1.24  161.05 149.4    0.52    31.8  224.2      35.0  0.2398   -0.9317  -0.022 -0.001      0  274823.1875    81.3  0.20000 
1049.800  1049.630  -0.2    -10.974     5.875    12.447  151.8    1.20  161.24 150.0    0.53    31.8  224.2      15.0  0.2484   -0.9296  -0.021 -0.000      0  274820.2813    81.3  0.10000 
1050.000  1049.830  -0.2    -10.978     5.876    12.452  151.8    1.37  160.41 150.4    0.47    31.8  224.1      50.0  0.2560   -0.9279  -0.024 0.000      0  274823.1875    81.3  0.20000 
1050.200  1050.030  -0.2    -10.982     5.878    12.456  151.8    1.15  160.80 150.7    0.24    31.7  224.2      60.0  0.2596   -0.9257  -0.020 0.000      0  274817.4063    81.3  0.20000 
1050.400  1050.230  -0.2    -10.986     5.879    12.460  151.8    1.22  160.99 150.7    0.00    31.7  224.2      35.0  0.2589   -0.9232  -0.021 -0.000      0  274817.4063    81.5  0.20000 
1050.600  1050.430  -0.2    -10.991     5.880    12.465  151.9    1.29  160.99 150.8    0.18    31.6  224.2      30.0  0.2616   -0.9218  -0.023 0.000      0  274817.4375    81.5  0.20000 
1050.800  1050.630  -0.2    -10.995     5.882    12.469  151.9    1.25  161.65 151.0    0.11    31.6  224.2      50.0  0.2632   -0.9206  -0.022 -0.000      0  274820.2813    81.4  0.20000 
1051.000  1050.830  -0.2    -10.999     5.883    12.473  151.9    1.17  161.36 150.8    -0.12   31.6  224.2      55.0  0.2612   -0.9207  -0.020 -0.000      0  274820.2813    81.4  0.10000 
1051.200  1051.030  -0.2    -11.002     5.884    12.477  151.9    1.16  161.31 150.8    -0.06   31.7  224.2      50.0  0.2606   -0.9224  -0.020 -0.000      0  274820.2813    81.4  0.20000 
1051.400  1051.229  -0.2    -11.006     5.886    12.481  151.9    1.23  160.69 151.1    0.33    31.7  224.2      30.0  0.2660   -0.9213  -0.022 0.000      0  274823.1875    81.3  0.20000 
1051.600  1051.429  -0.2    -11.011     5.887    12.486  151.9    1.27  160.79 151.7    0.62    31.7  224.2      30.0  0.2760   -0.9185  -0.022 0.000      0  274823.1875    81.2  0.20000 
1051.800  1051.629  -0.2    -11.015     5.889    12.490  151.9    1.22  160.77 152.1    0.41    31.8  224.2      95.0  0.2833   -0.9189  -0.021 0.001      0  274823.1875    81.2  0.20000 
1052.000  1051.829  -0.2    -11.019     5.890    12.494  151.9    1.24  160.14 152.4    0.28    31.7  224.2      40.0  0.2875   -0.9168  -0.022 0.001      0  274823.1563    81.2  0.20000 
1052.200  1052.029  -0.2    -11.023     5.891    12.498  151.9    1.18  160.88 152.7    0.26    31.7  224.2      20.0  0.2915   -0.9149  -0.021 0.001      0  274820.2813    81.2  0.10000 
1052.400  1052.229  -0.2    -11.027     5.893    12.502  151.9    1.21  161.26 152.8    0.15    31.7  224.2      70.0  0.2934   -0.9126  -0.021 0.001      0  274817.4063    81.3  0.20000 
1052.600  1052.429  -0.2    -11.030     5.894    12.506  151.9    1.15  161.47 152.7    -0.10   31.6  224.2      40.0  0.2913   -0.9112  -0.020 0.001      0  274820.3125    81.2  0.20000 
1052.800  1052.629  -0.2    -11.034     5.895    12.510  151.9    1.18  161.58 152.2    -0.51   31.5  224.2      35.0  0.2820   -0.9101  -0.021 0.000      0  274823.1875    81.3  0.20000 
1053.000  1052.829  -0.2    -11.038     5.897    12.515  151.9    1.21  161.67 151.9    -0.31   31.4  224.2      35.0  0.2766   -0.9099  -0.021 0.000      0  274823.1875    81.4  0.20000 
1053.200  1053.029  -0.2    -11.042     5.898    12.519  151.9    1.24  161.67 152.1    0.17    31.5  224.2      40.0  0.2795   -0.9095  -0.022 0.000      0  274823.1563    81.3  0.20000 
1053.400  1053.229  -0.2    -11.046     5.899    12.523  151.9    1.20  160.80 152.4    0.30    31.5  224.2      60.0  0.2849   -0.9104  -0.021 0.001      0  274823.1563    81.2  0.20000 
1053.600  1053.429  -0.2    -11.050     5.901    12.527  151.9    1.20  159.87 152.8    0.40    31.6  224.2      75.0  0.2917   -0.9095  -0.021 0.001      0  274820.2813    81.3  0.10000 
1053.800  1053.629  -0.2    -11.054     5.902    12.531  151.9    1.15  161.26 153.5    0.74    31.7  224.2      75.0  0.3044   -0.9085  -0.020 0.001      0  274826.0625    81.3  0.20000 
1054.000  1053.829  -0.2    -11.058     5.903    12.535  151.9    1.12  161.72 154.2    0.71    31.8  224.2      40.0  0.3167   -0.9073  -0.020 0.001      0  274826.0625    81.3  0.20000 
