~Version Information
 VERS.                2.0:  CWLS LOG ASCII STANDARD -VERSION 2.0
 WRAP.                 NO:  ONE LINE PER DEPTH STEP
~WELL INFORMATION BLOCK
#MNEM.UNIT       DATA		            DESCRIPTION OF MNEMONIC
#---------    -------------            ------------------------
 STRT.FT  -4.400                         :START DEPTH
 STOP.FT  1314.600                       :STOP DEPTH
 STEP.FT  0.200                          :STEP    UP_HOLE  
 NULL.    -999.25                        :NULL VALUE
 COMP.    USGS                           :COMPANY
 WELL.    USGS 145                                                     :WELL
 FLD .    INL                            :FIELD\LOCATION
 LOC .                                   :LOCATION
 CNTY.    BUTTE                          :COUNTY
 STAT.    IDAHO                          :STATE
 CTRY.    USA                            :COUNTRY
 SRVC.    USGS                           :SERVICE COMPANY
 DATE.    07/16/2018                     :LOG DATE
 API .   CAL. 2017                           :API NUMBER
 LIC .    USGS                           :LICENSE NUMBER
~Curve Information Block
#MNEM.UNIT      API CODE     Curve Description
#---------    -------------  ------------------------
 DEPT     .FT        00 001 00 00          :  1  DEPTH   
 SANG     .DEG       00 620 00 00          :  2  SAMPLE SLANT ANGLE  
 SANGB    .DEG       00 631 00 00          :  3  SAMPLE ANG BEARING  
 TOOLFACE .DEG       00 000 00 00          :  4  TOOLFACE            
 DELT TF  .DEG       00 000 00 00          :  5  DELT TF             
 GYRO     .VOLTS     00 000 00 00          :  6  GYRO                
 PAD1-AZ  .DEG       00 632 00 00          :  7  SAMPLE PAD 1 AZIM   
 GAMMA    .CPS       00 310 00 00          :  8  GAMMA RAY           
 COS-GYRO .AMPL      00 000 00 00          :  9  COS-GYRO            
 SIN-GYRO .AMPL      00 000 00 00          : 10  SIN-GYRO            
 XINCL    .AMPL      00 000 00 00          : 11  XINCL               
 YINCL    .AMPL      00 000 00 00          : 12  YINCL               
 CAGE     .VOLTS     00 000 00 00          : 13  CAGE                
 MAG-VECT .AMPL      00 000 00 00          : 14  MAG-VECT            
 MSANGB   .DEG       00 000 00 00          : 15  MSANGB              
 TIME     .MINUTES   00 000 00 00          : 16  TIME                
~Parameter Information Block
#MNEM.UNIT   Information     Description
#---------- ---------------  ------------------------
 FILE.      PROCESSED          :File Type
 FIID.      9095C              :File Type Identifier
 VERS.      3.60E              :System Version
 SER .      1                  :System Serial Number
 TRUK.      0.25               :Truck Calibration Number
 TOOL.        1203             :Tool Serial Number
 TIME.      1600               :Time    HrHrMinMin
 LAT .                         :Latitude
 LON .                         :Longitude
 LMF .      LSD                :Log Measured From
 DMF .      LSD                :Driller Measured From
 PD  .                         :Permanent Data
 PDEV.                         :Elevation Permanent Data
 EKB .M                        :Elevation Kelly Bushing
 ELEV.DF                       :Elevation DF
 EGL .M                        :Elevation Ground Level
 DRDP.      1368               :Driller's Depth
 CASD.      10.                :Casing Diameter
 CASB.      1328               :Casing Bottom
 CASX.      SURFACE            :Casing Type
 CAST.      .25                :Casing Thickness
 TNOC.                         :Time Circulation Stopped
 LOGU.      USGS               :Logging Unit
 RECB.      MJG                :Recorded By
 OSR1.      0024               :Other Services
 OSR2.       9057              :Other Services
 OSR3.                         :Other Services
 BS  .IN         3.9           :Bit Size
 MST .      SH                 :Mean Surface Temperature
 TGRD.                         :Temperature Gradiant
 MAGN.      0                  :Magnetic Declination
 MDEN.      2.65               :Density Matrix
 MATR.      SANDSTONE          :Neutron Matrix
 DTMT.      54                 :Delta T Matrix
 DTFL.                         :Delta T Fluid
 MUDS.      FLOW LINE          :Mud Sample Source
 MRS .      .179               :Mud Resistivity
 MTP .      68.5               :Mud Temperature
 MFRS.                         :Resistivity Mud Filtrate
 MFTP.                         :Temperature Mud Filtrate
 MCRS.                         :Resistivity Mud Cake
 MCTP.                         :Temperature Mud Cake
 FTYP.      AIR                :Fluid Type
 FD  .LB/G    NA               :Mud Weight
 DFV .S                        :Fluid Viscosity
 FPH .                         :Fuild PH
 ELCO.      99999              :Electron Cutoff
 CASL.      3.5                :Casing Logger
 LOTD.      1328               :Logger TD
 ARTM.      12:20              :Arrival Time
 DPTM.                         :Departure Time
 RIGN.                         :Rig Number
~Other Information
#MNEM.UNIT  Information      Description
#---------- ---------------  ------------------------
# -------------------------- 
~A DEPTH  SANG   SANGB  TOOLFACE DELT TF GYRO  PAD1-AZ GAMMA    COS-GYRO SIN-GYRO XINCL YINCL CAGE    MAG-VECT MSANGB TIME    
# ...
1122.800   1.30  158.66 336.8    -0.00   31.5  225.4      20.0  -0.3577  0.8926   0.023 0.001      0  274820.2813 223.61 0.10000 
1123.000   1.33  158.62 336.8    -0.06   31.6  225.4      10.0  -0.3583  0.8941   0.023 0.001      0  274820.2813 223.66 0.20000 
1123.200   1.28  158.40 336.9    0.02    31.5  225.4      25.0  -0.3588  0.8924   0.022 0.001      0  274823.1563 223.93 0.20000 
1123.400   1.28  159.08 336.9    0.08    31.5  225.4      30.0  -0.3582  0.8919   0.022 0.001      0  274823.1563 223.21 0.10000 
1123.600   1.27  158.66 336.8    0.01    31.5  225.4      20.0  -0.3574  0.8936   0.022 0.001      0  274828.9375 223.55 0.20000 
1123.800   1.28  158.29 336.8    0.26    31.7  225.4      10.0  -0.3588  0.8974   0.022 0.001      0  274820.2813 223.93 0.20000 
1124.000   1.32  157.46 336.5    1.11    31.7  225.4      15.0  -0.3548  0.8990   0.023 0.000      0  274823.1563 224.52 0.20000 
1124.200   1.34  156.00 335.4    2.20    31.8  225.5      60.0  -0.3383  0.9084   0.023 0.000      0  274823.1875 224.89 0.10000 
1124.400   1.29  154.35 333.2    2.52    31.8  225.4      25.0  -0.3036  0.9220   0.023 0.000      0  274826.0313 224.31 0.20000 
1124.600   1.31  153.56 330.7    3.61    31.8  225.4      15.0  -0.2629  0.9349   0.023 0.001      0  274820.2813 222.57 0.20000 
1124.800   1.34  147.32 327.1    6.16    31.8  225.5      20.0  -0.2035  0.9495   0.023 0.000      0  274823.1563 225.24 0.20000 
1125.000   1.32  154.10 320.9    5.07    31.7  225.3      60.0  -0.1001  0.9627   0.022 0.005      0  274826.0625 212.12 0.10000 
1125.200   1.30  155.25 315.9    5.27    31.7  225.2      25.0  -0.0146  0.9675   0.021 0.008      0  274820.2813 205.81 0.20000 
1125.400   1.29  155.25 310.6    7.53    31.8  225.1      15.0  0.0745   0.9674   0.021 0.009      0  274823.1563 200.46 0.20000 
1125.600   1.34  155.68 303.1    8.04    31.8  225.0      40.0  0.2007   0.9497   0.020 0.013      0  274823.1563 192.39 0.10000 
1125.800   1.33  155.58 295.0    6.22    31.8  224.9      30.0  0.3309   0.9101   0.018 0.015      0  274820.2813 184.30 0.20000 
1126.000   1.35  156.52 288.8    6.33    31.8  224.7      30.0  0.4279   0.8697   0.016 0.017      0  274826.0313 177.03 0.20000 
1126.200   1.33  156.01 282.5    8.59    31.8  224.6      20.0  0.5192   0.8143   0.014 0.019      0  274823.1875 171.11 0.20000 
1126.400   1.29  155.70 273.9    8.74    31.8  224.5      30.0  0.6348   0.7274   0.011 0.020      0  274823.1875 162.71 0.10000 
1126.600   1.30  155.35 265.1    6.61    31.8  224.4      25.0  0.7391   0.6234   0.008 0.021      0  274828.9375 154.18 0.20000 
1126.800   1.30  154.83 258.5    6.77    31.8  224.3       5.0  0.8064   0.5344   0.005 0.022      0  274826.0313 148.00 0.20000 
1127.000   1.28  153.31 251.8    9.57    31.8  224.2      50.0  0.8613   0.4343   0.003 0.022      0  274823.1875 142.69 0.20000 
1127.200   1.31  151.34 242.2    7.76    31.7  224.1      30.0  0.9198   0.2846   0.000 0.023      0  274828.9375 134.98 0.10000 
1127.400   1.19  151.98 234.4    8.16    31.6  224.1       5.0  0.9474   0.1573   -0.003 0.021      0  274826.0938 126.55 0.20000 
1127.600   1.22  152.70 226.3    11.31   31.6  224.0      30.0  0.9601   0.0213   -0.006 0.020      0  274823.1563 117.60 0.20000 
1127.800   1.30  153.11 215.0    12.37   31.6  223.9      20.0  0.9447   -0.1673  -0.011 0.020      0  274826.0313 105.76 0.10000 
1128.000   1.16  152.37 202.6    9.94    31.6  224.0       5.0  0.8846   -0.3649  -0.013 0.016      0  274823.1563 94.18  0.20000 
1128.200   1.22  152.12 192.6    10.43   31.7  223.9      10.0  0.8101   -0.5132  -0.016 0.014      0  274826.0938 84.46  0.20000 
1128.400   1.18  151.87 182.2    14.64   31.7  224.0      20.0  0.7017   -0.6494  -0.018 0.010      0  274823.1563 74.34  0.20000 
1128.600   1.36  152.72 167.6    14.51   31.7  224.0      40.0  0.5122   -0.8017  -0.023 0.006      0  274817.4063 58.83  0.10000 
1128.800   1.23  154.66 153.1    9.91    31.7  224.2      10.0  0.2947   -0.9038  -0.022 -0.001      0  274820.2813 42.60  0.20000 
1129.000   1.04  153.69 143.2    8.89    31.6  224.4      25.0  0.1351   -0.9430  -0.018 -0.003      0  274820.2813 33.84  0.20000 
1129.200   1.15  154.26 134.3    11.18   31.6  224.5      10.0  -0.0122  -0.9509  -0.019 -0.007      0  274820.2813 24.47  0.20000 
1129.400   1.27  156.11 123.1    10.98   31.5  224.6      30.0  -0.1961  -0.9296  -0.019 -0.012      0  274817.4063 11.59  0.10000 
1129.600   1.18  155.83 112.1    7.78    31.5  224.8      35.0  -0.3696  -0.8751  -0.015 -0.014      0  274823.1563  1.05  0.20000 
1129.800   1.13  154.76 104.3    7.31    31.5  224.9      15.0  -0.4855  -0.8187  -0.013 -0.015      0  274826.0313 354.43 0.20000 
1130.000   1.20  153.80 97.0     9.26    31.6  225.0      25.0  -0.5866  -0.7514  -0.011 -0.018      0  274817.4063 348.17 0.20000 
1130.200   1.22  154.16 87.8     6.56    31.6  225.1      30.0  -0.7026  -0.6496  -0.009 -0.020      0  274820.2813 338.70 0.10000 
1130.400   1.20  154.64 81.2     6.31    31.8  225.2      50.0  -0.7788  -0.5698  -0.006 -0.020      0  274820.2813 331.73 0.20000 
1130.600   1.25  156.59 74.9     7.59    31.8  225.3      35.0  -0.8385  -0.4819  -0.003 -0.022      0  274820.2813 323.61 0.20000 
1130.800   1.19  156.50 67.3     6.29    31.8  225.4      40.0  -0.8953  -0.3672  -0.000 -0.021      0  274817.4063 316.17 0.10000 
1131.000   1.26  157.55 61.0     4.11    31.7  225.5      15.0  -0.9296  -0.2667  0.003 -0.022      0  274823.1563 308.93 0.20000 
1131.200   1.12  156.58 56.9     3.46    31.6  225.4      35.0  -0.9453  -0.1992  0.003 -0.019      0  274826.0313 305.74 0.20000 
1131.400   1.25  157.16 53.4     3.75    31.6  225.5      20.0  -0.9556  -0.1418  0.005 -0.021      0  274823.1563 301.81 0.20000 
1131.600   1.23  158.13 49.7     3.00    31.5  225.6    -999.3  -0.9613  -0.0789  0.007 -0.020      0  274820.2813 297.12 0.10000 
1131.800   1.20  153.56 46.7     1.98    31.6  225.5      35.0  -0.9656  -0.0286  0.006 -0.020      0  274823.1563 298.67 0.20000 
1132.000   1.11  159.16 44.7     1.79    31.6  225.5      10.0  -0.9667  0.0047   0.008 -0.018      0  274820.2813 291.08 0.20000 
1132.200   1.34  158.82 42.9     2.00    31.7  225.7      20.0  -0.9693  0.0350   0.010 -0.021      0  274817.4063 289.78 0.20000 
1132.400   1.33  158.21 40.9     1.20    31.8  225.7      20.0  -0.9703  0.0690   0.011 -0.021      0  274823.1563 288.40 0.10000 
1132.600   1.28  157.03 39.7     0.97    31.8  225.6      20.0  -0.9690  0.0893   0.010 -0.020      0  274820.2813 288.35 0.20000 
1132.800   1.24  157.49 38.8     1.11    31.8  225.6      30.0  -0.9661  0.1055   0.010 -0.019      0  274823.1563 286.90 0.20000 
1133.000   1.38  157.50 37.7     0.90    31.6  225.7      30.0  -0.9590  0.1235   0.012 -0.021      0  274820.2813 285.88 0.10000 
1133.200   1.21  157.24 36.8     0.48    31.6  225.6      30.0  -0.9554  0.1383   0.011 -0.018      0  274817.4063 285.13 0.20000 
1133.400   1.44  157.92 36.3     0.40    31.5  225.8       5.0  -0.9528  0.1461   0.013 -0.021      0  274814.5313 284.13 0.20000 
1133.600   1.28  157.74 35.9     0.41    31.6  225.7      25.0  -0.9522  0.1529   0.012 -0.019      0  274823.1875 283.80 0.20000 
1133.800   1.34  157.94 35.5     0.15    31.5  225.7    -999.3  -0.9495  0.1594   0.013 -0.020      0  274823.1563 283.23 0.10000 
1134.000   1.23  158.55 35.3     0.18    31.5  225.6      15.0  -0.9505  0.1622   0.012 -0.018      0  274817.4063 282.40 0.20000 
1134.200   1.09  149.15 35.1     0.13    31.6  225.5      15.0  -0.9514  0.1655   0.008 -0.017      0  274820.2813 291.48 0.20000 
1134.400   1.32  159.28 35.0     0.50    31.7  225.7      35.0  -0.9541  0.1682   0.013 -0.019      0  274820.2813 281.42 0.20000 
1134.600   1.33  159.25 34.5     0.33    31.6  225.7      40.0  -0.9497  0.1760   0.013 -0.019      0  274820.2813 280.96 0.10000 
1134.800   1.20  159.71 34.2     0.34    31.5  225.6       5.0  -0.9472  0.1812   0.012 -0.017      0  274826.0313 280.08 0.20000 
1135.000   1.37  159.58 33.8     0.67    31.7  225.7      40.0  -0.9503  0.1876   0.014 -0.019      0  274823.1563 279.99 0.20000 
