~Version Information
 VERS.                2.0:  CWLS LOG ASCII STANDARD -VERSION 2.0
 WRAP.                 NO:  ONE LINE PER DEPTH STEP
~WELL INFORMATION BLOCK
#MNEM.UNIT       DATA		            DESCRIPTION OF MNEMONIC
#---------    -------------            ------------------------
 STRT.FT  -4.400                         :START DEPTH
 STOP.FT  1314.600                       :STOP DEPTH
 STEP.FT  0.200                          :STEP    UP_HOLE  
 NULL.    -999.25                        :NULL VALUE
 COMP.    USGS                           :COMPANY
 WELL.    USGS 145                                                     :WELL
 FLD .    INL                            :FIELD\LOCATION
 LOC .                                   :LOCATION
 CNTY.    BUTTE                          :COUNTY
 STAT.    IDAHO                          :STATE
 CTRY.    USA                            :COUNTRY
 SRVC.    USGS                           :SERVICE COMPANY
 DATE.    07/16/2018                     :LOG DATE
 API .   CAL. 2017                           :API NUMBER
 LIC .    USGS                           :LICENSE NUMBER
~Curve Information Block
#MNEM.UNIT      API CODE     Curve Description
#---------    -------------  ------------------------
 DEPT     .FT        00 001 00 00          :  1  DEPTH   
 SANG     .DEG       00 620 00 00          :  2  SAMPLE SLANT ANGLE  
 SANGB    .DEG       00 631 00 00          :  3  SAMPLE ANG BEARING  
 TOOLFACE .DEG       00 000 00 00          :  4  TOOLFACE            
 DELT TF  .DEG       00 000 00 00          :  5  DELT TF             
 GYRO     .VOLTS     00 000 00 00          :  6  GYRO                
 PAD1-AZ  .DEG       00 632 00 00          :  7  SAMPLE PAD 1 AZIM   
 GAMMA    .CPS       00 310 00 00          :  8  GAMMA RAY           
 COS-GYRO .AMPL      00 000 00 00          :  9  COS-GYRO            
 SIN-GYRO .AMPL      00 000 00 00          : 10  SIN-GYRO            
 XINCL    .AMPL      00 000 00 00          : 11  XINCL               
 YINCL    .AMPL      00 000 00 00          : 12  YINCL               
 CAGE     .VOLTS     00 000 00 00          : 13  CAGE                
 MAG-VECT .AMPL      00 000 00 00          : 14  MAG-VECT            
 MSANGB   .DEG       00 000 00 00          : 15  MSANGB              
 TIME     .MINUTES   00 000 00 00          : 16  TIME                
~Parameter Information Block
#MNEM.UNIT   Information     Description
#---------- ---------------  ------------------------
 FILE.      PROCESSED          :File Type
 FIID.      9095C              :File Type Identifier
 VERS.      3.60E              :System Version
 SER .      1                  :System Serial Number
 TRUK.      0.25               :Truck Calibration Number
 TOOL.        1203             :Tool Serial Number
 TIME.      1600               :Time    HrHrMinMin
 LAT .                         :Latitude
 LON .                         :Longitude
 LMF .      LSD                :Log Measured From
 DMF .      LSD                :Driller Measured From
 PD  .                         :Permanent Data
 PDEV.                         :Elevation Permanent Data
 EKB .M                        :Elevation Kelly Bushing
 ELEV.DF                       :Elevation DF
 EGL .M                        :Elevation Ground Level
 DRDP.      1368               :Driller's Depth
 CASD.      10.                :Casing Diameter
 CASB.      1328               :Casing Bottom
 CASX.      SURFACE            :Casing Type
 CAST.      .25                :Casing Thickness
 TNOC.                         :Time Circulation Stopped
 LOGU.      USGS               :Logging Unit
 RECB.      MJG                :Recorded By
 OSR1.      0024               :Other Services
 OSR2.       9057              :Other Services
 OSR3.                         :Other Services
 BS  .IN         3.9           :Bit Size
 MST .      SH                 :Mean Surface Temperature
 TGRD.                         :Temperature Gradiant
 MAGN.      0                  :Magnetic Declination
 MDEN.      2.65               :Density Matrix
 MATR.      SANDSTONE          :Neutron Matrix
 DTMT.      54                 :Delta T Matrix
 DTFL.                         :Delta T Fluid
 MUDS.      FLOW LINE          :Mud Sample Source
 MRS .      .179               :Mud Resistivity
 MTP .      68.5               :Mud Temperature
 MFRS.                         :Resistivity Mud Filtrate
 MFTP.                         :Temperature Mud Filtrate
 MCRS.                         :Resistivity Mud Cake
 MCTP.                         :Temperature Mud Cake
 FTYP.      AIR                :Fluid Type
 FD  .LB/G    NA               :Mud Weight
 DFV .S                        :Fluid Viscosity
 FPH .                         :Fuild PH
 ELCO.      99999              :Electron Cutoff
 CASL.      3.5                :Casing Logger
 LOTD.      1328               :Logger TD
 ARTM.      12:20              :Arrival Time
 DPTM.                         :Departure Time
 RIGN.                         :Rig Number
~Other Information
#MNEM.UNIT  Information      Description
#---------- ---------------  ------------------------
# -------------------------- 
~A DEPTH  SANG   SANGB  TOOLFACE DELT TF GYRO  PAD1-AZ GAMMA    COS-GYRO SIN-GYRO XINCL YINCL CAGE    MAG-VECT MSANGB TIME    
# ...
 254.800   0.72  24.39  36.1     -0.03   31.5  224.4      35.0  -0.9523  0.1496   -0.012 0.003      0  274826.0938 56.05  0.20000 
 255.000   0.83  22.70  36.1     -0.26   31.4  224.3      35.0  -0.9525  0.1492   -0.014 0.003      0  274831.8125 57.70  0.20000 
 255.200   0.80  25.28  36.4     -0.16   31.6  224.3      40.0  -0.9573  0.1455   -0.014 0.003      0  274820.2813 55.41  0.10000 
 255.400   0.67  22.02  36.5     -0.12   31.6  224.4       5.0  -0.9575  0.1428   -0.011 0.003      0  274820.2813 58.88  0.20000 
 255.600   0.83  23.50  36.6     -0.06   31.6  224.3      10.0  -0.9582  0.1409   -0.014 0.003      0  274823.1563 57.43  0.20000 
 255.800   0.75  19.96  36.7     0.21    31.6  224.3      10.0  -0.9578  0.1399   -0.013 0.004      0  274823.1563 61.05  0.10000 
 256.000   0.74  23.23  36.5     0.16    31.6  224.4      10.0  -0.9581  0.1435   -0.013 0.003      0  274820.2813 57.60  0.20000 
 256.200   0.80  24.19  36.3     0.07    31.6  224.3      15.0  -0.9575  0.1461   -0.014 0.003      0  274831.8125 56.46  0.20000 
 256.400   0.79  25.07  36.3     -0.16   31.6  224.3    -999.3  -0.9571  0.1472   -0.013 0.003      0  274823.1563 55.52  0.10000 
 256.600   0.65  27.05  36.4     -0.12   31.6  224.4      30.0  -0.9566  0.1444   -0.011 0.002      0  274820.2813 53.79  0.20000 
 256.800   0.85  24.81  36.5     -0.03   31.5  224.3       5.0  -0.9559  0.1423   -0.015 0.003      0  274826.0313 56.02  0.20000 
 257.000   0.74  23.62  36.6     0.21    31.5  224.4      60.0  -0.9569  0.1419   -0.013 0.003      0  274823.1875 57.30  0.10000 
 257.200   0.86  21.19  36.4     0.57    31.6  224.3       5.0  -0.9589  0.1458   -0.014 0.004      0  274820.2813 59.43  0.20000 
 257.400   0.77  21.86  35.8     0.80    31.6  224.3       5.0  -0.9576  0.1553   -0.013 0.003      0  274826.0313 58.26  0.19900 
 257.600   0.71  22.23  35.0     0.83    31.6  224.4      40.0  -0.9550  0.1686   -0.012 0.003      0  274826.0313 57.13  0.10000 
 257.800   0.77  22.16  34.2     0.63    31.6  224.3      30.0  -0.9527  0.1825   -0.013 0.003      0  274820.2813 56.33  0.20100 
 258.000   0.87  23.62  33.5     0.19    31.7  224.3       5.0  -0.9512  0.1931   -0.015 0.003      0  274826.0313 54.20  0.19900 
 258.200   0.74  24.53  33.3     -0.11   31.6  224.4      20.0  -0.9490  0.1959   -0.013 0.002      0  274831.8125 53.19  0.10000 
 258.400   0.70  27.42  33.4     -0.21   31.6  224.4      15.0  -0.9484  0.1939   -0.012 0.001      0  274820.2813 50.44  0.20000 
 258.600   0.91  27.26  33.7     -0.31   31.6  224.3      25.0  -0.9494  0.1904   -0.016 0.002      0  274823.1563 50.70  0.20000 
 258.800   0.73  23.52  34.0     0.01    31.6  224.4      30.0  -0.9517  0.1855   -0.013 0.002      0  274831.8125 54.82  0.10000 
 259.000   0.80  19.75  34.0     0.06    31.6  224.3      20.0  -0.9503  0.1855   -0.014 0.003      0  274823.1875 58.52  0.20000 
 259.200   0.74  19.44  33.9     0.28    31.6  224.3      10.0  -0.9493  0.1864   -0.013 0.003      0  274826.0313 58.80  0.20000 
 259.400   0.73  22.80  33.6     0.38    31.5  224.4      50.0  -0.9463  0.1906   -0.013 0.002      0  274826.0313 55.18  0.20000 
 259.600   0.76  23.51  33.2     0.44    31.5  224.4      30.0  -0.9453  0.1969   -0.013 0.002      0  274826.0625 54.07  0.10000 
 259.800   0.71  24.91  32.8     0.26    31.5  224.4       5.0  -0.9424  0.2038   -0.012 0.002      0  274826.0938 52.28  0.20000 
 260.000   0.75  23.91  32.5     0.29    31.4  224.4       5.0  -0.9387  0.2075   -0.013 0.002      0  274826.0313 52.99  0.20000 
 260.200   0.78  24.46  32.2     0.09    31.5  224.4      30.0  -0.9402  0.2129   -0.013 0.002      0  274823.1563 52.14  0.10000 
 260.400   0.76  25.44  32.2     0.01    31.5  224.4      25.0  -0.9412  0.2146   -0.013 0.002      0  274826.0938 51.08  0.20000 
 260.600   0.75  25.29  32.1     -0.16   31.5  224.4      25.0  -0.9413  0.2148   -0.013 0.002      0  274828.9063 51.24  0.20000 
 260.800   0.76  23.72  32.3     -0.03   31.5  224.4      30.0  -0.9420  0.2123   -0.013 0.002      0  274823.1563 52.95  0.10000 
 261.000   0.70  21.67  32.3     0.14    31.6  224.4      20.0  -0.9436  0.2121   -0.012 0.002      0  274820.2813 55.05  0.20000 
 261.200   0.75  23.57  32.2     0.21    31.5  224.4      15.0  -0.9408  0.2139   -0.013 0.002      0  274828.9375 52.99  0.20000 
 261.400   0.74  22.56  32.0     0.03    31.4  224.4      30.0  -0.9378  0.2168   -0.013 0.002      0  274828.9375 53.79  0.10000 
 261.600   0.68  20.38  32.0     -0.03   31.4  224.4      20.0  -0.9346  0.2166   -0.012 0.002      0  274820.2813 55.96  0.20000 
 261.800   0.89  26.00  32.0     -0.15   31.3  224.3      20.0  -0.9336  0.2159   -0.016 0.002      0  274826.0313 50.29  0.20000 
 262.000   0.77  25.48  32.1     -0.26   31.3  224.4      50.0  -0.9330  0.2133   -0.013 0.002      0  274826.0313 51.01  0.10000 
 262.200   0.40  49.64  32.4     -0.40   31.3  224.7      55.0  -0.9339  0.2089   -0.007 -0.002      0  274820.2813 27.41  0.20000 
 262.400   0.85  20.75  32.8     -0.72   31.3  224.3      20.0  -0.9366  0.2028   -0.014 0.003      0  274826.0625 56.33  0.20000 
 262.600   0.63  24.68  33.5     -0.20   31.3  224.4      40.0  -0.9406  0.1913   -0.011 0.002      0  274828.9375 53.26  0.10000 
 262.800   0.92  21.03  33.7     0.21    31.4  224.2      45.0  -0.9415  0.1881   -0.016 0.004      0  274820.2813 56.92  0.20000 
 263.000   0.72  26.01  33.5     -0.03   31.5  224.4      55.0  -0.9452  0.1925   -0.012 0.002      0  274826.0313 51.87  0.20000 
 263.200   0.75  26.69  33.5     -0.17   31.6  224.4      30.0  -0.9481  0.1927   -0.013 0.002      0  274828.9375 51.20  0.10000 
 263.400   0.74  28.61  33.7     -0.30   31.6  224.4      35.0  -0.9489  0.1898   -0.013 0.001      0  274826.0938 49.48  0.20000 
 263.600   0.73  27.29  34.0     -0.52   31.6  224.4      30.0  -0.9504  0.1850   -0.013 0.001      0  274823.1563 51.09  0.20000 
 263.800   0.71  25.40  34.5     -0.50   31.6  224.4      90.0  -0.9510  0.1761   -0.012 0.002      0  274826.0313 53.50  0.10000 
 264.000   0.69  22.28  35.0     -0.38   31.6  224.4      35.0  -0.9515  0.1676   -0.012 0.003      0  274820.2813 57.11  0.20000 
 264.200   0.67  20.80  35.4     -0.17   31.5  224.4      30.0  -0.9497  0.1609   -0.011 0.003      0  274823.1563 58.97  0.20000 
 264.400   0.72  22.25  35.6     -0.12   31.4  224.4      30.0  -0.9485  0.1577   -0.012 0.003      0  274828.9375 57.67  0.10000 
 264.600   0.72  29.22  35.7     -0.32   31.4  224.4      40.0  -0.9477  0.1555   -0.013 0.001      0  274820.2813 50.85  0.20000 
 264.800   0.77  27.50  36.0     -0.74   31.4  224.4      35.0  -0.9495  0.1505   -0.013 0.002      0  274823.1563 52.85  0.20000 
 265.000   0.65  24.18  36.7     -0.54   31.4  224.4      10.0  -0.9507  0.1382   -0.011 0.002      0  274828.9375 56.96  0.10000 
 265.200   0.76  20.05  37.3     -0.83   31.4  224.3      25.0  -0.9531  0.1295   -0.013 0.004      0  274820.2813 61.54  0.20000 
 265.400   0.68  24.74  38.1     -1.79   31.5  224.4      25.0  -0.9582  0.1161   -0.012 0.003      0  274820.2813 57.74  0.20000 
 265.600   0.69  25.96  39.9     -2.37   31.5  224.4      10.0  -0.9614  0.0861   -0.012 0.003      0  274831.8125 58.30  0.10000 
 265.800   0.73  28.86  42.3     -2.17   31.5  224.4      30.0  -0.9639  0.0463   -0.012 0.003      0  274820.2813 57.75  0.20000 
 266.000   0.81  25.35  44.4     -2.17   31.5  224.3      30.0  -0.9663  0.0098   -0.013 0.005      0  274820.2813 63.36  0.20000 
 266.200   0.71  28.74  46.6     -2.67   31.5  224.4      20.0  -0.9646  -0.0268  -0.012 0.004      0  274826.0313 62.20  0.20000 
 266.400   0.73  20.47  49.3     -1.44   31.4  224.3      10.0  -0.9611  -0.0716  -0.011 0.006      0  274820.2813 73.09  0.10000 
 266.600   0.30   7.30  50.7     -0.20   31.4  224.6      10.0  -0.9570  -0.0954  -0.004 0.004      0  274826.0313 87.97  0.20000 
 266.800   0.67   7.41  50.9     0.41    31.4  224.3    -999.3  -0.9567  -0.0988  -0.008 0.008      0  274826.0313 87.81  0.20000 
 267.000   0.82  23.82  50.5     0.08    31.4  224.2      20.0  -0.9570  -0.0919  -0.013 0.006      0  274820.2813 70.91  0.10000 
