~Version Information
 VERS.                2.0:  CWLS LOG ASCII STANDARD -VERSION 2.0
 WRAP.                 NO:  ONE LINE PER DEPTH STEP
~WELL INFORMATION BLOCK
#MNEM.UNIT       DATA		            DESCRIPTION OF MNEMONIC
#---------    -------------            ------------------------
 STRT.FT  -3.600                         :START DEPTH
 STOP.FT  1314.400                       :STOP DEPTH
 STEP.FT  0.200                          :STEP  DOWN_HOLE  
 NULL.    -999.25                        :NULL VALUE
 COMP.    USGS                           :COMPANY
 WELL.    USGS 145                                                     :WELL
 FLD .    INL                            :FIELD\LOCATION
 LOC .                                   :LOCATION
 CNTY.    BUTTE                          :COUNTY
 STAT.    IDAHO                          :STATE
 CTRY.    USA                            :COUNTRY
 SRVC.    USGS                           :SERVICE COMPANY
 DATE.    07/16/2018                     :LOG DATE
 API .   CAL. 2017                           :API NUMBER
 LIC .    USGS                           :LICENSE NUMBER
~Curve Information Block
#MNEM.UNIT      API CODE     Curve Description
#---------    -------------  ------------------------
 DEPT     .FT        00 001 00 00          :  1  DEPTH   
 T DEPTH  .FT        00 960 00 00          :  2  TRUE DEPTH          
 D DIFF   .FT        00 000 00 00          :  3  DEPTH DIFFERENCE    
 N DEV    .FT        00 000 00 00          :  4  NORTH DEVIATION     
 E DEV    .FT        00 000 00 00          :  5  EAST DEVIATION      
 DISTANCE .FT        00 000 00 00          :  6  DEVIATED DISTANCE   
 AZIMUTH  .DEG       00 630 00 00          :  7  DEVIATED AZIMUTH    
 SANG     .DEG       00 620 00 00          :  8  SAMPLE SLANT ANGLE  
 SANGB    .DEG       00 631 00 00          :  9  SAMPLE ANG BEARING  
 TOOLFACE .DEG       00 000 00 00          : 10  TOOLFACE            
 DELT TF  .DEG       00 000 00 00          : 11  DELT TF             
 GYRO     .VOLTS     00 000 00 00          : 12  GYRO                
 PAD1-AZ  .DEG       00 632 00 00          : 13  SAMPLE PAD 1 AZIM   
 GAMMA    .CPS       00 310 00 00          : 14  GAMMA RAY           
 COS-GYRO .AMPL      00 000 00 00          : 15  COS-GYRO            
 SIN-GYRO .AMPL      00 000 00 00          : 16  SIN-GYRO            
 XINCL    .AMPL      00 000 00 00          : 17  XINCL               
 YINCL    .AMPL      00 000 00 00          : 18  YINCL               
 CAGE     .VOLTS     00 000 00 00          : 19  CAGE                
 MAG-VECT .AMPL      00 000 00 00          : 20  MAG-VECT            
 TENSION  .CPS       00 000 00 00          : 21  LINE TENSION        
 TIME     .MINUTES   00 000 00 00          : 22  TIME                
~Parameter Information Block
#MNEM.UNIT   Information     Description
#---------- ---------------  ------------------------
 FILE.      PROCESSED          :File Type
 FIID.      9095C              :File Type Identifier
 VERS.      3.60E              :System Version
 SER .      1                  :System Serial Number
 TRUK.      0.25               :Truck Calibration Number
 TOOL.        1203             :Tool Serial Number
 TIME.      1519               :Time    HrHrMinMin
 LAT .                         :Latitude
 LON .                         :Longitude
 LMF .      LSD                :Log Measured From
 DMF .      LSD                :Driller Measured From
 PD  .                         :Permanent Data
 PDEV.                         :Elevation Permanent Data
 EKB .M                        :Elevation Kelly Bushing
 ELEV.DF                       :Elevation DF
 EGL .M                        :Elevation Ground Level
 DRDP.      1368               :Driller's Depth
 CASD.      10.                :Casing Diameter
 CASB.      1328               :Casing Bottom
 CASX.      SURFACE            :Casing Type
 CAST.      .25                :Casing Thickness
 TNOC.                         :Time Circulation Stopped
 LOGU.      USGS               :Logging Unit
 RECB.      MJG                :Recorded By
 OSR1.      0024               :Other Services
 OSR2.       9057              :Other Services
 OSR3.                         :Other Services
 BS  .IN         3.9           :Bit Size
 MST .      SH                 :Mean Surface Temperature
 TGRD.                         :Temperature Gradiant
 MAGN.        12.500           :Magnetic Declination
 MDEN.      2.65               :Density Matrix
 MATR.      SANDSTONE          :Neutron Matrix
 DTMT.      54                 :Delta T Matrix
 DTFL.                         :Delta T Fluid
 MUDS.      FLOW LINE          :Mud Sample Source
 MRS .      .179               :Mud Resistivity
 MTP .      68.5               :Mud Temperature
 MFRS.                         :Resistivity Mud Filtrate
 MFTP.                         :Temperature Mud Filtrate
 MCRS.                         :Resistivity Mud Cake
 MCTP.                         :Temperature Mud Cake
 FTYP.      AIR                :Fluid Type
 FD  .LB/G    NA               :Mud Weight
 DFV .S                        :Fluid Viscosity
 FPH .                         :Fuild PH
 ELCO.      99999              :Electron Cutoff
 CASL.      3.5                :Casing Logger
 LOTD.      1328               :Logger TD
 ARTM.      12:20              :Arrival Time
 DPTM.                         :Departure Time
 RIGN.                         :Rig Number
~Other Information
#MNEM.UNIT  Information      Description
#---------- ---------------  ------------------------
# -------------------------- 
~A DEPTH  T DEPTH   D DIFF N DEV     E DEV     DISTANCE  AZIMUTH SANG   SANGB  TOOLFACE DELT TF GYRO  PAD1-AZ GAMMA    COS-GYRO SIN-GYRO XINCL YINCL CAGE    MAG-VECT TENSION  TIME    
# ...
 865.000   864.869  -0.1     -7.411     4.688     8.769  147.7    1.26  168.20 139.1    0.07    31.6  224.4      25.0  0.0678   -0.9533  -0.021 -0.007      0  274826.0313    80.8  0.10000 
 865.200   865.069  -0.1     -7.414     4.689     8.773  147.7    1.08  169.74 138.6    -0.46   31.7  224.5      35.0  0.0603   -0.9542  -0.018 -0.007      0  274828.9688    80.8  0.20000 
 865.400   865.269  -0.1     -7.418     4.690     8.776  147.7    1.13  168.78 137.7    -0.93   31.7  224.5      30.0  0.0449   -0.9556  -0.018 -0.007      0  274828.9375    80.8  0.20000 
 865.600   865.469  -0.1     -7.422     4.690     8.780  147.7    1.06  169.81 136.2    -1.51   31.7  224.5      15.0  0.0197   -0.9579  -0.017 -0.007      0  274823.1563    80.8  0.20000 
 865.800   865.669  -0.1     -7.425     4.691     8.783  147.7    0.90  170.77 134.8    -1.42   31.7  224.6      25.0  -0.0041  -0.9569  -0.014 -0.007      0  274820.2813    80.8  0.10000 
 866.000   865.869  -0.1     -7.428     4.691     8.786  147.7    1.02  169.97 133.2    -1.60   31.7  224.6      35.0  -0.0308  -0.9562  -0.016 -0.008      0  274826.0938    80.8  0.20000 
 866.200   866.069  -0.1     -7.433     4.692     8.790  147.7    1.25  168.51 131.3    -1.88   31.7  224.5      20.0  -0.0623  -0.9557  -0.020 -0.010      0  274820.2813    80.7  0.20000 
 866.400   866.268  -0.1     -7.436     4.693     8.793  147.7    1.09  169.40 130.1    -1.14   31.6  224.6      25.0  -0.0810  -0.9518  -0.017 -0.009      0  274826.0625    80.8  0.20000 
 866.600   866.468  -0.1     -7.440     4.694     8.797  147.8    1.10  169.91 129.6    -0.58   31.6  224.6      25.0  -0.0906  -0.9492  -0.017 -0.010      0  274826.0938    80.7  0.20000 
 866.800   866.668  -0.1     -7.443     4.694     8.800  147.8    0.85  173.15 129.2    -0.31   31.6  224.7      40.0  -0.0958  -0.9488  -0.012 -0.008      0  274831.8438    80.7  0.10000 
 867.000   866.868  -0.1     -7.447     4.695     8.804  147.8    1.17  168.47 128.3    -0.91   31.6  224.6      30.0  -0.1110  -0.9476  -0.018 -0.010      0  274823.1563    80.7  0.20000 
 867.200   867.068  -0.1     -7.451     4.696     8.807  147.8    1.17  167.50 126.9    -1.40   31.5  224.6      30.0  -0.1338  -0.9419  -0.018 -0.010      0  274823.1875    80.8  0.20000 
 867.400   867.268  -0.1     -7.455     4.697     8.811  147.8    1.11  168.28 125.8    -1.09   31.5  224.6      25.0  -0.1518  -0.9404  -0.016 -0.010      0  274826.0938    80.7  0.20000 
 867.600   867.468  -0.1     -7.459     4.697     8.814  147.8    1.03  169.30 125.0    -0.83   31.5  224.7      25.0  -0.1653  -0.9377  -0.015 -0.010      0  274826.0313    80.7  0.10000 
 867.800   867.668  -0.1     -7.463     4.698     8.818  147.8    1.19  166.75 124.0    -1.02   31.6  224.6       5.0  -0.1824  -0.9365  -0.018 -0.011      0  274828.9375    80.7  0.20000 
 868.000   867.868  -0.1     -7.466     4.699     8.822  147.8    1.12  168.32 122.8    -1.18   31.6  224.7      20.0  -0.2016  -0.9324  -0.016 -0.011      0  274826.0625    80.8  0.20000 
 868.200   868.068  -0.1     -7.470     4.700     8.826  147.8    1.12  169.12 121.6    -1.20   31.6  224.7      15.0  -0.2211  -0.9280  -0.016 -0.012      0  274823.1875    80.7  0.20000 
 868.400   868.268  -0.1     -7.474     4.701     8.829  147.8    1.14  167.53 120.0    -1.63   31.7  224.7      35.0  -0.2481  -0.9241  -0.016 -0.012      0  274817.3750    80.7  0.20000 
 868.600   868.468  -0.1     -7.478     4.702     8.833  147.8    1.20  166.30 118.8    -1.20   31.7  224.7      25.0  -0.2678  -0.9199  -0.017 -0.013      0  274831.8438    80.7  0.10000 
 868.800   868.668  -0.1     -7.482     4.702     8.837  147.9    1.12  168.03 117.9    -0.91   31.6  224.7      30.0  -0.2818  -0.9137  -0.015 -0.013      0  274828.9688    80.7  0.20000 
 869.000   868.868  -0.1     -7.486     4.703     8.841  147.9    1.19  167.90 116.6    -1.26   31.6  224.7      20.0  -0.3011  -0.9053  -0.016 -0.014      0  274828.9688    80.6  0.20000 
 869.200   869.068  -0.1     -7.490     4.704     8.845  147.9    1.14  166.95 115.1    -1.47   31.6  224.7      20.0  -0.3246  -0.8982  -0.015 -0.013      0  274826.0938    80.6  0.20000 
 869.400   869.268  -0.1     -7.494     4.705     8.849  147.9    1.18  167.83 114.1    -1.04   31.6  224.8      30.0  -0.3406  -0.8913  -0.015 -0.014      0  274826.0938    80.5  0.10000 
 869.600   869.468  -0.1     -7.498     4.706     8.852  147.9    1.10  167.78 113.0    -1.10   31.3  224.8      35.0  -0.3583  -0.8865  -0.014 -0.013      0  274826.0938    80.4  0.20000 
 869.800   869.668  -0.1     -7.502     4.707     8.856  147.9    1.12  167.20 111.2    -1.75   31.6  224.8      30.0  -0.3854  -0.8756  -0.014 -0.014      0  274823.2188    80.4  0.20000 
 870.000   869.868  -0.1     -7.505     4.708     8.860  147.9    1.17  166.72 109.4    -1.84   31.7  224.8       5.0  -0.4133  -0.8628  -0.014 -0.015      0  274828.9688    80.5  0.20000 
 870.200   870.068  -0.1     -7.509     4.708     8.863  147.9    1.09  167.68 107.5    -1.86   31.7  224.9      25.0  -0.4416  -0.8499  -0.012 -0.015      0  274820.2813    80.5  0.20000 
 870.400   870.268  -0.1     -7.513     4.709     8.867  147.9    1.13  167.10 106.0    -1.55   31.7  224.9      25.0  -0.4644  -0.8376  -0.013 -0.015      0  274820.2813    80.6  0.10000 
 870.600   870.468  -0.1     -7.517     4.710     8.871  147.9    1.13  166.19 104.3    -1.67   31.7  224.9       5.0  -0.4887  -0.8239  -0.012 -0.015      0  274828.9688    80.6  0.20000 
 870.800   870.668  -0.1     -7.521     4.711     8.875  147.9    1.16  166.73 102.1    -2.24   31.6  224.9      50.0  -0.5200  -0.8034  -0.012 -0.016      0  274826.0938    80.7  0.20000 
 871.000   870.868  -0.1     -7.525     4.712     8.879  147.9    1.23  169.43 99.8     -2.27   31.6  225.0      45.0  -0.5512  -0.7817  -0.011 -0.018      0  274826.0938    80.6  0.20000 
 871.200   871.068  -0.1     -7.529     4.713     8.882  148.0    1.09  166.33 98.1     -1.73   31.5  225.0      15.0  -0.5724  -0.7619  -0.010 -0.016      0  274820.2813    80.6  0.10000 
 871.400   871.268  -0.1     -7.533     4.714     8.886  148.0    1.15  166.44 96.2     -1.86   31.5  225.0      15.0  -0.5970  -0.7432  -0.010 -0.017      0  274823.1563    80.6  0.20000 
 871.600   871.467  -0.1     -7.537     4.715     8.890  148.0    1.17  165.00 93.5     -2.74   31.5  225.0      50.0  -0.6320  -0.7139  -0.010 -0.018      0  274826.0938    80.6  0.20000 
 871.800   871.667  -0.1     -7.540     4.716     8.894  148.0    1.15  165.48 90.7     -2.78   31.5  225.1      65.0  -0.6657  -0.6821  -0.009 -0.018      0  274826.0938    80.6  0.20000 
 872.000   871.867  -0.1     -7.544     4.717     8.897  148.0    1.13  165.72 88.6     -2.14   31.5  225.1      35.0  -0.6911  -0.6571  -0.008 -0.018      0  274826.0938    80.6  0.10000 
 872.200   872.067  -0.1     -7.548     4.718     8.901  148.0    1.19  166.17 86.0     -2.55   31.5  225.1       5.0  -0.7195  -0.6256  -0.007 -0.020      0  274826.0938    80.6  0.20000 
 872.400   872.267  -0.1     -7.552     4.719     8.905  148.0    1.12  165.03 81.9     -4.14   31.5  225.2      60.0  -0.7637  -0.5728  -0.006 -0.019      0  274823.1875    80.6  0.20000 
 872.600   872.467  -0.1     -7.556     4.720     8.909  148.0    1.11  165.22 76.9     -4.98   31.6  225.2      35.0  -0.8126  -0.5057  -0.004 -0.019      0  274823.1563    80.6  0.20000 
 872.800   872.667  -0.1     -7.560     4.721     8.913  148.0    1.16  165.59 71.0     -5.93   31.6  225.3      25.0  -0.8621  -0.4199  -0.002 -0.020      0  274826.0938    80.7  0.20000 
 873.000   872.867  -0.1     -7.564     4.722     8.917  148.0    1.15  164.64 66.1     -4.91   31.6  225.3      30.0  -0.8959  -0.3449  -0.001 -0.020      0  274826.0938    80.6  0.10000 
 873.200   873.067  -0.1     -7.567     4.723     8.920  148.0    1.09  165.76 60.9     -5.11   31.6  225.4      40.0  -0.9232  -0.2638  0.001 -0.019      0  274828.9688    80.6  0.20000 
 873.400   873.267  -0.1     -7.571     4.724     8.924  148.0    1.14  164.65 54.3     -6.62   31.5  225.4      10.0  -0.9480  -0.1557  0.003 -0.020      0  274826.0938    80.6  0.20000 
