~Version Information
 VERS.                2.0:  CWLS LOG ASCII STANDARD -VERSION 2.0
 WRAP.                 NO:  ONE LINE PER DEPTH STEP
~WELL INFORMATION BLOCK
#MNEM.UNIT       DATA		            DESCRIPTION OF MNEMONIC
#---------    -------------            ------------------------
 STRT.FT  -3.600                         :START DEPTH
 STOP.FT  1314.400                       :STOP DEPTH
 STEP.FT  0.200                          :STEP  DOWN_HOLE  
 NULL.    -999.25                        :NULL VALUE
 COMP.    USGS                           :COMPANY
 WELL.    USGS 145                                                     :WELL
 FLD .    INL                            :FIELD\LOCATION
 LOC .                                   :LOCATION
 CNTY.    BUTTE                          :COUNTY
 STAT.    IDAHO                          :STATE
 CTRY.    USA                            :COUNTRY
 SRVC.    USGS                           :SERVICE COMPANY
 DATE.    07/16/2018                     :LOG DATE
 API .   CAL. 2017                           :API NUMBER
 LIC .    USGS                           :LICENSE NUMBER
~Curve Information Block
#MNEM.UNIT      API CODE     Curve Description
#---------    -------------  ------------------------
 DEPT     .FT        00 001 00 00          :  1  DEPTH   
 T DEPTH  .FT        00 960 00 00          :  2  TRUE DEPTH          
 D DIFF   .FT        00 000 00 00          :  3  DEPTH DIFFERENCE    
 N DEV    .FT        00 000 00 00          :  4  NORTH DEVIATION     
 E DEV    .FT        00 000 00 00          :  5  EAST DEVIATION      
 DISTANCE .FT        00 000 00 00          :  6  DEVIATED DISTANCE   
 AZIMUTH  .DEG       00 630 00 00          :  7  DEVIATED AZIMUTH    
 SANG     .DEG       00 620 00 00          :  8  SAMPLE SLANT ANGLE  
 SANGB    .DEG       00 631 00 00          :  9  SAMPLE ANG BEARING  
 TOOLFACE .DEG       00 000 00 00          : 10  TOOLFACE            
 DELT TF  .DEG       00 000 00 00          : 11  DELT TF             
 GYRO     .VOLTS     00 000 00 00          : 12  GYRO                
 PAD1-AZ  .DEG       00 632 00 00          : 13  SAMPLE PAD 1 AZIM   
 GAMMA    .CPS       00 310 00 00          : 14  GAMMA RAY           
 COS-GYRO .AMPL      00 000 00 00          : 15  COS-GYRO            
 SIN-GYRO .AMPL      00 000 00 00          : 16  SIN-GYRO            
 XINCL    .AMPL      00 000 00 00          : 17  XINCL               
 YINCL    .AMPL      00 000 00 00          : 18  YINCL               
 CAGE     .VOLTS     00 000 00 00          : 19  CAGE                
 MAG-VECT .AMPL      00 000 00 00          : 20  MAG-VECT            
 TENSION  .CPS       00 000 00 00          : 21  LINE TENSION        
 TIME     .MINUTES   00 000 00 00          : 22  TIME                
~Parameter Information Block
#MNEM.UNIT   Information     Description
#---------- ---------------  ------------------------
 FILE.      PROCESSED          :File Type
 FIID.      9095C              :File Type Identifier
 VERS.      3.60E              :System Version
 SER .      1                  :System Serial Number
 TRUK.      0.25               :Truck Calibration Number
 TOOL.        1203             :Tool Serial Number
 TIME.      1519               :Time    HrHrMinMin
 LAT .                         :Latitude
 LON .                         :Longitude
 LMF .      LSD                :Log Measured From
 DMF .      LSD                :Driller Measured From
 PD  .                         :Permanent Data
 PDEV.                         :Elevation Permanent Data
 EKB .M                        :Elevation Kelly Bushing
 ELEV.DF                       :Elevation DF
 EGL .M                        :Elevation Ground Level
 DRDP.      1368               :Driller's Depth
 CASD.      10.                :Casing Diameter
 CASB.      1328               :Casing Bottom
 CASX.      SURFACE            :Casing Type
 CAST.      .25                :Casing Thickness
 TNOC.                         :Time Circulation Stopped
 LOGU.      USGS               :Logging Unit
 RECB.      MJG                :Recorded By
 OSR1.      0024               :Other Services
 OSR2.       9057              :Other Services
 OSR3.                         :Other Services
 BS  .IN         3.9           :Bit Size
 MST .      SH                 :Mean Surface Temperature
 TGRD.                         :Temperature Gradiant
 MAGN.        12.500           :Magnetic Declination
 MDEN.      2.65               :Density Matrix
 MATR.      SANDSTONE          :Neutron Matrix
 DTMT.      54                 :Delta T Matrix
 DTFL.                         :Delta T Fluid
 MUDS.      FLOW LINE          :Mud Sample Source
 MRS .      .179               :Mud Resistivity
 MTP .      68.5               :Mud Temperature
 MFRS.                         :Resistivity Mud Filtrate
 MFTP.                         :Temperature Mud Filtrate
 MCRS.                         :Resistivity Mud Cake
 MCTP.                         :Temperature Mud Cake
 FTYP.      AIR                :Fluid Type
 FD  .LB/G    NA               :Mud Weight
 DFV .S                        :Fluid Viscosity
 FPH .                         :Fuild PH
 ELCO.      99999              :Electron Cutoff
 CASL.      3.5                :Casing Logger
 LOTD.      1328               :Logger TD
 ARTM.      12:20              :Arrival Time
 DPTM.                         :Departure Time
 RIGN.                         :Rig Number
~Other Information
#MNEM.UNIT  Information      Description
#---------- ---------------  ------------------------
# -------------------------- 
~A DEPTH  T DEPTH   D DIFF N DEV     E DEV     DISTANCE  AZIMUTH SANG   SANGB  TOOLFACE DELT TF GYRO  PAD1-AZ GAMMA    COS-GYRO SIN-GYRO XINCL YINCL CAGE    MAG-VECT TENSION  TIME    
# ...
 779.000   778.885  -0.1     -5.792     4.365     7.253  143.0    1.25  171.10 141.0    -0.59   31.6  224.4      25.0  0.0988   -0.9476  -0.021 -0.007      0  274826.0938    79.8  0.10000 
 779.200   779.085  -0.1     -5.796     4.366     7.256  143.0    1.13  172.41 140.3    -0.68   31.6  224.5      40.0  0.0876   -0.9486  -0.018 -0.007      0  274828.9688    79.7  0.20000 
 779.400   779.285  -0.1     -5.800     4.366     7.260  143.0    1.19  172.23 139.0    -1.26   31.6  224.5      20.0  0.0666   -0.9489  -0.019 -0.008      0  274828.9688    79.6  0.20000 
 779.600   779.485  -0.1     -5.804     4.367     7.263  143.0    1.24  171.23 137.3    -1.74   31.6  224.5      40.0  0.0377   -0.9511  -0.020 -0.009      0  274826.0938    79.6  0.20000 
 779.800   779.685  -0.1     -5.808     4.367     7.267  143.1    1.20  172.97 135.2    -2.08   31.6  224.5      40.0  0.0031   -0.9527  -0.019 -0.010      0  274826.0938    79.6  0.20000 
 780.000   779.885  -0.1     -5.813     4.368     7.271  143.1    1.21  172.04 133.3    -1.84   31.6  224.6      50.0  -0.0275  -0.9522  -0.019 -0.010      0  274820.2813    79.5  0.10000 
 780.200   780.085  -0.1     -5.817     4.369     7.275  143.1    1.21  171.94 131.3    -2.04   31.6  224.6      50.0  -0.0615  -0.9511  -0.018 -0.011      0  274826.0938    79.5  0.20000 
 780.400   780.285  -0.1     -5.821     4.369     7.278  143.1    1.26  171.34 128.1    -3.24   31.6  224.6     100.0  -0.1151  -0.9455  -0.018 -0.012      0  274828.9688    79.5  0.20000 
 780.600   780.485  -0.1     -5.825     4.370     7.282  143.1    1.23  171.27 123.9    -4.19   31.6  224.7      85.0  -0.1840  -0.9345  -0.017 -0.013      0  274826.0625    79.3  0.20000 
 780.800   780.685  -0.1     -5.830     4.371     7.286  143.1    1.32  168.95 119.9    -3.98   31.6  224.7      40.0  -0.2483  -0.9195  -0.018 -0.014      0  274826.0938    79.3  0.10000 
 781.000   780.884  -0.1     -5.834     4.372     7.290  143.2    1.25  169.75 115.3    -4.57   31.6  224.8      25.0  -0.3206  -0.8962  -0.016 -0.015      0  274826.0938    79.2  0.20000 
 781.200   781.084  -0.1     -5.838     4.372     7.294  143.2    1.25  169.84 108.1    -7.19   31.5  224.9      10.0  -0.4294  -0.8471  -0.014 -0.017      0  274828.9688    79.2  0.20000 
 781.400   781.284  -0.1     -5.843     4.373     7.298  143.2    1.28  166.66 99.0     -9.08   31.5  225.0      45.0  -0.5573  -0.7684  -0.012 -0.019      0  274826.0938    79.2  0.20000 
 781.600   781.484  -0.1     -5.847     4.374     7.302  143.2    1.21  167.36 88.1     -10.95  31.5  225.1      15.0  -0.6928  -0.6483  -0.008 -0.020      0  274828.9688    79.3  0.20000 
 781.800   781.684  -0.1     -5.851     4.375     7.306  143.2    1.20  167.45 78.7     -9.44   31.5  225.2      40.0  -0.7915  -0.5271  -0.004 -0.021      0  274820.2813    79.3  0.10000 
 782.000   781.884  -0.1     -5.855     4.376     7.310  143.2    1.20  165.40 67.2     -11.46  31.5  225.4      30.0  -0.8799  -0.3590  -0.001 -0.021      0  274831.8750    79.5  0.20000 
 782.200   782.084  -0.1     -5.859     4.377     7.314  143.2    1.25  164.40 50.3     -16.94  31.5  225.5      40.0  -0.9510  -0.0875  0.005 -0.021      0  274828.9375    79.5  0.20000 
 782.400   782.284  -0.1     -5.863     4.379     7.318  143.2    1.20  164.74 31.5     -18.77  31.5  225.6      35.0  -0.9265  0.2227   0.011 -0.018      0  274826.0938    79.7  0.20000 
 782.600   782.484  -0.1     -5.868     4.379     7.322  143.3    1.49  176.53 15.4     -16.08  31.6  225.8      35.0  -0.8306  0.4718   0.023 -0.013      0  274826.0938    79.7  0.10000 
 782.800   782.684  -0.1     -5.873     4.379     7.326  143.3    1.22  172.52 358.7    343.31  31.6  225.5      20.0  -0.6575  0.6876   0.020 -0.006      0  274831.8438    79.6  0.20000 
 783.000   782.884  -0.1     -5.877     4.380     7.330  143.3    1.24  172.32 337.7    -21.02  31.6  225.4      40.0  -0.3680  0.8801   0.022 0.002      0  274831.8438    79.8  0.20000 
 783.200   783.084  -0.1     -5.882     4.381     7.334  143.3    1.36  169.26 318.8    -18.87  31.6  225.2      35.0  -0.0638  0.9540   0.022 0.008      0  274831.8438    79.8  0.20000 
 783.400   783.284  -0.1     -5.886     4.382     7.338  143.3    1.22  165.97 302.4    -16.46  31.6  225.0      45.0  0.2090   0.9319   0.018 0.012      0  274831.8438    79.8  0.20000 
 783.600   783.484  -0.1     -5.890     4.383     7.342  143.3    1.30  162.36 291.0    -11.34  31.6  224.9      70.0  0.3891   0.8748   0.017 0.015      0  274831.8438    79.8  0.10000 
 783.800   783.684  -0.1     -5.894     4.385     7.346  143.4    1.20  162.19 280.2    -10.80  31.6  224.7      45.0  0.5444   0.7839   0.013 0.016      0  274828.9688    79.8  0.20000 
 784.000   783.884  -0.1     -5.898     4.386     7.350  143.4    1.14  162.16 266.9    -13.33  31.6  224.5      50.0  0.7097   0.6365   0.009 0.018      0  274828.9688    79.8  0.20000 
 784.200   784.084  -0.1     -5.902     4.387     7.354  143.4    1.14  162.06 254.9    -11.98  31.5  224.4      50.0  0.8258   0.4750   0.005 0.019      0  274828.9688    79.8  0.20000 
 784.400   784.284  -0.1     -5.905     4.388     7.357  143.4    1.05  163.99 246.3    -8.62   31.5  224.3      35.0  0.8890   0.3464   0.001 0.018      0  274831.8438    79.8  0.10000 
 784.600   784.484  -0.1     -5.909     4.389     7.361  143.4    1.21  162.58 237.8    -8.44   31.6  224.1      50.0  0.9308   0.2123   -0.002 0.021      0  274826.0625    79.7  0.20000 
 784.800   784.684  -0.1     -5.913     4.390     7.364  143.4    1.04  164.63 226.6    -11.20  31.6  224.1      30.0  0.9564   0.0275   -0.005 0.017      0  274826.0938    79.8  0.20000 
 785.000   784.884  -0.1     -5.916     4.391     7.368  143.4    1.08  166.15 214.7    -11.92  31.7  224.0      40.0  0.9423   -0.1708  -0.010 0.016      0  274828.9688    79.8  0.20000 
 785.200   785.083  -0.1     -5.921     4.392     7.372  143.4    1.37  168.77 205.2    -9.54   31.6  223.8      55.0  0.8997   -0.3242  -0.016 0.017      0  274831.8438    79.7  0.10000 
 785.400   785.284  -0.1     -5.925     4.392     7.376  143.5    1.21  174.39 196.0    -9.20   31.6  224.0      20.0  0.8334   -0.4621  -0.018 0.011      0  274831.8438    79.4  0.20000 
 785.600   785.483  -0.1     -5.929     4.393     7.379  143.5    1.17  172.34 186.1    -9.91   31.6  224.0      30.0  0.7419   -0.5991  -0.019 0.008      0  274826.0938    79.5  0.20000 
 785.800   785.683  -0.1     -5.933     4.394     7.383  143.5    1.20  172.22 179.3    -6.73   31.6  224.0      45.0  0.6650   -0.6804  -0.020 0.006      0  274826.0938    79.7  0.20000 
 786.000   785.883  -0.1     -5.938     4.394     7.387  143.5    1.19  170.65 175.8    -3.58   31.4  224.1      30.0  0.6181   -0.7169  -0.020 0.006      0  274828.9688    79.7  0.20000 
 786.200   786.083  -0.1     -5.941     4.395     7.390  143.5    0.98  169.25 174.9    -0.88   31.5  224.2      80.0  0.6079   -0.7274  -0.016 0.005      0  274831.8438    79.8  0.10000 
 786.400   786.283  -0.1     -5.945     4.396     7.394  143.5    1.20  168.94 175.6    0.69    31.4  224.1      30.0  0.6149   -0.7180  -0.020 0.006      0  274826.0938    80.0  0.20000 
 786.600   786.483  -0.1     -5.949     4.397     7.398  143.5    1.26  164.83 178.5    2.90    31.4  224.0      70.0  0.6507   -0.6861  -0.020 0.009      0  274828.9688    80.1  0.20000 
 786.800   786.683  -0.1     -5.953     4.398     7.401  143.5    1.03  165.66 183.1    4.58    31.5  224.1      70.0  0.7049   -0.6332  -0.016 0.008      0  274828.9688    80.2  0.20000 
 787.000   786.883  -0.1     -5.956     4.399     7.404  143.6    1.01  165.03 186.6    3.58    31.5  224.1      45.0  0.7428   -0.5878  -0.015 0.009      0  274826.0938    80.1  0.10000 
 787.200   787.083  -0.1     -5.960     4.400     7.408  143.6    1.03  165.06 189.4    2.71    31.5  224.1      40.0  0.7720   -0.5536  -0.015 0.010      0  274831.8438    80.0  0.20000 
 787.400   787.283  -0.1     -5.963     4.400     7.411  143.6    1.03  167.22 191.7    2.35    31.6  224.1      50.0  0.7954   -0.5224  -0.015 0.010      0  274831.8438    79.8  0.20000 
