~Version Information
 VERS.                2.0:  CWLS LOG ASCII STANDARD -VERSION 2.0
 WRAP.                 NO:  ONE LINE PER DEPTH STEP
~WELL INFORMATION BLOCK
#MNEM.UNIT       DATA		            DESCRIPTION OF MNEMONIC
#---------    -------------            ------------------------
 STRT.FT  -4.400                         :START DEPTH
 STOP.FT  1314.600                       :STOP DEPTH
 STEP.FT  0.200                          :STEP    UP_HOLE  
 NULL.    -999.25                        :NULL VALUE
 COMP.    USGS                           :COMPANY
 WELL.    USGS 145                                                     :WELL
 FLD .    INL                            :FIELD\LOCATION
 LOC .                                   :LOCATION
 CNTY.    BUTTE                          :COUNTY
 STAT.    IDAHO                          :STATE
 CTRY.    USA                            :COUNTRY
 SRVC.    USGS                           :SERVICE COMPANY
 DATE.    07/16/2018                     :LOG DATE
 API .   CAL. 2017                           :API NUMBER
 LIC .    USGS                           :LICENSE NUMBER
~Curve Information Block
#MNEM.UNIT      API CODE     Curve Description
#---------    -------------  ------------------------
 DEPT     .FT        00 001 00 00          :  1  DEPTH   
 SANG     .DEG       00 620 00 00          :  2  SAMPLE SLANT ANGLE  
 SANGB    .DEG       00 631 00 00          :  3  SAMPLE ANG BEARING  
 TOOLFACE .DEG       00 000 00 00          :  4  TOOLFACE            
 DELT TF  .DEG       00 000 00 00          :  5  DELT TF             
 GYRO     .VOLTS     00 000 00 00          :  6  GYRO                
 PAD1-AZ  .DEG       00 632 00 00          :  7  SAMPLE PAD 1 AZIM   
 GAMMA    .CPS       00 310 00 00          :  8  GAMMA RAY           
 COS-GYRO .AMPL      00 000 00 00          :  9  COS-GYRO            
 SIN-GYRO .AMPL      00 000 00 00          : 10  SIN-GYRO            
 XINCL    .AMPL      00 000 00 00          : 11  XINCL               
 YINCL    .AMPL      00 000 00 00          : 12  YINCL               
 CAGE     .VOLTS     00 000 00 00          : 13  CAGE                
 MAG-VECT .AMPL      00 000 00 00          : 14  MAG-VECT            
 MSANGB   .DEG       00 000 00 00          : 15  MSANGB              
 TIME     .MINUTES   00 000 00 00          : 16  TIME                
~Parameter Information Block
#MNEM.UNIT   Information     Description
#---------- ---------------  ------------------------
 FILE.      PROCESSED          :File Type
 FIID.      9095C              :File Type Identifier
 VERS.      3.60E              :System Version
 SER .      1                  :System Serial Number
 TRUK.      0.25               :Truck Calibration Number
 TOOL.        1203             :Tool Serial Number
 TIME.      1600               :Time    HrHrMinMin
 LAT .                         :Latitude
 LON .                         :Longitude
 LMF .      LSD                :Log Measured From
 DMF .      LSD                :Driller Measured From
 PD  .                         :Permanent Data
 PDEV.                         :Elevation Permanent Data
 EKB .M                        :Elevation Kelly Bushing
 ELEV.DF                       :Elevation DF
 EGL .M                        :Elevation Ground Level
 DRDP.      1368               :Driller's Depth
 CASD.      10.                :Casing Diameter
 CASB.      1328               :Casing Bottom
 CASX.      SURFACE            :Casing Type
 CAST.      .25                :Casing Thickness
 TNOC.                         :Time Circulation Stopped
 LOGU.      USGS               :Logging Unit
 RECB.      MJG                :Recorded By
 OSR1.      0024               :Other Services
 OSR2.       9057              :Other Services
 OSR3.                         :Other Services
 BS  .IN         3.9           :Bit Size
 MST .      SH                 :Mean Surface Temperature
 TGRD.                         :Temperature Gradiant
 MAGN.      0                  :Magnetic Declination
 MDEN.      2.65               :Density Matrix
 MATR.      SANDSTONE          :Neutron Matrix
 DTMT.      54                 :Delta T Matrix
 DTFL.                         :Delta T Fluid
 MUDS.      FLOW LINE          :Mud Sample Source
 MRS .      .179               :Mud Resistivity
 MTP .      68.5               :Mud Temperature
 MFRS.                         :Resistivity Mud Filtrate
 MFTP.                         :Temperature Mud Filtrate
 MCRS.                         :Resistivity Mud Cake
 MCTP.                         :Temperature Mud Cake
 FTYP.      AIR                :Fluid Type
 FD  .LB/G    NA               :Mud Weight
 DFV .S                        :Fluid Viscosity
 FPH .                         :Fuild PH
 ELCO.      99999              :Electron Cutoff
 CASL.      3.5                :Casing Logger
 LOTD.      1328               :Logger TD
 ARTM.      12:20              :Arrival Time
 DPTM.                         :Departure Time
 RIGN.                         :Rig Number
~Other Information
#MNEM.UNIT  Information      Description
#---------- ---------------  ------------------------
# -------------------------- 
~A DEPTH  SANG   SANGB  TOOLFACE DELT TF GYRO  PAD1-AZ GAMMA    COS-GYRO SIN-GYRO XINCL YINCL CAGE    MAG-VECT MSANGB TIME    
# ...
 602.000   1.42  154.99 353.3    3.58    31.4  225.7      50.0  -0.5944  0.7537   0.024 -0.008      0  274831.8438 243.97 0.20000 
 602.200   1.50  140.78 349.7    9.75    31.4  225.8      40.0  -0.5460  0.7890   0.023 -0.013      0  274823.1563 254.71 0.20000 
 602.400   1.49  127.36 339.9    16.29   31.4  225.8      10.0  -0.4041  0.8692   0.022 -0.014      0  274823.1563 258.40 0.10000 
 602.600   1.39  138.93 323.6    18.52   31.5  225.5      90.0  -0.1444  0.9496   0.024 -0.002      0  274826.0625 230.27 0.20000 
 602.800   1.40  151.08 305.1    18.72   31.5  225.1      10.0  0.1646   0.9458   0.022 0.011      0  274823.1875 199.16 0.20000 
 603.000   1.30  154.23 286.4    13.92   31.5  224.7      15.0  0.4566   0.8378   0.015 0.017      0  274826.0625 176.92 0.20000 
 603.200   1.27  154.61 272.5    14.11   31.4  224.5      25.0  0.6466   0.7054   0.010 0.020      0  274831.8125 162.40 0.20000 
 603.400   1.29  150.32 258.4    20.00   31.4  224.4      20.0  0.7952   0.5240   0.007 0.021      0  274831.8125 152.42 0.20000 
 603.600   1.27  151.13 238.4    21.57   31.4  224.1      40.0  0.9247   0.2200   -0.001 0.022      0  274823.1563 131.37 0.10000 
 603.800   1.29  150.77 216.8    25.06   31.3  223.9      10.0  0.9359   -0.1346  -0.009 0.021      0  274826.0625 109.97 0.20000 
 604.000   1.22  136.26 191.8    28.13   31.3  223.9      50.0  0.7842   -0.5140  -0.012 0.018      0  274831.8125 99.43  0.20000 
 604.200   1.49  137.05 163.6    20.97   31.2  223.8      20.0  0.4468   -0.8185  -0.023 0.012      0  274823.1563 70.39  0.20000 
 604.400   1.00  149.94 142.7    18.37   31.2  224.4      40.0  0.1259   -0.9352  -0.017 -0.002      0  274826.0313 37.10  0.20000 
 604.600   1.26  148.83 124.3    21.92   31.3  224.5      75.0  -0.1753  -0.9271  -0.020 -0.009      0  274823.1563 19.96  0.20000 
 604.800   1.31  150.05 102.4    18.82   31.4  224.8      10.0  -0.5121  -0.7999  -0.015 -0.017      0  274826.0313 357.16 0.10000 
 605.000   1.16  145.96 83.6     15.70   31.5  225.0      15.0  -0.7488  -0.5967  -0.009 -0.018      0  274826.0625 342.62 0.20000 
 605.200   1.42  146.60 67.9     12.76   31.5  225.3      25.0  -0.8861  -0.3735  -0.005 -0.024      0  274831.8125 326.59 0.20000 
 605.400   1.29  145.78 55.1     7.31    31.5  225.4      30.0  -0.9493  -0.1690  0.000 -0.022      0  274820.2813 314.74 0.20000 
 605.600   1.33  146.58 47.8     5.39    31.5  225.5      30.0  -0.9648  -0.0469  0.004 -0.023      0  274831.8438 306.73 0.20000 
 605.800   1.31  147.23 42.4     5.59    31.5  225.6      25.0  -0.9641  0.0440   0.006 -0.022      0  274823.1563 300.74 0.20000 
 606.000   1.28  142.35 36.8     4.02    31.4  225.6      20.0  -0.9508  0.1371   0.006 -0.022      0  274823.1563 300.02 0.10000 
 606.200   1.38  147.64 32.8     2.90    31.3  225.7      35.0  -0.9362  0.2029   0.010 -0.022      0  274823.1875 290.82 0.20000 
 606.400   1.30  146.69 29.9     1.79    31.2  225.7      40.0  -0.9215  0.2490   0.010 -0.020      0  274826.0313 288.85 0.20000 
 606.600   1.28  145.86 28.1     1.50    31.2  225.6      25.0  -0.9140  0.2779   0.010 -0.020      0  274820.2813 287.87 0.20000 
 606.800   1.33  147.10 26.6     1.74    31.3  225.7      50.0  -0.9088  0.3025   0.012 -0.020      0  274831.8125 285.19 0.20000 
 607.000   1.27  146.91 24.9     1.54    31.4  225.7    -999.3  -0.9029  0.3313   0.012 -0.019      0  274826.0313 283.61 0.10000 
 607.200   1.32  145.96 23.3     1.39    31.5  225.7      50.0  -0.8967  0.3566   0.012 -0.019      0  274828.9063 283.05 0.20000 
 607.400   1.37  144.28 21.9     0.99    31.5  225.7      15.0  -0.8876  0.3782   0.013 -0.020      0  274828.9375 283.36 0.20000 
 607.600   1.26  145.44 20.9     0.48    31.5  225.7      20.0  -0.8797  0.3929   0.012 -0.018      0  274828.9063 281.15 0.20000 
 607.800   1.25  144.80 20.4     0.35    31.5  225.6      80.0  -0.8758  0.4001   0.012 -0.018      0  274820.2813 281.30 0.20000 
 608.000   1.31  146.28 20.1     0.42    31.5  225.7      15.0  -0.8731  0.4053   0.013 -0.018      0  274826.0313 279.52 0.20000 
 608.200   1.27  145.34 19.7     0.15    31.5  225.7      20.0  -0.8693  0.4112   0.013 -0.018      0  274826.0313 280.02 0.10000 
 608.400   1.23  148.20 19.5     0.04    31.4  225.6      50.0  -0.8645  0.4117   0.013 -0.017      0  274823.1563 276.98 0.20000 
 608.600   1.25  144.62 19.5     -0.01   31.3  225.6      45.0  -0.8642  0.4122   0.013 -0.018      0  274826.0625 280.53 0.20000 
 608.800   1.27  146.06 19.5     -0.16   31.3  225.7      40.0  -0.8644  0.4122   0.013 -0.018      0  274828.9375 279.12 0.20000 
 609.000   1.29  147.87 19.7     -0.22   31.4  225.7      20.0  -0.8668  0.4103   0.014 -0.018      0  274820.2813 277.49 0.20000 
 609.200   1.29  144.52 19.9     -0.18   31.4  225.7      25.0  -0.8694  0.4075   0.013 -0.018      0  274826.0313 281.04 0.20000 
 609.400   1.28  144.61 20.1     -0.07   31.4  225.7      50.0  -0.8713  0.4051   0.013 -0.018      0  274828.9063 281.12 0.10000 
 609.600   1.29  146.84 20.1     -0.15   31.4  225.7      35.0  -0.8689  0.4026   0.013 -0.018      0  274823.1875 278.98 0.20000 
 609.800   1.28  144.24 20.3     -0.06   31.3  225.7      65.0  -0.8678  0.3993   0.012 -0.019      0  274823.1563 281.72 0.20000 
 610.000   1.28  146.44 20.4     -0.11   31.2  225.7      55.0  -0.8675  0.3980   0.013 -0.018      0  274826.0313 279.59 0.20000 
 610.200   1.27  148.03 20.5     -0.16   31.2  225.7      60.0  -0.8676  0.3960   0.013 -0.018      0  274831.8438 278.10 0.20000 
 610.400   1.31  144.08 20.6     0.00    31.2  225.7      40.0  -0.8693  0.3940   0.013 -0.019      0  274826.0625 282.23 0.20000 
 610.600   1.28  146.46 20.6     -0.09   31.3  225.7      30.0  -0.8713  0.3950   0.013 -0.018      0  274828.9063 279.84 0.10000 
 610.800   1.35  145.31 20.7     -0.07   31.3  225.7      25.0  -0.8710  0.3931   0.013 -0.019      0  274823.1563 281.12 0.20000 
 611.000   1.24  148.18 20.8     -0.01   31.4  225.6      35.0  -0.8737  0.3930   0.013 -0.017      0  274826.0313 278.26 0.19900 
 611.200   1.26  147.27 20.8     -0.07   31.3  225.7      35.0  -0.8719  0.3919   0.013 -0.018      0  274831.8438 279.18 0.20000 
 611.400   1.25  148.70 20.9     0.04    31.3  225.7      45.0  -0.8734  0.3913   0.013 -0.017      0  274820.2813 277.82 0.20000 
 611.600   1.31  147.05 20.8     0.33    31.3  225.7      20.0  -0.8708  0.3908   0.014 -0.018      0  274823.1563 279.48 0.10000 
 611.800   1.22  148.32 20.5     0.04    31.3  225.6      65.0  -0.8690  0.3960   0.013 -0.017      0  274826.0625 277.83 0.20000 
 612.000   1.30  148.22 20.5     0.30    31.4  225.7      20.0  -0.8743  0.3992   0.014 -0.018      0  274823.1563 277.93 0.20000 
 612.200   1.27  147.47 20.2     0.17    31.5  225.7      40.0  -0.8753  0.4052   0.013 -0.018      0  274826.0313 278.36 0.20000 
 612.400   1.30  146.98 20.0     0.08    31.5  225.7      30.0  -0.8734  0.4074   0.014 -0.018      0  274820.2813 278.70 0.20000 
 612.600   1.31  147.84 19.9     0.41    31.5  225.7      15.0  -0.8726  0.4086   0.014 -0.018      0  274826.0313 277.77 0.20000 
 612.800   1.29  149.11 19.5     0.38    31.5  225.7      30.0  -0.8685  0.4143   0.014 -0.017      0  274828.9375 276.08 0.10000 
 613.000   1.26  151.79 19.1     0.16    31.5  225.7      25.0  -0.8665  0.4206   0.015 -0.016      0  274823.1563 272.99 0.20000 
 613.200   1.30  143.82 18.9     0.81    31.5  225.7      50.0  -0.8637  0.4223   0.013 -0.019      0  274826.0313 280.82 0.20000 
 613.400   1.41  147.86 18.1     0.75    31.5  225.8      40.0  -0.8592  0.4352   0.016 -0.019      0  274826.0313 276.06 0.20000 
 613.600   1.21  152.65 17.4     0.23    31.5  225.6      20.0  -0.8545  0.4469   0.015 -0.015      0  274823.1875 270.37 0.20000 
 613.800   1.35  145.91 17.2     0.58    31.6  225.7      10.0  -0.8534  0.4508   0.015 -0.018      0  274826.0313 276.98 0.10000 
 614.000   1.32  146.68 16.6     0.43    31.6  225.7      35.0  -0.8488  0.4594   0.015 -0.018      0  274823.1563 275.61 0.20000 
 614.200   1.29  148.90 16.1     0.52    31.6  225.7      30.0  -0.8449  0.4655   0.015 -0.017      0  274828.9063 272.95 0.20000 
