~Version Information
 VERS.                2.0:  CWLS LOG ASCII STANDARD -VERSION 2.0
 WRAP.                 NO:  ONE LINE PER DEPTH STEP
~WELL INFORMATION BLOCK
#MNEM.UNIT       DATA		            DESCRIPTION OF MNEMONIC
#---------    -------------            ------------------------
 STRT.FT  -3.600                         :START DEPTH
 STOP.FT  1314.400                       :STOP DEPTH
 STEP.FT  0.200                          :STEP  DOWN_HOLE  
 NULL.    -999.25                        :NULL VALUE
 COMP.    USGS                           :COMPANY
 WELL.    USGS 145                                                     :WELL
 FLD .    INL                            :FIELD\LOCATION
 LOC .                                   :LOCATION
 CNTY.    BUTTE                          :COUNTY
 STAT.    IDAHO                          :STATE
 CTRY.    USA                            :COUNTRY
 SRVC.    USGS                           :SERVICE COMPANY
 DATE.    07/16/2018                     :LOG DATE
 API .   CAL. 2017                           :API NUMBER
 LIC .    USGS                           :LICENSE NUMBER
~Curve Information Block
#MNEM.UNIT      API CODE     Curve Description
#---------    -------------  ------------------------
 DEPT     .FT        00 001 00 00          :  1  DEPTH   
 T DEPTH  .FT        00 960 00 00          :  2  TRUE DEPTH          
 D DIFF   .FT        00 000 00 00          :  3  DEPTH DIFFERENCE    
 N DEV    .FT        00 000 00 00          :  4  NORTH DEVIATION     
 E DEV    .FT        00 000 00 00          :  5  EAST DEVIATION      
 DISTANCE .FT        00 000 00 00          :  6  DEVIATED DISTANCE   
 AZIMUTH  .DEG       00 630 00 00          :  7  DEVIATED AZIMUTH    
 SANG     .DEG       00 620 00 00          :  8  SAMPLE SLANT ANGLE  
 SANGB    .DEG       00 631 00 00          :  9  SAMPLE ANG BEARING  
 TOOLFACE .DEG       00 000 00 00          : 10  TOOLFACE            
 DELT TF  .DEG       00 000 00 00          : 11  DELT TF             
 GYRO     .VOLTS     00 000 00 00          : 12  GYRO                
 PAD1-AZ  .DEG       00 632 00 00          : 13  SAMPLE PAD 1 AZIM   
 GAMMA    .CPS       00 310 00 00          : 14  GAMMA RAY           
 COS-GYRO .AMPL      00 000 00 00          : 15  COS-GYRO            
 SIN-GYRO .AMPL      00 000 00 00          : 16  SIN-GYRO            
 XINCL    .AMPL      00 000 00 00          : 17  XINCL               
 YINCL    .AMPL      00 000 00 00          : 18  YINCL               
 CAGE     .VOLTS     00 000 00 00          : 19  CAGE                
 MAG-VECT .AMPL      00 000 00 00          : 20  MAG-VECT            
 TENSION  .CPS       00 000 00 00          : 21  LINE TENSION        
 TIME     .MINUTES   00 000 00 00          : 22  TIME                
~Parameter Information Block
#MNEM.UNIT   Information     Description
#---------- ---------------  ------------------------
 FILE.      PROCESSED          :File Type
 FIID.      9095C              :File Type Identifier
 VERS.      3.60E              :System Version
 SER .      1                  :System Serial Number
 TRUK.      0.25               :Truck Calibration Number
 TOOL.        1203             :Tool Serial Number
 TIME.      1519               :Time    HrHrMinMin
 LAT .                         :Latitude
 LON .                         :Longitude
 LMF .      LSD                :Log Measured From
 DMF .      LSD                :Driller Measured From
 PD  .                         :Permanent Data
 PDEV.                         :Elevation Permanent Data
 EKB .M                        :Elevation Kelly Bushing
 ELEV.DF                       :Elevation DF
 EGL .M                        :Elevation Ground Level
 DRDP.      1368               :Driller's Depth
 CASD.      10.                :Casing Diameter
 CASB.      1328               :Casing Bottom
 CASX.      SURFACE            :Casing Type
 CAST.      .25                :Casing Thickness
 TNOC.                         :Time Circulation Stopped
 LOGU.      USGS               :Logging Unit
 RECB.      MJG                :Recorded By
 OSR1.      0024               :Other Services
 OSR2.       9057              :Other Services
 OSR3.                         :Other Services
 BS  .IN         3.9           :Bit Size
 MST .      SH                 :Mean Surface Temperature
 TGRD.                         :Temperature Gradiant
 MAGN.        12.500           :Magnetic Declination
 MDEN.      2.65               :Density Matrix
 MATR.      SANDSTONE          :Neutron Matrix
 DTMT.      54                 :Delta T Matrix
 DTFL.                         :Delta T Fluid
 MUDS.      FLOW LINE          :Mud Sample Source
 MRS .      .179               :Mud Resistivity
 MTP .      68.5               :Mud Temperature
 MFRS.                         :Resistivity Mud Filtrate
 MFTP.                         :Temperature Mud Filtrate
 MCRS.                         :Resistivity Mud Cake
 MCTP.                         :Temperature Mud Cake
 FTYP.      AIR                :Fluid Type
 FD  .LB/G    NA               :Mud Weight
 DFV .S                        :Fluid Viscosity
 FPH .                         :Fuild PH
 ELCO.      99999              :Electron Cutoff
 CASL.      3.5                :Casing Logger
 LOTD.      1328               :Logger TD
 ARTM.      12:20              :Arrival Time
 DPTM.                         :Departure Time
 RIGN.                         :Rig Number
~Other Information
#MNEM.UNIT  Information      Description
#---------- ---------------  ------------------------
# -------------------------- 
~A DEPTH  T DEPTH   D DIFF N DEV     E DEV     DISTANCE  AZIMUTH SANG   SANGB  TOOLFACE DELT TF GYRO  PAD1-AZ GAMMA    COS-GYRO SIN-GYRO XINCL YINCL CAGE    MAG-VECT TENSION  TIME    
  -3.600    -3.600  -999.3 -999.250  -999.250  -999.250  -999.3  -999.25 142.50 195.7    -29.80  31.8  224.4     160.0  0.7782   -0.4376  -0.005 -999.250   -999  -999.2500    78.4  499.5062
  -3.400    -3.400  -999.3 -999.250  -999.250  -999.250  -999.3  -999.25 303.03 192.6    -3.09   31.8  224.8     160.0  0.8072   -0.5130  0.000 -999.250   -999  -999.2500    78.7  1.40000 
  -3.200    -3.200  -999.3 -999.250  -999.250  -999.250  -999.3   0.07  317.56 198.7    6.13    31.8  224.8      74.9  0.8581   -0.4242  0.001 -999.250   -999  -999.2500    78.4  1.10000 
  -3.000    -3.000  -999.3 -999.250  -999.250  -999.250  -999.3   0.03  326.39 205.2    6.51    31.8  224.8      24.3  0.9023   -0.3248  0.000 -0.000      0  274848.3438    78.2  0.70000 
  -2.800    -2.800  -999.3 -999.250  -999.250  -999.250  -999.3   0.03  346.52 212.1    6.91    31.7  224.8      31.8  0.9335   -0.2136  0.000 -0.000      0  274849.1875    78.4  0.60000 
  -2.600    -2.600  -999.3 -999.250  -999.250  -999.250  -999.3   0.10  338.04 219.2    7.12    31.8  224.9      21.4  0.9568   -0.0966  0.001 -0.001      0  274846.8750    78.4  0.50000 
  -2.400    -2.400  -999.3 -999.250  -999.250  -999.250  -999.3   0.05  317.03 225.5    6.30    31.8  224.8      38.3  0.9601   0.0089   0.000 -0.001      0  274849.1875    78.4  2.45400 
  -2.200    -2.200  -999.3 -999.250  -999.250  -999.250  -999.3   0.35   5.98  255.2    29.68   31.8  225.0      26.0  0.8290   0.4827   0.002 -0.006      0  274860.7188    78.4  0.04600 
  -2.000    -2.000  -999.3 -999.250  -999.250  -999.250  -999.3   0.35   5.98  255.2    -999.25 31.8  225.0      20.0  0.8290   0.4827   0.002 -0.006      0  274860.7188    78.4  -999.250
  -1.800    -1.800  -999.3 -999.250  -999.250  -999.250  -999.3   0.35   5.98  255.2    -999.25 31.8  225.0      40.0  0.8290   0.4827   0.002 -0.006      0  274860.7188    78.4  -999.250
  -1.600    -1.600  -999.3 -999.250  -999.250  -999.250  -999.3   0.35   5.98  255.2    -999.25 31.8  225.0      40.0  0.8290   0.4827   0.002 -0.006      0  274860.7188    78.4  -999.250
  -1.400    -1.400  -999.3 -999.250  -999.250  -999.250  -999.3   0.19  348.94 254.4    -0.80   31.8  224.9      40.0  0.8361   0.4713   0.000 -0.003      0  274852.0625    78.4  0.20000 
  -1.200    -1.200  -999.3 -999.250  -999.250  -999.250  -999.3   0.09  257.70 253.6    -0.78   31.8  224.7      40.0  0.8420   0.4595   -0.002 -0.000      0  274847.7188    78.4  0.40000 
  -1.000    -1.000  -999.3 -999.250  -999.250  -999.250  -999.3   0.20   5.69  262.8    9.20    31.8  224.9      45.0  0.7571   0.5878   0.001 -0.003      0  274849.1875    78.4  0.30000 
  -0.800    -0.800  -999.3 -999.250  -999.250  -999.250  -999.3   0.17   6.87  268.3    5.45    31.7  224.9      62.5  0.6970   0.6563   0.000 -0.003      0  274850.6250    78.4  0.40000 
  -0.600    -0.600  -999.3 -999.250  -999.250  -999.250  -999.3   0.15  279.53 268.1    -0.15   31.8  224.7      63.3  0.7000   0.6558   -0.003 -0.001      0  274851.0938    78.4  0.30000 
  -0.400    -0.400  -999.3 -999.250  -999.250  -999.250  -999.3   0.09  345.02 279.5    11.40   31.7  224.8      40.0  0.5530   0.7762   -0.001 -0.001      0  274849.1563    78.8  0.40000 
  -0.200    -0.200  -999.3 -999.250  -999.250  -999.250  -999.3   0.33  55.71  293.7    14.19   31.7  225.0      50.0  0.3482   0.8939   0.003 -0.005      0  274851.1250    79.0  0.30000 
   0.000    -0.000  -0.0      0.000    -0.000     0.000  359.2    0.11  359.24 289.4    -4.29   31.7  224.8      95.0  0.4140   0.8654   -0.001 -0.002      0  274847.2500    79.1  0.30000 
   0.200     0.200  -0.0      0.000     0.000     0.000  25.6     0.06  79.75  282.8    -6.65   31.8  224.8      70.0  0.5115   0.8117   0.001 -0.001      0  274851.0938    78.9  0.30000 
   0.400     0.400  -0.0      0.001     0.000     0.001  14.2     0.06  347.86 282.0    -0.77   31.8  224.8      90.0  0.5227   0.8052   -0.001 -0.001      0  274852.0313    78.8  0.20000 
   0.600     0.600  -0.0      0.001     0.000     0.001   2.0     0.10  339.04 284.6    2.63    31.8  224.8      70.0  0.4849   0.8280   -0.001 -0.001      0  274849.1563    78.7  0.30000 
   0.800     0.800  -0.0      0.001     0.000     0.001   1.1     0.08  357.81 291.5    6.90    31.8  224.8      75.0  0.3818   0.8801   -0.001 -0.001      0  274845.3438    78.7  0.30000 
   1.000     1.000  -0.0      0.002     0.001     0.002  23.0     0.20  64.00  300.5    8.96    31.7  224.9     106.7  0.2403   0.9299   0.001 -0.003      0  274851.0938    78.7  0.30000 
   1.200     1.200  -0.0      0.002     0.001     0.002  33.3     0.19  60.87  301.7    1.20    31.7  224.9      66.7  0.2208   0.9353   0.001 -0.003      0  274853.0313    78.8  0.30000 
   1.400     1.400  -0.0      0.002     0.001     0.002  26.1     0.10  327.32 295.2    -6.47   31.7  224.8     146.7  0.3246   0.9038   -0.002 -0.001      0  274849.1563    78.8  0.30000 
   1.600     1.600  -0.0      0.002     0.002     0.003  38.6     0.17  100.67 293.2    -2.06   31.7  224.9     113.3  0.3561   0.8894   0.003 -0.001      0  274849.1563    78.7  0.30000 
   1.800     1.800  -0.0      0.002     0.002     0.003  37.6     0.13  31.78  297.4    4.27    31.6  224.8     116.7  0.2887   0.9129   -0.000 -0.002      0  274852.0625    78.5  0.20000 
   2.000     2.000  -0.0      0.003     0.003     0.004  41.2     0.23  54.96  301.0    3.56    31.6  224.9     100.0  0.2314   0.9292   0.001 -0.004      0  274853.0313    78.5  0.30000 
   2.200     2.200  -0.0      0.003     0.003     0.004  40.9     0.09  36.60  301.2    0.14    31.6  224.8     105.0  0.2293   0.9301   -0.000 -0.002      0  274849.1875    78.4  0.30000 
   2.400     2.400  -0.0      0.004     0.003     0.004  37.5     0.10  353.76 301.6    0.45    31.6  224.8     103.3  0.2219   0.9315   -0.001 -0.001      0  274847.2500    78.6  0.30000 
   2.600     2.600  -0.0      0.004     0.003     0.005  34.9     0.09  354.13 305.4    3.85    31.6  224.8      76.7  0.1589   0.9446   -0.001 -0.001      0  274852.0625    78.7  0.20000 
   2.800     2.800  -0.0      0.004     0.003     0.005  39.3     0.16  78.36  311.9    6.50    31.6  224.9      66.7  0.0510   0.9571   0.001 -0.003      0  274849.1875    78.8  0.30000 
   3.000     3.000  -0.0      0.004     0.004     0.006  43.7     0.22  74.13  314.8    2.85    31.7  224.9      50.0  0.0033   0.9608   0.001 -0.004      0  274851.0938    78.8  0.30000 
   3.200     3.200  -0.0      0.004     0.005     0.007  47.6     0.27  71.56  312.0    -2.76   31.7  225.0      76.7  0.0496   0.9605   0.001 -0.005      0  274846.2813    78.7  0.20000 
   3.400     3.400  -0.0      0.005     0.005     0.007  46.6     0.09  25.12  309.9    -2.12   31.6  224.8      50.0  0.0848   0.9557   -0.001 -0.001      0  274851.0938    78.7  0.30000 
   3.600     3.600  -0.0      0.005     0.005     0.007  48.0     0.14  69.04  309.7    -0.27   31.6  224.9      30.0  0.0893   0.9547   0.001 -0.002      0  274849.1875    78.6  0.30000 
   3.800     3.800  -0.0      0.005     0.006     0.008  47.9     0.11  44.58  307.2    -2.43   31.7  224.8      33.3  0.1300   0.9516   -0.000 -0.002      0  274846.3125    78.6  0.20000 
   4.000     4.000  -0.0      0.006     0.006     0.008  45.1     0.11  334.66 304.6    -2.65   31.6  224.8      66.7  0.1733   0.9420   -0.002 -0.001      0  274847.2500    78.7  0.30000 
   4.200     4.200  -0.0      0.006     0.006     0.008  44.4     0.09  26.94  306.7    2.16    31.5  224.8      75.0  0.1373   0.9446   -0.001 -0.001      0  274852.0625    78.7  0.20000 
   4.400     4.400  -0.0      0.006     0.006     0.009  46.1     0.18  68.90  311.4    4.69    31.5  224.9      96.7  0.0597   0.9534   0.001 -0.003      0  274854.9688    78.7  0.30000 
   4.600     4.600  -0.0      0.006     0.007     0.009  47.3     0.19  63.75  314.7    3.33    31.5  224.9      35.0  0.0043   0.9541   0.000 -0.003      0  274852.0625    78.7  0.20000 
   4.800     4.800  -0.0      0.007     0.007     0.010  47.8     0.13  56.57  316.7    2.00    31.5  224.9      80.0  -0.0291  0.9532   -0.000 -0.002      0  274851.0938    78.6  0.30000 
