~Version Information
 VERS.                2.0:  CWLS LOG ASCII STANDARD -VERSION 2.0
 WRAP.                 NO:  ONE LINE PER DEPTH STEP
~WELL INFORMATION BLOCK
#MNEM.UNIT       DATA		            DESCRIPTION OF MNEMONIC
#---------    -------------            ------------------------
 STRT.FT  -4.400                         :START DEPTH
 STOP.FT  1314.600                       :STOP DEPTH
 STEP.FT  0.200                          :STEP    UP_HOLE  
 NULL.    -999.25                        :NULL VALUE
 COMP.    USGS                           :COMPANY
 WELL.    USGS 145                                                     :WELL
 FLD .    INL                            :FIELD\LOCATION
 LOC .                                   :LOCATION
 CNTY.    BUTTE                          :COUNTY
 STAT.    IDAHO                          :STATE
 CTRY.    USA                            :COUNTRY
 SRVC.    USGS                           :SERVICE COMPANY
 DATE.    07/16/2018                     :LOG DATE
 API .   CAL. 2017                           :API NUMBER
 LIC .    USGS                           :LICENSE NUMBER
~Curve Information Block
#MNEM.UNIT      API CODE     Curve Description
#---------    -------------  ------------------------
 DEPT     .FT        00 001 00 00          :  1  DEPTH   
 SANG     .DEG       00 620 00 00          :  2  SAMPLE SLANT ANGLE  
 SANGB    .DEG       00 631 00 00          :  3  SAMPLE ANG BEARING  
 TOOLFACE .DEG       00 000 00 00          :  4  TOOLFACE            
 DELT TF  .DEG       00 000 00 00          :  5  DELT TF             
 GYRO     .VOLTS     00 000 00 00          :  6  GYRO                
 PAD1-AZ  .DEG       00 632 00 00          :  7  SAMPLE PAD 1 AZIM   
 GAMMA    .CPS       00 310 00 00          :  8  GAMMA RAY           
 COS-GYRO .AMPL      00 000 00 00          :  9  COS-GYRO            
 SIN-GYRO .AMPL      00 000 00 00          : 10  SIN-GYRO            
 XINCL    .AMPL      00 000 00 00          : 11  XINCL               
 YINCL    .AMPL      00 000 00 00          : 12  YINCL               
 CAGE     .VOLTS     00 000 00 00          : 13  CAGE                
 MAG-VECT .AMPL      00 000 00 00          : 14  MAG-VECT            
 MSANGB   .DEG       00 000 00 00          : 15  MSANGB              
 TIME     .MINUTES   00 000 00 00          : 16  TIME                
~Parameter Information Block
#MNEM.UNIT   Information     Description
#---------- ---------------  ------------------------
 FILE.      PROCESSED          :File Type
 FIID.      9095C              :File Type Identifier
 VERS.      3.60E              :System Version
 SER .      1                  :System Serial Number
 TRUK.      0.25               :Truck Calibration Number
 TOOL.        1203             :Tool Serial Number
 TIME.      1600               :Time    HrHrMinMin
 LAT .                         :Latitude
 LON .                         :Longitude
 LMF .      LSD                :Log Measured From
 DMF .      LSD                :Driller Measured From
 PD  .                         :Permanent Data
 PDEV.                         :Elevation Permanent Data
 EKB .M                        :Elevation Kelly Bushing
 ELEV.DF                       :Elevation DF
 EGL .M                        :Elevation Ground Level
 DRDP.      1368               :Driller's Depth
 CASD.      10.                :Casing Diameter
 CASB.      1328               :Casing Bottom
 CASX.      SURFACE            :Casing Type
 CAST.      .25                :Casing Thickness
 TNOC.                         :Time Circulation Stopped
 LOGU.      USGS               :Logging Unit
 RECB.      MJG                :Recorded By
 OSR1.      0024               :Other Services
 OSR2.       9057              :Other Services
 OSR3.                         :Other Services
 BS  .IN         3.9           :Bit Size
 MST .      SH                 :Mean Surface Temperature
 TGRD.                         :Temperature Gradiant
 MAGN.      0                  :Magnetic Declination
 MDEN.      2.65               :Density Matrix
 MATR.      SANDSTONE          :Neutron Matrix
 DTMT.      54                 :Delta T Matrix
 DTFL.                         :Delta T Fluid
 MUDS.      FLOW LINE          :Mud Sample Source
 MRS .      .179               :Mud Resistivity
 MTP .      68.5               :Mud Temperature
 MFRS.                         :Resistivity Mud Filtrate
 MFTP.                         :Temperature Mud Filtrate
 MCRS.                         :Resistivity Mud Cake
 MCTP.                         :Temperature Mud Cake
 FTYP.      AIR                :Fluid Type
 FD  .LB/G    NA               :Mud Weight
 DFV .S                        :Fluid Viscosity
 FPH .                         :Fuild PH
 ELCO.      99999              :Electron Cutoff
 CASL.      3.5                :Casing Logger
 LOTD.      1328               :Logger TD
 ARTM.      12:20              :Arrival Time
 DPTM.                         :Departure Time
 RIGN.                         :Rig Number
~Other Information
#MNEM.UNIT  Information      Description
#---------- ---------------  ------------------------
# -------------------------- 
~A DEPTH  SANG   SANGB  TOOLFACE DELT TF GYRO  PAD1-AZ GAMMA    COS-GYRO SIN-GYRO XINCL YINCL CAGE    MAG-VECT MSANGB TIME    
# ...
 168.400   0.31   2.19  211.8    -0.78   31.5  225.0      20.0  0.9352   -0.2199  0.005 -0.003      0  274831.8125 254.58 0.20000 
 168.600   0.43  343.54 212.5    -0.64   31.5  225.1      70.0  0.9386   -0.2073  0.005 -0.006      0  274831.8125 274.09 0.10000 
 168.800   0.33  357.80 213.2    -0.61   31.5  225.0      60.0  0.9428   -0.1972  0.005 -0.003      0  274820.2813 260.40 0.20000 
 169.000   0.33  353.94 213.8    -0.73   31.5  225.0      25.0  0.9458   -0.1874  0.004 -0.004      0  274828.9688 264.87 0.20000 
 169.200   0.28  348.59 214.5    -0.48   31.6  225.0      70.0  0.9481   -0.1753  0.003 -0.004      0  274820.2813 270.92 0.10000 
 169.400   0.32  354.78 215.0    -0.39   31.5  225.0      15.0  0.9473   -0.1669  0.004 -0.004      0  274820.2813 265.24 0.20000 
 169.600   0.28  346.55 215.4    -0.32   31.5  225.0      35.0  0.9488   -0.1605  0.003 -0.004      0  274826.0625 273.83 0.20000 
 169.800   0.37  345.69 215.7    0.22    31.4  225.1      40.0  0.9472   -0.1548  0.004 -0.005      0  274828.9375 275.08 0.10000 
 170.000   0.30  342.54 215.5    0.44    31.4  225.0      45.0  0.9452   -0.1581  0.003 -0.004      0  274826.0313 277.96 0.20000 
 170.200   0.29   2.07  215.1    0.27    31.3  225.0      30.0  0.9424   -0.1650  0.004 -0.003      0  274826.0938 257.98 0.20000 
 170.400   0.32   2.14  214.8    0.14    31.3  225.0      25.0  0.9416   -0.1694  0.005 -0.003      0  274828.9063 257.68 0.20000 
 170.600   0.34   5.32  214.7    -0.09   31.4  225.0      80.0  0.9436   -0.1722  0.005 -0.003      0  274826.0313 254.36 0.10000 
 170.800   0.37  352.10 214.7    -0.06   31.3  225.1      35.0  0.9418   -0.1704  0.005 -0.004      0  274837.5938 267.70 0.20000 
 171.000   0.44  352.19 214.8    -0.18   31.4  225.1      30.0  0.9441   -0.1698  0.006 -0.005      0  274828.9063 267.71 0.20000 
 171.200   0.37   6.16  215.0    -0.59   31.4  225.0      40.0  0.9448   -0.1669  0.006 -0.003      0  274828.9375 253.86 0.10000 
 171.400   0.27  355.02 215.6    -0.83   31.4  225.0    -999.3  0.9443   -0.1569  0.004 -0.003      0  274837.5938 265.52 0.20000 
 171.600   0.28   9.03  216.4    -1.76   31.4  225.0      45.0  0.9471   -0.1432  0.004 -0.002      0  274828.9063 252.35 0.20000 
 171.800   0.25   4.25  218.2    -1.54   31.4  225.0      20.0  0.9510   -0.1140  0.004 -0.002      0  274828.9375 258.88 0.10000 
 172.000   0.32   6.65  219.7    -1.61   31.4  225.0      20.0  0.9542   -0.0885  0.005 -0.003      0  274826.0313 258.06 0.20000 
 172.200   0.31  359.10 221.3    -1.92   31.3  225.0      35.0  0.9556   -0.0617  0.004 -0.004      0  274828.9063 267.22 0.20000 
 172.400   0.48  349.95 223.2    -1.05   31.3  225.1      30.0  0.9561   -0.0296  0.005 -0.007      0  274831.8125 278.40 0.10000 
 172.600   0.38  341.48 224.3    -0.61   31.3  225.0      15.0  0.9555   -0.0121  0.003 -0.006      0  274826.0313 287.84 0.20000 
 172.800   0.39  358.83 224.9    -0.70   31.3  225.1      55.0  0.9553   -0.0019  0.005 -0.005      0  274831.8125 271.12 0.20000 
 173.000   0.39  355.33 225.6    -0.33   31.3  225.1      40.0  0.9570   0.0098   0.004 -0.005      0  274831.8125 275.32 0.10000 
 173.200   0.38  358.98 225.9    -0.33   31.4  225.1      30.0  0.9615   0.0154   0.005 -0.005      0  274826.0313 272.00 0.20000 
 173.400   0.35  359.11 226.3    -0.38   31.5  225.0      30.0  0.9627   0.0210   0.004 -0.004      0  274826.0625 272.17 0.20000 
 173.600   0.40   3.02  226.6    -0.26   31.5  225.1      20.0  0.9622   0.0274   0.005 -0.005      0  274826.0625 268.68 0.10000 
 173.800   0.30  355.14 226.9    -0.24   31.5  225.0       5.0  0.9628   0.0318   0.003 -0.004      0  274820.2813 276.76 0.20000 
 174.000   0.41   4.68  227.1    -0.41   31.4  225.1      20.0  0.9603   0.0358   0.005 -0.005      0  274828.9375 267.54 0.20000 
 174.200   0.36   3.18  227.5    -0.46   31.4  225.0      30.0  0.9596   0.0426   0.005 -0.004      0  274828.9063 269.41 0.10000 
 174.400   0.44   6.47  228.0    -0.67   31.4  225.1      20.0  0.9591   0.0503   0.006 -0.005      0  274831.8438 266.63 0.20000 
 174.600   0.39   3.85  228.7    -1.15   31.4  225.1      20.0  0.9587   0.0615   0.005 -0.005      0  274828.9063 269.88 0.20000 
 174.800   0.40   5.82  229.8    -0.99   31.4  225.1     100.0  0.9570   0.0807   0.005 -0.005      0  274828.9375 269.08 0.10000 
 175.000   0.42   3.30  230.8    -1.00   31.4  225.1      20.0  0.9557   0.0974   0.005 -0.005      0  274831.8125 272.61 0.20000 
 175.200   0.43   3.57  231.8    -1.34   31.4  225.1      45.0  0.9529   0.1139   0.005 -0.006      0  274828.9063 273.33 0.20000 
 175.400   0.39   4.63  233.2    -0.97   31.4  225.1      10.0  0.9508   0.1363   0.005 -0.005      0  274828.9375 273.60 0.10000 
 175.600   0.36   1.66  234.1    -0.79   31.4  225.0      45.0  0.9487   0.1524   0.004 -0.005      0  274831.8125 277.51 0.20000 
 175.800   0.41   3.04  234.9    -0.75   31.5  225.1      35.0  0.9482   0.1657   0.004 -0.006      0  274828.9375 276.95 0.20000 
 176.000   0.34   0.24  235.7    -0.28   31.5  225.0      60.0  0.9470   0.1783   0.003 -0.005      0  274828.9063 280.44 0.09900 
 176.200   0.64   8.82  235.9    -0.14   31.5  225.2      50.0  0.9446   0.1826   0.008 -0.008      0  274831.8125 272.36 0.20000 
 176.400   0.48   2.53  236.1    -0.12   31.5  225.1      15.0  0.9462   0.1854   0.005 -0.007      0  274826.0625 278.68 0.20000 
 176.600   0.35  355.49 236.2    -0.15   31.5  225.0      30.0  0.9450   0.1871   0.003 -0.005      0  274823.1563 285.73 0.10000 
 176.800   0.39   6.17  236.3    -0.35   31.5  225.1      25.0  0.9446   0.1896   0.004 -0.005      0  274831.8438 275.24 0.20000 
 177.000   0.48   7.50  236.7    -0.78   31.4  225.1      60.0  0.9408   0.1947   0.006 -0.006      0  274828.9375 274.32 0.20000 
 177.200   0.42   1.76  237.5    -0.89   31.4  225.1      20.0  0.9361   0.2071   0.004 -0.006      0  274831.8125 280.80 0.10000 
 177.400   0.40   4.25  238.4    -1.10   31.4  225.1      25.0  0.9329   0.2217   0.004 -0.006      0  274826.0313 279.19 0.20000 
 177.600   0.43   7.86  239.5    -1.63   31.4  225.1      55.0  0.9289   0.2396   0.005 -0.006      0  274831.8125 276.69 0.20000 
 177.800   0.36   5.81  241.1    -1.73   31.4  225.0      40.0  0.9214   0.2658   0.004 -0.005      0  274831.8125 280.32 0.10000 
 178.000   0.44   9.41  242.8    -1.25   31.4  225.1      55.0  0.9133   0.2935   0.005 -0.006      0  274831.8125 278.50 0.20000 
 178.200   0.42   7.13  244.1    -1.17   31.5  225.1      70.0  0.9093   0.3144   0.004 -0.006      0  274831.8438 282.02 0.20000 
 178.400   0.48   3.61  245.2    -1.50   31.5  225.1      25.0  0.9030   0.3330   0.004 -0.007      0  274831.8125 286.74 0.20000 
 178.600   0.51   2.00  246.7    -1.09   31.6  225.1    -999.3  0.8950   0.3569   0.004 -0.008      0  274828.9375 289.87 0.10000 
 178.800   0.46   2.73  247.8    -1.16   31.6  225.1      50.0  0.8868   0.3734   0.003 -0.007      0  274826.0938 290.20 0.20000 
 179.000   0.46   6.32  249.0    -1.58   31.6  225.1      25.0  0.8796   0.3915   0.004 -0.007      0  274826.0625 287.77 0.20000 
 179.200   0.36  348.13 250.6    -1.25   31.5  225.0      40.0  0.8675   0.4151   0.001 -0.006      0  274823.1875 307.44 0.10000 
 179.400   0.70   1.44  251.8    -1.23   31.6  225.2      10.0  0.8590   0.4343   0.004 -0.012      0  274826.0313 295.61 0.20000 
 179.600   0.40   8.95  253.1    -1.70   31.5  225.1      35.0  0.8476   0.4517   0.003 -0.006      0  274831.8438 289.16 0.20000 
 179.800   0.45   9.58  254.8    -1.46   31.5  225.1      30.0  0.8325   0.4760   0.003 -0.007      0  274828.9375 290.26 0.10000 
 180.000   0.49  14.97  256.2    -1.47   31.3  225.1      20.0  0.8161   0.4946   0.004 -0.007      0  274831.8438 286.37 0.20000 
 180.200   0.61   9.77  257.7    -1.86   31.4  225.2      40.0  0.8042   0.5160   0.004 -0.010      0  274823.1875 293.10 0.20000 
 180.400   0.52  12.06  259.5    -1.46   31.4  225.1      70.0  0.7896   0.5436   0.003 -0.008      0  274828.9375 292.61 0.10000 
 180.600   0.58  14.12  261.0    -1.26   31.4  225.2      10.0  0.7750   0.5630   0.004 -0.009      0  274826.0938 292.05 0.20000 
