~Version Information
 VERS.                2.0:  CWLS LOG ASCII STANDARD -VERSION 2.0
 WRAP.                 NO:  ONE LINE PER DEPTH STEP
~WELL INFORMATION BLOCK
#MNEM.UNIT       DATA		            DESCRIPTION OF MNEMONIC
#---------    -------------            ------------------------
 STRT.FT  -4.400                         :START DEPTH
 STOP.FT  1314.600                       :STOP DEPTH
 STEP.FT  0.200                          :STEP    UP_HOLE  
 NULL.    -999.25                        :NULL VALUE
 COMP.    USGS                           :COMPANY
 WELL.    USGS 145                                                     :WELL
 FLD .    INL                            :FIELD\LOCATION
 LOC .                                   :LOCATION
 CNTY.    BUTTE                          :COUNTY
 STAT.    IDAHO                          :STATE
 CTRY.    USA                            :COUNTRY
 SRVC.    USGS                           :SERVICE COMPANY
 DATE.    07/16/2018                     :LOG DATE
 API .   CAL. 2017                           :API NUMBER
 LIC .    USGS                           :LICENSE NUMBER
~Curve Information Block
#MNEM.UNIT      API CODE     Curve Description
#---------    -------------  ------------------------
 DEPT     .FT        00 001 00 00          :  1  DEPTH   
 SANG     .DEG       00 620 00 00          :  2  SAMPLE SLANT ANGLE  
 SANGB    .DEG       00 631 00 00          :  3  SAMPLE ANG BEARING  
 TOOLFACE .DEG       00 000 00 00          :  4  TOOLFACE            
 DELT TF  .DEG       00 000 00 00          :  5  DELT TF             
 GYRO     .VOLTS     00 000 00 00          :  6  GYRO                
 PAD1-AZ  .DEG       00 632 00 00          :  7  SAMPLE PAD 1 AZIM   
 GAMMA    .CPS       00 310 00 00          :  8  GAMMA RAY           
 COS-GYRO .AMPL      00 000 00 00          :  9  COS-GYRO            
 SIN-GYRO .AMPL      00 000 00 00          : 10  SIN-GYRO            
 XINCL    .AMPL      00 000 00 00          : 11  XINCL               
 YINCL    .AMPL      00 000 00 00          : 12  YINCL               
 CAGE     .VOLTS     00 000 00 00          : 13  CAGE                
 MAG-VECT .AMPL      00 000 00 00          : 14  MAG-VECT            
 MSANGB   .DEG       00 000 00 00          : 15  MSANGB              
 TIME     .MINUTES   00 000 00 00          : 16  TIME                
~Parameter Information Block
#MNEM.UNIT   Information     Description
#---------- ---------------  ------------------------
 FILE.      PROCESSED          :File Type
 FIID.      9095C              :File Type Identifier
 VERS.      3.60E              :System Version
 SER .      1                  :System Serial Number
 TRUK.      0.25               :Truck Calibration Number
 TOOL.        1203             :Tool Serial Number
 TIME.      1600               :Time    HrHrMinMin
 LAT .                         :Latitude
 LON .                         :Longitude
 LMF .      LSD                :Log Measured From
 DMF .      LSD                :Driller Measured From
 PD  .                         :Permanent Data
 PDEV.                         :Elevation Permanent Data
 EKB .M                        :Elevation Kelly Bushing
 ELEV.DF                       :Elevation DF
 EGL .M                        :Elevation Ground Level
 DRDP.      1368               :Driller's Depth
 CASD.      10.                :Casing Diameter
 CASB.      1328               :Casing Bottom
 CASX.      SURFACE            :Casing Type
 CAST.      .25                :Casing Thickness
 TNOC.                         :Time Circulation Stopped
 LOGU.      USGS               :Logging Unit
 RECB.      MJG                :Recorded By
 OSR1.      0024               :Other Services
 OSR2.       9057              :Other Services
 OSR3.                         :Other Services
 BS  .IN         3.9           :Bit Size
 MST .      SH                 :Mean Surface Temperature
 TGRD.                         :Temperature Gradiant
 MAGN.      0                  :Magnetic Declination
 MDEN.      2.65               :Density Matrix
 MATR.      SANDSTONE          :Neutron Matrix
 DTMT.      54                 :Delta T Matrix
 DTFL.                         :Delta T Fluid
 MUDS.      FLOW LINE          :Mud Sample Source
 MRS .      .179               :Mud Resistivity
 MTP .      68.5               :Mud Temperature
 MFRS.                         :Resistivity Mud Filtrate
 MFTP.                         :Temperature Mud Filtrate
 MCRS.                         :Resistivity Mud Cake
 MCTP.                         :Temperature Mud Cake
 FTYP.      AIR                :Fluid Type
 FD  .LB/G    NA               :Mud Weight
 DFV .S                        :Fluid Viscosity
 FPH .                         :Fuild PH
 ELCO.      99999              :Electron Cutoff
 CASL.      3.5                :Casing Logger
 LOTD.      1328               :Logger TD
 ARTM.      12:20              :Arrival Time
 DPTM.                         :Departure Time
 RIGN.                         :Rig Number
~Other Information
#MNEM.UNIT  Information      Description
#---------- ---------------  ------------------------
# -------------------------- 
~A DEPTH  SANG   SANGB  TOOLFACE DELT TF GYRO  PAD1-AZ GAMMA    COS-GYRO SIN-GYRO XINCL YINCL CAGE    MAG-VECT MSANGB TIME    
# ...
 515.200   1.57  152.87 326.0    1.87    31.3  225.5      30.0  -0.1807  0.9328   0.027 0.003      0  274820.2813 218.59 0.20000 
 515.400   1.65  152.23 324.1    2.06    31.3  225.5    -999.3  -0.1509  0.9425   0.028 0.004      0  274826.0313 217.38 0.20000 
 515.600   1.54  154.31 322.0    2.50    31.4  225.4      15.0  -0.1169  0.9476   0.026 0.006      0  274826.0313 213.11 0.20000 
 515.800   1.54  155.42 319.5    2.56    31.4  225.3      30.0  -0.0756  0.9542   0.026 0.007      0  274823.1563 209.45 0.10000 
 516.000   1.55  156.89 317.0    1.49    31.4  225.3      20.0  -0.0330  0.9577   0.025 0.009      0  274823.1875 205.34 0.20000 
 516.200   1.51  159.92 315.5    0.76    31.5  225.2      35.0  -0.0081  0.9629   0.024 0.011      0  274826.0313 200.74 0.20000 
 516.400   1.58  156.08 314.7    1.28    31.5  225.3      30.0  0.0046   0.9613   0.026 0.010      0  274826.0313 203.90 0.20000 
 516.600   1.53  153.48 313.4    1.34    31.6  225.3      10.0  0.0261   0.9621   0.025 0.009      0  274820.2813 205.22 0.10000 
 516.800   1.58  153.70 312.1    1.06    31.5  225.3      40.0  0.0484   0.9591   0.026 0.010      0  274826.0313 203.65 0.20000 
 517.000   1.52  154.01 311.1    1.03    31.5  225.2      60.0  0.0662   0.9591   0.024 0.010      0  274831.8438 202.24 0.20000 
 517.200   1.56  156.95 310.0    1.51    31.4  225.1      30.0  0.0834   0.9569   0.024 0.012      0  274828.9375 198.21 0.20000 
 517.400   1.55  156.04 308.5    1.98    31.4  225.1      30.0  0.1081   0.9503   0.024 0.012      0  274823.1875 197.60 0.10000 
 517.600   1.55  154.19 306.5    1.72    31.4  225.1      20.0  0.1407   0.9452   0.024 0.013      0  274831.8125 197.47 0.20000 
 517.800   1.68  152.62 304.8    2.15    31.4  225.2      45.0  0.1695   0.9436   0.026 0.014      0  274826.0313 197.34 0.20000 
 518.000   1.53  155.65 302.7    2.55    31.5  225.0      30.0  0.2049   0.9371   0.022 0.015      0  274831.8125 192.04 0.20000 
 518.200   1.51  155.36 300.1    1.71    31.5  225.0      10.0  0.2469   0.9290   0.022 0.015      0  274828.9375 189.73 0.10000 
 518.400   1.62  154.80 298.4    1.59    31.5  225.0      20.0  0.2748   0.9217   0.023 0.017      0  274826.0938 188.57 0.20000 
 518.600   1.52  157.59 296.8    1.90    31.5  224.9      25.0  0.3005   0.9144   0.020 0.017      0  274823.1563 184.09 0.20000 
 518.800   1.56  154.98 294.9    1.97    31.5  224.9      10.0  0.3304   0.9035   0.021 0.018      0  274826.0313 184.81 0.10000 
 519.000   1.53  156.62 292.9    1.31    31.5  224.8      10.0  0.3603   0.8890   0.019 0.018      0  274826.0313 181.13 0.20000 
 519.200   1.56  156.47 291.6    1.27    31.4  224.8      25.0  0.3800   0.8792   0.019 0.019      0  274826.0313 179.95 0.20000 
 519.400   1.52  154.88 290.4    1.51    31.4  224.8      20.0  0.3992   0.8703   0.019 0.019      0  274823.1563 180.27 0.20000 
 519.600   1.50  155.09 288.8    1.24    31.4  224.8      10.0  0.4212   0.8580   0.018 0.019      0  274828.9063 178.52 0.10000 
 519.800   1.59  156.33 287.6    0.68    31.3  224.7      40.0  0.4389   0.8470   0.018 0.021      0  274826.0313 175.99 0.20000 
 520.000   1.51  161.47 286.9    0.31    31.3  224.6      25.0  0.4484   0.8410   0.015 0.021      0  274820.2813 170.07 0.20000 
 520.200   1.55  156.59 286.6    0.49    31.3  224.7      35.0  0.4535   0.8394   0.017 0.021      0  274823.1563 174.72 0.20000 
 520.400   1.50  156.16 286.1    0.51    31.4  224.7      20.0  0.4614   0.8370   0.017 0.020      0  274828.9063 174.67 0.10000 
 520.600   1.55  155.06 285.6    0.53    31.5  224.7      25.0  0.4702   0.8352   0.018 0.021      0  274828.9063 175.26 0.20000 
 520.800   1.51  154.65 285.1    0.66    31.5  224.7      30.0  0.4783   0.8314   0.017 0.020      0  274826.0313 175.14 0.20000 
 521.000   1.53  154.78 284.4    0.73    31.5  224.7      55.0  0.4872   0.8247   0.017 0.021      0  274826.0313 174.33 0.20000 
 521.200   1.54  155.94 283.7    0.59    31.3  224.7      10.0  0.4963   0.8162   0.016 0.021      0  274820.2813 172.40 0.10000 
 521.400   1.57  158.31 283.1    0.04    31.3  224.6      30.0  0.5044   0.8105   0.016 0.023      0  274826.0313 169.38 0.20000 
 521.600   1.44  158.75 283.1    0.04    31.3  224.6      15.0  0.5044   0.8092   0.014 0.021      0  274826.0313 168.90 0.20000 
 521.800   1.60  155.29 283.0    0.07    31.3  224.6      25.0  0.5052   0.8092   0.017 0.022      0  274828.9063 172.37 0.20000 
 522.000   1.59  159.93 283.0    -0.08   31.3  224.6      20.0  0.5067   0.8093   0.015 0.023      0  274831.8125 167.57 0.10000 
 522.200   1.25  147.34 283.0    0.25    31.4  224.8      20.0  0.5065   0.8116   0.016 0.015      0  274831.8438 180.49 0.20000 
 522.400   1.54  156.61 282.8    0.35    31.4  224.6      45.0  0.5100   0.8094   0.016 0.022      0  274831.8125 170.79 0.20000 
 522.600   1.56  155.93 282.4    0.39    31.5  224.6    -999.3  0.5158   0.8077   0.016 0.022      0  274828.9063 171.13 0.10000 
 522.800   1.53  155.61 282.0    0.50    31.5  224.6      65.0  0.5218   0.8051   0.016 0.021      0  274826.0313 171.06 0.20000 
 523.000   1.47  156.81 281.5    0.31    31.6  224.6      35.0  0.5303   0.8026   0.015 0.021      0  274820.2813 169.33 0.20000 
 523.200   1.57  157.01 281.2    0.56    31.5  224.6      50.0  0.5341   0.7992   0.015 0.023      0  274826.0625 168.80 0.20000 
 523.400   1.55  156.90 280.7    0.25    31.5  224.6      20.0  0.5414   0.7932   0.015 0.022      0  274828.9375 168.35 0.10000 
 523.600   1.56  158.49 280.4    -0.01   31.6  224.5      55.0  0.5466   0.7934   0.014 0.023      0  274828.9063 166.48 0.20000 
 523.800   1.55  157.32 280.4    0.26    31.6  224.6      50.0  0.5459   0.7925   0.015 0.023      0  274826.0313 167.68 0.20000 
 524.000   1.53  158.48 280.2    -0.01   31.5  224.5      25.0  0.5487   0.7891   0.014 0.023      0  274823.1563 166.23 0.20000 
 524.200   1.53  156.41 280.2    0.27    31.5  224.6      40.0  0.5469   0.7868   0.015 0.022      0  274823.1875 168.35 0.10000 
 524.400   1.53  157.06 279.9    0.01    31.4  224.6      70.0  0.5484   0.7812   0.014 0.022      0  274828.9375 167.42 0.20000 
 524.600   1.59  156.70 279.9    0.06    31.5  224.6      25.0  0.5511   0.7849   0.015 0.023      0  274831.8125 167.77 0.20000 
 524.800   1.52  155.62 279.9    0.08    31.5  224.6      10.0  0.5513   0.7834   0.015 0.022      0  274826.0313 168.82 0.20000 
 525.000   1.54  156.04 279.8    -0.13   31.5  224.6    -999.3  0.5539   0.7846   0.015 0.022      0  274826.0313 168.31 0.10000 
 525.200   1.56  156.05 279.9    0.41    31.6  224.6      25.0  0.5527   0.7869   0.015 0.023      0  274823.1563 168.43 0.20000 
 525.400   1.52  156.55 279.5    0.26    31.6  224.6      20.0  0.5575   0.7816   0.014 0.022      0  274826.0313 167.50 0.20000 
 525.600   1.53  157.74 279.2    0.43    31.6  224.5      35.0  0.5628   0.7816   0.014 0.023      0  274828.9063 166.02 0.20000 
 525.800   1.52  155.11 278.8    0.31    31.6  224.6      90.0  0.5682   0.7766   0.015 0.022      0  274823.1563 168.27 0.10000 
 526.000   1.51  157.49 278.5    -0.17   31.6  224.5      35.0  0.5717   0.7726   0.014 0.023      0  274820.2813 165.53 0.20000 
 526.200   1.47  155.23 278.7    0.03    31.6  224.6      45.0  0.5707   0.7759   0.014 0.021      0  274820.2813 168.01 0.20000 
 526.400   1.51  156.54 278.6    -0.36   31.6  224.5      65.0  0.5704   0.7747   0.014 0.022      0  274828.9063 166.64 0.20000 
 526.600   1.52  155.21 279.0    -0.31   31.5  224.6      40.0  0.5632   0.7751   0.015 0.022      0  274828.9063 168.35 0.10000 
 526.800   1.51  155.27 279.3    -0.04   31.4  224.6      15.0  0.5569   0.7752   0.015 0.022      0  274826.0625 168.61 0.20000 
 527.000   1.58  156.61 279.3    -0.04   31.2  224.5      35.0  0.5531   0.7710   0.015 0.023      0  274820.2813 167.27 0.20000 
 527.200   1.47  152.74 279.4    0.51    31.3  224.6      35.0  0.5538   0.7730   0.015 0.021      0  274826.0625 171.27 0.20000 
 527.400   1.56  155.99 278.9    0.18    31.3  224.6      20.0  0.5609   0.7684   0.015 0.023      0  274831.8125 167.43 0.10000 
