~Version Information
 VERS.                2.0:  CWLS LOG ASCII STANDARD -VERSION 2.0
 WRAP.                 NO:  ONE LINE PER DEPTH STEP
~WELL INFORMATION BLOCK
#MNEM.UNIT       DATA		            DESCRIPTION OF MNEMONIC
#---------    -------------            ------------------------
 STRT.FT  -4.400                         :START DEPTH
 STOP.FT  1314.600                       :STOP DEPTH
 STEP.FT  0.200                          :STEP    UP_HOLE  
 NULL.    -999.25                        :NULL VALUE
 COMP.    USGS                           :COMPANY
 WELL.    USGS 145                                                     :WELL
 FLD .    INL                            :FIELD\LOCATION
 LOC .                                   :LOCATION
 CNTY.    BUTTE                          :COUNTY
 STAT.    IDAHO                          :STATE
 CTRY.    USA                            :COUNTRY
 SRVC.    USGS                           :SERVICE COMPANY
 DATE.    07/16/2018                     :LOG DATE
 API .   CAL. 2017                           :API NUMBER
 LIC .    USGS                           :LICENSE NUMBER
~Curve Information Block
#MNEM.UNIT      API CODE     Curve Description
#---------    -------------  ------------------------
 DEPT     .FT        00 001 00 00          :  1  DEPTH   
 SANG     .DEG       00 620 00 00          :  2  SAMPLE SLANT ANGLE  
 SANGB    .DEG       00 631 00 00          :  3  SAMPLE ANG BEARING  
 TOOLFACE .DEG       00 000 00 00          :  4  TOOLFACE            
 DELT TF  .DEG       00 000 00 00          :  5  DELT TF             
 GYRO     .VOLTS     00 000 00 00          :  6  GYRO                
 PAD1-AZ  .DEG       00 632 00 00          :  7  SAMPLE PAD 1 AZIM   
 GAMMA    .CPS       00 310 00 00          :  8  GAMMA RAY           
 COS-GYRO .AMPL      00 000 00 00          :  9  COS-GYRO            
 SIN-GYRO .AMPL      00 000 00 00          : 10  SIN-GYRO            
 XINCL    .AMPL      00 000 00 00          : 11  XINCL               
 YINCL    .AMPL      00 000 00 00          : 12  YINCL               
 CAGE     .VOLTS     00 000 00 00          : 13  CAGE                
 MAG-VECT .AMPL      00 000 00 00          : 14  MAG-VECT            
 MSANGB   .DEG       00 000 00 00          : 15  MSANGB              
 TIME     .MINUTES   00 000 00 00          : 16  TIME                
~Parameter Information Block
#MNEM.UNIT   Information     Description
#---------- ---------------  ------------------------
 FILE.      PROCESSED          :File Type
 FIID.      9095C              :File Type Identifier
 VERS.      3.60E              :System Version
 SER .      1                  :System Serial Number
 TRUK.      0.25               :Truck Calibration Number
 TOOL.        1203             :Tool Serial Number
 TIME.      1600               :Time    HrHrMinMin
 LAT .                         :Latitude
 LON .                         :Longitude
 LMF .      LSD                :Log Measured From
 DMF .      LSD                :Driller Measured From
 PD  .                         :Permanent Data
 PDEV.                         :Elevation Permanent Data
 EKB .M                        :Elevation Kelly Bushing
 ELEV.DF                       :Elevation DF
 EGL .M                        :Elevation Ground Level
 DRDP.      1368               :Driller's Depth
 CASD.      10.                :Casing Diameter
 CASB.      1328               :Casing Bottom
 CASX.      SURFACE            :Casing Type
 CAST.      .25                :Casing Thickness
 TNOC.                         :Time Circulation Stopped
 LOGU.      USGS               :Logging Unit
 RECB.      MJG                :Recorded By
 OSR1.      0024               :Other Services
 OSR2.       9057              :Other Services
 OSR3.                         :Other Services
 BS  .IN         3.9           :Bit Size
 MST .      SH                 :Mean Surface Temperature
 TGRD.                         :Temperature Gradiant
 MAGN.      0                  :Magnetic Declination
 MDEN.      2.65               :Density Matrix
 MATR.      SANDSTONE          :Neutron Matrix
 DTMT.      54                 :Delta T Matrix
 DTFL.                         :Delta T Fluid
 MUDS.      FLOW LINE          :Mud Sample Source
 MRS .      .179               :Mud Resistivity
 MTP .      68.5               :Mud Temperature
 MFRS.                         :Resistivity Mud Filtrate
 MFTP.                         :Temperature Mud Filtrate
 MCRS.                         :Resistivity Mud Cake
 MCTP.                         :Temperature Mud Cake
 FTYP.      AIR                :Fluid Type
 FD  .LB/G    NA               :Mud Weight
 DFV .S                        :Fluid Viscosity
 FPH .                         :Fuild PH
 ELCO.      99999              :Electron Cutoff
 CASL.      3.5                :Casing Logger
 LOTD.      1328               :Logger TD
 ARTM.      12:20              :Arrival Time
 DPTM.                         :Departure Time
 RIGN.                         :Rig Number
~Other Information
#MNEM.UNIT  Information      Description
#---------- ---------------  ------------------------
# -------------------------- 
~A DEPTH  SANG   SANGB  TOOLFACE DELT TF GYRO  PAD1-AZ GAMMA    COS-GYRO SIN-GYRO XINCL YINCL CAGE    MAG-VECT MSANGB TIME    
# ...
 428.400   1.51  164.05  6.6     -0.03   31.4  225.8      20.0  -0.7513  0.5947   0.024 -0.010      0  274828.9063 248.38 0.20000 
 428.600   1.64  157.28  6.7     0.91    31.4  225.9      20.0  -0.7502  0.5933   0.025 -0.014      0  274828.9063 255.29 0.10000 
 428.800   1.48  161.11  5.8     0.58    31.4  225.8      30.0  -0.7419  0.6061   0.023 -0.011      0  274831.8125 250.43 0.20000 
 429.000   1.47  164.63  5.2     0.10    31.4  225.7      60.0  -0.7360  0.6140   0.024 -0.009      0  274831.8438 246.28 0.20000 
 429.200   1.47  161.76  5.1     -0.16   31.5  225.8      45.0  -0.7373  0.6172   0.024 -0.010      0  274826.0313 249.07 0.20000 
 429.400   1.60  160.32  5.2     -0.27   31.5  225.9      30.0  -0.7395  0.6155   0.025 -0.012      0  274826.0313 250.77 0.10000 
 429.600   1.45  160.41  5.5     -0.21   31.5  225.8      25.0  -0.7426  0.6121   0.023 -0.011      0  274823.1563 250.85 0.20000 
 429.800   1.48  159.61  5.7     -0.20   31.5  225.8      30.0  -0.7454  0.6099   0.023 -0.011      0  274826.0938 251.89 0.20000 
 430.000   1.37  160.00  5.9     -0.48   31.5  225.7      35.0  -0.7458  0.6059   0.021 -0.010      0  274820.2813 251.62 0.20000 
 430.200   1.42  161.53  6.4     0.02    31.4  225.7      20.0  -0.7486  0.5978   0.022 -0.010      0  274820.2813 250.60 0.10000 
 430.400   1.41  159.06  6.4     0.11    31.4  225.7      30.0  -0.7474  0.5972   0.022 -0.011      0  274828.9375 253.06 0.20000 
 430.600   1.44  157.91  6.3     0.53    31.4  225.8      35.0  -0.7461  0.5985   0.022 -0.012      0  274826.0313 254.13 0.20000 
 430.800   1.41  160.59  5.7     0.52    31.4  225.7      25.0  -0.7415  0.6062   0.022 -0.010      0  274820.2813 250.88 0.20000 
 431.000   1.45  160.81  5.2     0.38    31.5  225.8      10.0  -0.7384  0.6149   0.023 -0.010      0  274811.6563 250.16 0.10000 
 431.200   1.48  161.65  4.8     -0.05   31.5  225.8      35.0  -0.7354  0.6208   0.024 -0.010      0  274826.0313 248.95 0.20000 
 431.400   1.46  163.14  4.9     -0.45   31.5  225.7      20.0  -0.7361  0.6202   0.024 -0.009      0  274826.0625 247.49 0.20000 
 431.600   1.48  161.58  5.3     -0.36   31.6  225.8      50.0  -0.7436  0.6167   0.024 -0.010      0  274823.1563 249.53 0.10000 
 431.800   1.50  162.33  5.7     -0.49   31.6  225.8      45.0  -0.7478  0.6122   0.024 -0.010      0  274823.1563 249.14 0.20000 
 432.000   1.48  161.34  6.2     -0.27   31.6  225.8      30.0  -0.7527  0.6054   0.023 -0.011      0  274826.0313 250.63 0.20000 
 432.200   1.47  161.34  6.5     0.01    31.6  225.8      45.0  -0.7548  0.6013   0.023 -0.011      0  274828.9375 250.90 0.20000 
 432.400   1.51  160.61  6.4     0.05    31.6  225.8      70.0  -0.7545  0.6014   0.024 -0.011      0  274828.9063 251.64 0.10000 
 432.600   1.52  162.86  6.4     0.18    31.6  225.8      25.0  -0.7542  0.6021   0.024 -0.011      0  274823.1563 249.33 0.20000 
 432.800   1.48  164.41  6.2     -0.17   31.5  225.8      15.0  -0.7502  0.6029   0.024 -0.010      0  274820.2813 247.56 0.20000 
 433.000   1.48  161.95  6.4     -0.19   31.5  225.8       5.0  -0.7509  0.5996   0.024 -0.011      0  274831.8125 250.22 0.20000 
 433.200   1.47  165.15  6.6     -0.62   31.4  225.7      40.0  -0.7514  0.5960   0.024 -0.009      0  274826.0313 247.18 0.10000 
 433.400   1.45  164.84  7.2     -0.71   31.4  225.7      35.0  -0.7572  0.5874   0.023 -0.010      0  274820.2813 248.10 0.20000 
 433.600   1.59  158.82  7.9     0.07    31.4  225.9      40.0  -0.7644  0.5779   0.024 -0.013      0  274826.0313 254.96 0.20000 
 433.800   1.54  161.86  7.8     -0.15   31.4  225.8      30.0  -0.7638  0.5789   0.024 -0.012      0  274826.0313 251.80 0.20000 
 434.000   1.53  161.81  8.0     -0.38   31.4  225.8      80.0  -0.7658  0.5773   0.024 -0.012      0  274826.0625 251.99 0.10000 
 434.200   1.55  160.67  8.4     -0.46   31.4  225.8      65.0  -0.7695  0.5721   0.024 -0.013      0  274831.8125 253.54 0.20000 
 434.400   1.56  161.53  8.8     0.17    31.4  225.8      50.0  -0.7750  0.5666   0.024 -0.013      0  274826.0313 253.15 0.20000 
 434.600   1.58  157.95  8.7     1.24    31.4  225.9      40.0  -0.7729  0.5685   0.024 -0.014      0  274820.2813 256.59 0.20000 
 434.800   1.55  161.97  7.4     0.80    31.4  225.8      20.0  -0.7598  0.5847   0.024 -0.012      0  274826.0625 251.28 0.10000 
 435.000   1.54  164.76  6.6     0.38    31.4  225.8      25.0  -0.7509  0.5948   0.025 -0.010      0  274820.2813 247.65 0.20000 
 435.200   1.58  162.77  6.2     -0.01   31.4  225.8      60.0  -0.7462  0.5991   0.025 -0.011      0  274823.1563 249.30 0.20000 
 435.400   1.51  161.83  6.2     -0.63   31.4  225.8      70.0  -0.7477  0.6002   0.024 -0.011      0  274826.0313 250.21 0.10000 
 435.600   1.59  160.04  6.9     -0.34   31.4  225.9      55.0  -0.7534  0.5913   0.025 -0.013      0  274826.0625 252.70 0.20000 
 435.800   1.54  158.84  7.2     -0.40   31.3  225.8      55.0  -0.7560  0.5862   0.024 -0.013      0  274820.2813 254.21 0.20000 
 436.000   1.58  160.00  7.6     -0.38   31.4  225.9      40.0  -0.7611  0.5816   0.024 -0.013      0  274823.1563 253.47 0.20000 
 436.200   1.55  159.38  8.0     -0.50   31.4  225.8      20.0  -0.7664  0.5777   0.024 -0.013      0  274826.0625 254.47 0.10000 
 436.400   1.58  161.99  8.5     -0.37   31.5  225.8      30.0  -0.7746  0.5732   0.025 -0.012      0  274823.1563 252.37 0.20000 
 436.600   1.50  164.00  8.9     -0.70   31.5  225.8      10.0  -0.7764  0.5669   0.024 -0.011      0  274826.0313 250.66 0.20000 
 436.800   1.57  163.45  9.6     -1.11   31.5  225.8      30.0  -0.7852  0.5586   0.025 -0.012      0  274823.1563 251.97 0.20000 
 437.000   1.56  161.60 10.7     -1.38   31.5  225.8      60.0  -0.7961  0.5436   0.024 -0.013      0  274820.2813 254.93 0.10000 
 437.200   1.64  161.74 12.1     -1.31   31.5  225.9      35.0  -0.8083  0.5238   0.025 -0.014      0  274823.1563 256.23 0.20000 
 437.400   1.46  159.11 13.4     -1.06   31.5  225.8      15.0  -0.8207  0.5056   0.021 -0.014      0  274820.2813 260.06 0.20000 
 437.600   1.73  157.26 14.4     1.04    31.5  226.0      35.0  -0.8296  0.4901   0.024 -0.018      0  274828.9063 263.17 0.20000 
 437.800   1.64  159.43 13.4     1.96    31.5  225.9      30.0  -0.8207  0.5052   0.024 -0.016      0  274820.2813 259.88 0.10000 
 438.000   1.66  161.45 11.4     0.89    31.5  225.9      35.0  -0.8023  0.5327   0.025 -0.014      0  274823.1563 255.89 0.20000 
 438.200   1.60  158.24 10.5     0.04    31.4  225.9      35.0  -0.7912  0.5433   0.024 -0.015      0  274820.2813 258.18 0.20000 
 438.400   1.66  159.83 10.5     -0.38   31.5  225.9      25.0  -0.7918  0.5445   0.025 -0.015      0  274828.9063 256.58 0.20000 
 438.600   1.64  162.85 10.9     -0.63   31.5  225.9      40.0  -0.7967  0.5401   0.025 -0.013      0  274828.9063 253.91 0.10000 
 438.800   1.80  158.50 11.5     -0.22   31.6  226.0      55.0  -0.8048  0.5328   0.026 -0.017      0  274831.8438 259.04 0.20000 
 439.000   1.70  157.26 11.7     0.56    31.6  226.0      35.0  -0.8058  0.5289   0.025 -0.017      0  274826.0625 260.44 0.20000 
 439.200   1.71  156.40 11.2     1.23    31.6  226.0      60.0  -0.8018  0.5376   0.024 -0.017      0  274823.1563 260.74 0.10000 
 439.400   1.74  156.87  9.9     0.92    31.6  226.0      45.0  -0.7904  0.5550   0.025 -0.017      0  274826.0313 259.05 0.20000 
 439.600   1.40  156.36  9.0     0.70    31.6  225.8      40.0  -0.7819  0.5678   0.021 -0.013      0  274826.0938 258.41 0.20000 
 439.800   1.61  161.81  8.3     0.32    31.7  225.9      50.0  -0.7754  0.5776   0.025 -0.013      0  274826.0313 252.39 0.20000 
 440.000   1.62  158.40  8.0     0.26    31.5  225.9      40.0  -0.7695  0.5798   0.025 -0.014      0  274826.0313 255.51 0.10000 
 440.200   1.65  158.69  7.7     0.36    31.6  225.9      30.0  -0.7667  0.5831   0.025 -0.014      0  274820.2813 254.97 0.20000 
 440.400   1.56  158.78  7.4     0.55    31.5  225.8      55.0  -0.7625  0.5875   0.024 -0.013      0  274831.8438 254.46 0.20000 
 440.600   1.75  157.05  6.8     1.96    31.5  226.0      55.0  -0.7548  0.5933   0.026 -0.015      0  274826.0625 255.78 0.20000 
