~Version Information
 VERS.                2.0:  CWLS LOG ASCII STANDARD -VERSION 2.0
 WRAP.                 NO:  ONE LINE PER DEPTH STEP
~WELL INFORMATION BLOCK
#MNEM.UNIT       DATA		            DESCRIPTION OF MNEMONIC
#---------    -------------            ------------------------
 STRT.FT  -4.400                         :START DEPTH
 STOP.FT  1314.600                       :STOP DEPTH
 STEP.FT  0.200                          :STEP    UP_HOLE  
 NULL.    -999.25                        :NULL VALUE
 COMP.    USGS                           :COMPANY
 WELL.    USGS 145                                                     :WELL
 FLD .    INL                            :FIELD\LOCATION
 LOC .                                   :LOCATION
 CNTY.    BUTTE                          :COUNTY
 STAT.    IDAHO                          :STATE
 CTRY.    USA                            :COUNTRY
 SRVC.    USGS                           :SERVICE COMPANY
 DATE.    07/16/2018                     :LOG DATE
 API .   CAL. 2017                           :API NUMBER
 LIC .    USGS                           :LICENSE NUMBER
~Curve Information Block
#MNEM.UNIT      API CODE     Curve Description
#---------    -------------  ------------------------
 DEPT     .FT        00 001 00 00          :  1  DEPTH   
 SANG     .DEG       00 620 00 00          :  2  SAMPLE SLANT ANGLE  
 SANGB    .DEG       00 631 00 00          :  3  SAMPLE ANG BEARING  
 TOOLFACE .DEG       00 000 00 00          :  4  TOOLFACE            
 DELT TF  .DEG       00 000 00 00          :  5  DELT TF             
 GYRO     .VOLTS     00 000 00 00          :  6  GYRO                
 PAD1-AZ  .DEG       00 632 00 00          :  7  SAMPLE PAD 1 AZIM   
 GAMMA    .CPS       00 310 00 00          :  8  GAMMA RAY           
 COS-GYRO .AMPL      00 000 00 00          :  9  COS-GYRO            
 SIN-GYRO .AMPL      00 000 00 00          : 10  SIN-GYRO            
 XINCL    .AMPL      00 000 00 00          : 11  XINCL               
 YINCL    .AMPL      00 000 00 00          : 12  YINCL               
 CAGE     .VOLTS     00 000 00 00          : 13  CAGE                
 MAG-VECT .AMPL      00 000 00 00          : 14  MAG-VECT            
 MSANGB   .DEG       00 000 00 00          : 15  MSANGB              
 TIME     .MINUTES   00 000 00 00          : 16  TIME                
~Parameter Information Block
#MNEM.UNIT   Information     Description
#---------- ---------------  ------------------------
 FILE.      PROCESSED          :File Type
 FIID.      9095C              :File Type Identifier
 VERS.      3.60E              :System Version
 SER .      1                  :System Serial Number
 TRUK.      0.25               :Truck Calibration Number
 TOOL.        1203             :Tool Serial Number
 TIME.      1600               :Time    HrHrMinMin
 LAT .                         :Latitude
 LON .                         :Longitude
 LMF .      LSD                :Log Measured From
 DMF .      LSD                :Driller Measured From
 PD  .                         :Permanent Data
 PDEV.                         :Elevation Permanent Data
 EKB .M                        :Elevation Kelly Bushing
 ELEV.DF                       :Elevation DF
 EGL .M                        :Elevation Ground Level
 DRDP.      1368               :Driller's Depth
 CASD.      10.                :Casing Diameter
 CASB.      1328               :Casing Bottom
 CASX.      SURFACE            :Casing Type
 CAST.      .25                :Casing Thickness
 TNOC.                         :Time Circulation Stopped
 LOGU.      USGS               :Logging Unit
 RECB.      MJG                :Recorded By
 OSR1.      0024               :Other Services
 OSR2.       9057              :Other Services
 OSR3.                         :Other Services
 BS  .IN         3.9           :Bit Size
 MST .      SH                 :Mean Surface Temperature
 TGRD.                         :Temperature Gradiant
 MAGN.      0                  :Magnetic Declination
 MDEN.      2.65               :Density Matrix
 MATR.      SANDSTONE          :Neutron Matrix
 DTMT.      54                 :Delta T Matrix
 DTFL.                         :Delta T Fluid
 MUDS.      FLOW LINE          :Mud Sample Source
 MRS .      .179               :Mud Resistivity
 MTP .      68.5               :Mud Temperature
 MFRS.                         :Resistivity Mud Filtrate
 MFTP.                         :Temperature Mud Filtrate
 MCRS.                         :Resistivity Mud Cake
 MCTP.                         :Temperature Mud Cake
 FTYP.      AIR                :Fluid Type
 FD  .LB/G    NA               :Mud Weight
 DFV .S                        :Fluid Viscosity
 FPH .                         :Fuild PH
 ELCO.      99999              :Electron Cutoff
 CASL.      3.5                :Casing Logger
 LOTD.      1328               :Logger TD
 ARTM.      12:20              :Arrival Time
 DPTM.                         :Departure Time
 RIGN.                         :Rig Number
~Other Information
#MNEM.UNIT  Information      Description
#---------- ---------------  ------------------------
# -------------------------- 
~A DEPTH  SANG   SANGB  TOOLFACE DELT TF GYRO  PAD1-AZ GAMMA    COS-GYRO SIN-GYRO XINCL YINCL CAGE    MAG-VECT MSANGB TIME    
# ...
1296.400   1.51  159.01 50.9     3.50    31.9  225.7      30.0  -0.9714  -0.1004  0.008 -0.025      0  274820.2813 297.61 0.20000 
1296.600   1.65  159.69 47.4     2.67    31.8  225.8      30.0  -0.9728  -0.0407  0.011 -0.027      0  274820.2813 293.56 0.20000 
1296.800   1.42  159.28 44.7     1.80    31.7  225.7      25.0  -0.9688  0.0046   0.010 -0.022      0  274823.1875 291.16 0.20000 
1297.000   1.51  159.79 42.9     1.26    31.6  225.8      35.0  -0.9658  0.0349   0.012 -0.023      0  274820.2813 288.93 0.20000 
1297.200   1.58  159.88 41.7     1.17    31.6  225.8      15.0  -0.9642  0.0561   0.013 -0.024      0  274828.9375 287.64 0.20000 
1297.400   1.50  160.31 40.5     0.98    31.6  225.8      35.0  -0.9646  0.0759   0.013 -0.023      0  274826.0625 285.99 0.20000 
1297.600   1.57  160.23 39.5     0.78    31.7  225.8       5.0  -0.9676  0.0928   0.014 -0.024      0  274823.1563 285.14 0.20000 
1297.800   1.56  160.33 38.7     0.57    31.9  225.8      10.0  -0.9696  0.1064   0.014 -0.023      0  274820.2813 284.25 0.20000 
1298.000   1.52  160.91 38.2     0.61    31.7  225.8      20.0  -0.9649  0.1157   0.014 -0.022      0  274823.1875 283.07 0.20000 
1298.200   1.52  161.06 37.6     0.87    31.8  225.8      25.0  -0.9647  0.1261   0.015 -0.022      0  274820.2813 282.32 0.20000 
1298.400   1.52  160.77 36.7     0.97    31.7  225.8      20.0  -0.9611  0.1405   0.015 -0.022      0  274824.1250 281.74 0.20000 
1298.600   1.54  160.71 35.7     1.16    31.8  225.8      30.0  -0.9595  0.1569   0.015 -0.022      0  274820.2813 280.86 0.20000 
1298.800   1.46  161.88 34.6     0.55    31.8  225.8      43.3  -0.9572  0.1765   0.015 -0.020      0  274826.0625 278.47 0.30000 
1299.000   1.50  161.32 34.0     0.25    31.7  225.8      55.0  -0.9533  0.1852   0.016 -0.021      0  274823.1563 278.51 0.20000 
1299.200   1.55  161.24 33.8     0.54    31.8  225.9      15.0  -0.9530  0.1895   0.016 -0.021      0  274820.2813 278.38 0.20000 
1299.400   1.64  158.61 33.2     0.95    31.8  225.9       5.0  -0.9507  0.1983   0.017 -0.023      0  274820.2500 280.53 0.20000 
1299.600   1.53  161.05 32.3     1.26    31.8  225.8      20.0  -0.9498  0.2146   0.017 -0.021      0  274820.2813 277.08 0.20000 
1299.800   1.75  156.47 31.0     0.97    31.9  226.0      55.0  -0.9461  0.2358   0.018 -0.025      0  274826.0625 280.53 0.20000 
1300.000   1.55  160.55 30.0     1.46    31.9  225.9      35.0  -0.9426  0.2520   0.018 -0.021      0  274820.2813 275.36 0.20000 
1300.200   1.55  161.16 28.6     1.75    31.8  225.9      60.0  -0.9336  0.2753   0.018 -0.020      0  274822.1875 273.29 0.20000 
1300.400   1.54  161.53 26.8     1.28    31.8  225.9      25.0  -0.9238  0.3034   0.019 -0.019      0  274823.1875 271.17 0.20000 
1300.600   1.48  161.33 25.5     0.82    31.9  225.8      33.3  -0.9181  0.3244   0.019 -0.018      0  274823.1563 270.05 0.30000 
1300.800   1.58  161.90 24.7     0.69    31.8  225.9      10.0  -0.9126  0.3371   0.020 -0.019      0  274820.2813 268.72 0.20000 
1301.000   1.55  161.04 24.0     0.85    31.8  225.9      55.0  -0.9071  0.3475   0.020 -0.018      0  274820.2813 268.88 0.20000 
1301.200   1.56  161.33 23.2     0.98    31.8  225.9      30.0  -0.9012  0.3607   0.020 -0.018      0  274826.0625 267.75 0.20000 
1301.400   1.56  161.51 22.2     1.16    31.8  225.9      35.0  -0.8959  0.3765   0.021 -0.018      0  274822.1875 266.59 0.20000 
1301.600   1.56  161.36 21.0     0.90    31.8  225.9      35.0  -0.8873  0.3943   0.021 -0.017      0  274823.1563 265.56 0.20000 
1301.800   1.55  160.71 20.1     0.50    31.8  225.9      26.7  -0.8819  0.4087   0.021 -0.017      0  274828.9375 265.31 0.30000 
1302.000   1.52  161.27 19.6     0.17    31.8  225.8      40.0  -0.8783  0.4164   0.021 -0.016      0  274826.0625 264.22 0.20000 
1302.200   1.57  161.22 19.5     0.38    31.9  225.9      15.0  -0.8782  0.4195   0.022 -0.017      0  274822.2188 264.14 0.20000 
1302.400   1.51  160.56 19.1     0.47    31.8  225.8      30.0  -0.8741  0.4247   0.021 -0.016      0  274820.2813 264.38 0.20000 
1302.600   1.54  161.32 18.6     0.57    31.8  225.9      30.0  -0.8705  0.4317   0.021 -0.016      0  274823.1563 263.18 0.30000 
1302.800   1.47  159.47 18.0     0.61    31.8  225.8      35.0  -0.8656  0.4402   0.020 -0.016      0  274820.2813 264.40 0.20000 
1303.000   1.57  160.11 17.4     0.61    31.8  225.9      40.0  -0.8599  0.4489   0.022 -0.017      0  274823.1875 263.21 0.20000 
1303.200   1.51  161.08 16.8     0.82    31.8  225.8      13.3  -0.8551  0.4580   0.021 -0.015      0  274826.0625 261.59 0.30000 
1303.400   1.56  161.17 16.0     0.78    31.8  225.9      20.0  -0.8474  0.4697   0.022 -0.016      0  274824.1563 260.71 0.20000 
1303.600   1.54  160.95 15.2     0.34    31.7  225.8      50.0  -0.8386  0.4799   0.022 -0.015      0  274826.0625 260.12 0.20000 
1303.800   1.51  161.65 14.9     -0.81   31.7  225.8      13.3  -0.8365  0.4853   0.022 -0.014      0  274823.1563 259.07 0.30000 
1304.000   1.54  160.40 15.7     0.08    31.8  225.9      50.0  -0.8453  0.4746   0.022 -0.016      0  274820.2813 261.16 0.20000 
1304.200   1.54  160.44 15.6     0.77    31.8  225.9      15.0  -0.8452  0.4762   0.022 -0.016      0  274820.2813 261.03 0.20000 
1304.400   1.53  161.81 14.8     0.08    31.8  225.8      56.7  -0.8390  0.4876   0.022 -0.015      0  274820.2813 258.87 0.29900 
1304.600   1.53  161.85 14.8     -0.24   31.8  225.8      40.0  -0.8374  0.4883   0.022 -0.015      0  274826.0313 258.75 0.20000 
1304.800   1.58  160.22 15.0     0.77    31.7  225.9      35.0  -0.8363  0.4830   0.023 -0.016      0  274820.2813 260.66 0.20000 
1305.000   1.54  160.52 14.2     0.70    31.6  225.9      40.0  -0.8282  0.4933   0.022 -0.015      0  274820.2813 259.56 0.30000 
1305.200   1.52  161.63 13.5     0.18    31.6  225.8      20.0  -0.8223  0.5034   0.023 -0.014      0  274823.1563 257.74 0.20000 
1305.400   1.58  161.63 13.3     0.16    31.7  225.9      16.7  -0.8221  0.5069   0.023 -0.014      0  274826.0625 257.59 0.30000 
1305.600   1.51  161.30 13.2     -0.63   31.8  225.8      10.0  -0.8256  0.5121   0.022 -0.014      0  274822.1875 257.72 0.20000 
1305.800   1.52  160.17 13.8     -0.23   31.9  225.8      20.0  -0.8315  0.5033   0.022 -0.015      0  274823.1875 259.49 0.20000 
1306.000   1.57  159.29 14.0     0.79    31.9  225.9      26.7  -0.8344  0.5006   0.023 -0.016      0  274820.2813 260.63 0.30000 
1306.200   1.54  162.13 13.2     -0.38   31.9  225.8      15.0  -0.8271  0.5118   0.023 -0.014      0  274826.0625 256.97 0.20000 
1306.400   1.52  162.41 13.6     -0.79   31.8  225.8      36.7  -0.8292  0.5055   0.023 -0.014      0  274823.1563 257.06 0.30000 
1306.600   1.58  160.08 14.4     0.50    31.8  225.9      20.0  -0.8351  0.4935   0.023 -0.016      0  274822.1875 260.23 0.30000 
1306.800   1.49  161.67 13.9     0.00    31.7  225.8      30.0  -0.8281  0.4991   0.022 -0.014      0  274822.1875 258.07 0.20000 
1307.000   1.58  161.36 13.9     -0.05   31.3  225.9      30.0  -0.8258  0.4978   0.023 -0.015      0  274820.2813 258.44 0.30000 
1307.200   1.52  160.69 14.0     0.24    31.5  225.8      20.0  -0.8235  0.4954   0.022 -0.015      0  274826.0625 259.13 0.30000 
1307.400   1.52  161.42 13.7     -0.14   31.6  225.8      20.0  -0.8246  0.5009   0.022 -0.014      0  274822.1875 258.15 0.20000 
1307.600   1.57  161.35 13.9     0.14    31.8  225.9      43.3  -0.8289  0.5007   0.023 -0.015      0  274823.1875 258.39 0.30000 
1307.800   1.54  160.54 13.7     -0.04   31.7  225.8      13.3  -0.8268  0.5023   0.022 -0.015      0  274820.2813 259.03 0.30000 
1308.000   1.52  161.40 13.8     -0.27   31.7  225.8      40.0  -0.8270  0.5016   0.022 -0.014      0  274822.1875 258.20 0.20000 
1308.200   1.59  160.42 14.0     0.39    31.8  225.9      10.0  -0.8331  0.5000   0.023 -0.015      0  274824.1250 259.51 0.30000 
1308.400   1.52  161.33 13.6     -0.10   31.8  225.8       6.7  -0.8275  0.5043   0.022 -0.014      0  274826.0313 258.15 0.30000 
1308.600   1.54  161.38 13.7     -0.07   31.7  225.8      23.3  -0.8265  0.5017   0.023 -0.014      0  274820.2813 258.21 0.30000 
