~Version Information
 VERS.                2.0:  CWLS LOG ASCII STANDARD -VERSION 2.0
 WRAP.                 NO:  ONE LINE PER DEPTH STEP
~WELL INFORMATION BLOCK
#MNEM.UNIT       DATA		            DESCRIPTION OF MNEMONIC
#---------    -------------            ------------------------
 STRT.FT  -4.400                         :START DEPTH
 STOP.FT  1314.600                       :STOP DEPTH
 STEP.FT  0.200                          :STEP    UP_HOLE  
 NULL.    -999.25                        :NULL VALUE
 COMP.    USGS                           :COMPANY
 WELL.    USGS 145                                                     :WELL
 FLD .    INL                            :FIELD\LOCATION
 LOC .                                   :LOCATION
 CNTY.    BUTTE                          :COUNTY
 STAT.    IDAHO                          :STATE
 CTRY.    USA                            :COUNTRY
 SRVC.    USGS                           :SERVICE COMPANY
 DATE.    07/16/2018                     :LOG DATE
 API .   CAL. 2017                           :API NUMBER
 LIC .    USGS                           :LICENSE NUMBER
~Curve Information Block
#MNEM.UNIT      API CODE     Curve Description
#---------    -------------  ------------------------
 DEPT     .FT        00 001 00 00          :  1  DEPTH   
 SANG     .DEG       00 620 00 00          :  2  SAMPLE SLANT ANGLE  
 SANGB    .DEG       00 631 00 00          :  3  SAMPLE ANG BEARING  
 TOOLFACE .DEG       00 000 00 00          :  4  TOOLFACE            
 DELT TF  .DEG       00 000 00 00          :  5  DELT TF             
 GYRO     .VOLTS     00 000 00 00          :  6  GYRO                
 PAD1-AZ  .DEG       00 632 00 00          :  7  SAMPLE PAD 1 AZIM   
 GAMMA    .CPS       00 310 00 00          :  8  GAMMA RAY           
 COS-GYRO .AMPL      00 000 00 00          :  9  COS-GYRO            
 SIN-GYRO .AMPL      00 000 00 00          : 10  SIN-GYRO            
 XINCL    .AMPL      00 000 00 00          : 11  XINCL               
 YINCL    .AMPL      00 000 00 00          : 12  YINCL               
 CAGE     .VOLTS     00 000 00 00          : 13  CAGE                
 MAG-VECT .AMPL      00 000 00 00          : 14  MAG-VECT            
 MSANGB   .DEG       00 000 00 00          : 15  MSANGB              
 TIME     .MINUTES   00 000 00 00          : 16  TIME                
~Parameter Information Block
#MNEM.UNIT   Information     Description
#---------- ---------------  ------------------------
 FILE.      PROCESSED          :File Type
 FIID.      9095C              :File Type Identifier
 VERS.      3.60E              :System Version
 SER .      1                  :System Serial Number
 TRUK.      0.25               :Truck Calibration Number
 TOOL.        1203             :Tool Serial Number
 TIME.      1600               :Time    HrHrMinMin
 LAT .                         :Latitude
 LON .                         :Longitude
 LMF .      LSD                :Log Measured From
 DMF .      LSD                :Driller Measured From
 PD  .                         :Permanent Data
 PDEV.                         :Elevation Permanent Data
 EKB .M                        :Elevation Kelly Bushing
 ELEV.DF                       :Elevation DF
 EGL .M                        :Elevation Ground Level
 DRDP.      1368               :Driller's Depth
 CASD.      10.                :Casing Diameter
 CASB.      1328               :Casing Bottom
 CASX.      SURFACE            :Casing Type
 CAST.      .25                :Casing Thickness
 TNOC.                         :Time Circulation Stopped
 LOGU.      USGS               :Logging Unit
 RECB.      MJG                :Recorded By
 OSR1.      0024               :Other Services
 OSR2.       9057              :Other Services
 OSR3.                         :Other Services
 BS  .IN         3.9           :Bit Size
 MST .      SH                 :Mean Surface Temperature
 TGRD.                         :Temperature Gradiant
 MAGN.      0                  :Magnetic Declination
 MDEN.      2.65               :Density Matrix
 MATR.      SANDSTONE          :Neutron Matrix
 DTMT.      54                 :Delta T Matrix
 DTFL.                         :Delta T Fluid
 MUDS.      FLOW LINE          :Mud Sample Source
 MRS .      .179               :Mud Resistivity
 MTP .      68.5               :Mud Temperature
 MFRS.                         :Resistivity Mud Filtrate
 MFTP.                         :Temperature Mud Filtrate
 MCRS.                         :Resistivity Mud Cake
 MCTP.                         :Temperature Mud Cake
 FTYP.      AIR                :Fluid Type
 FD  .LB/G    NA               :Mud Weight
 DFV .S                        :Fluid Viscosity
 FPH .                         :Fuild PH
 ELCO.      99999              :Electron Cutoff
 CASL.      3.5                :Casing Logger
 LOTD.      1328               :Logger TD
 ARTM.      12:20              :Arrival Time
 DPTM.                         :Departure Time
 RIGN.                         :Rig Number
~Other Information
#MNEM.UNIT  Information      Description
#---------- ---------------  ------------------------
# -------------------------- 
~A DEPTH  SANG   SANGB  TOOLFACE DELT TF GYRO  PAD1-AZ GAMMA    COS-GYRO SIN-GYRO XINCL YINCL CAGE    MAG-VECT MSANGB TIME    
# ...
1036.000   1.31  154.71 12.1     0.22    31.7  225.7      40.0  -0.8135  0.5254   0.018 -0.014      0  274823.1563 263.14 0.10000 
1036.200   1.36  154.82 11.9     0.18    31.8  225.7      30.0  -0.8123  0.5290   0.019 -0.014      0  274820.2813 262.85 0.20000 
1036.400   1.34  155.63 11.7     0.01    31.8  225.7    -999.3  -0.8108  0.5316   0.019 -0.014      0  274820.2813 261.84 0.20000 
1036.600   1.36  155.23 11.7     0.08    31.8  225.7      20.0  -0.8110  0.5320   0.019 -0.014      0  274826.0625 262.24 0.10000 
1036.800   1.37  154.75 11.7     0.17    31.7  225.7      25.0  -0.8091  0.5324   0.019 -0.014      0  274820.2813 262.65 0.20000 
1037.000   1.34  154.96 11.5     0.08    31.8  225.7      40.0  -0.8082  0.5352   0.019 -0.014      0  274823.1875 262.26 0.20000 
1037.200   1.35  155.22 11.4     -0.01   31.7  225.7      20.0  -0.8069  0.5358   0.019 -0.014      0  274820.2813 261.93 0.10000 
1037.400   1.32  155.28 11.4     0.00    31.8  225.7      10.0  -0.8078  0.5362   0.019 -0.014      0  274826.0313 261.86 0.20000 
1037.600   1.36  154.69 11.4     0.10    31.8  225.7      20.0  -0.8084  0.5366   0.019 -0.014      0  274823.1563 262.48 0.20000 
1037.800   1.36  154.96 11.3     0.05    31.8  225.7      20.0  -0.8086  0.5388   0.019 -0.014      0  274820.2813 262.10 0.10000 
1038.000   1.34  156.01 11.3     -0.01   31.9  225.7      15.0  -0.8086  0.5399   0.019 -0.013      0  274814.5313 260.99 0.20000 
1038.200   1.35  154.47 11.3     0.20    31.9  225.7      40.0  -0.8082  0.5395   0.019 -0.014      0  274826.0625 262.54 0.20000 
1038.400   1.36  154.10 11.1     0.25    31.8  225.7      20.0  -0.8052  0.5416   0.019 -0.014      0  274817.4063 262.71 0.10000 
1038.600   1.34  155.56 10.8     -0.05   31.8  225.7      55.0  -0.8030  0.5451   0.019 -0.013      0  274820.2813 260.99 0.20000 
1038.800   1.33  156.03 10.9     -0.24   31.8  225.7      70.0  -0.8035  0.5445   0.019 -0.013      0  274823.1875 260.56 0.20000 
1039.000   1.37  155.15 11.1     0.09    31.8  225.7      20.0  -0.8043  0.5400   0.019 -0.014      0  274823.1563 261.72 0.10000 
1039.200   1.38  153.60 11.0     0.43    31.7  225.7      25.0  -0.8017  0.5400   0.019 -0.015      0  274820.2813 263.19 0.20000 
1039.400   1.34  154.45 10.6     0.14    31.6  225.7       5.0  -0.7950  0.5443   0.019 -0.014      0  274826.0625 261.89 0.20000 
1039.600   1.34  155.53 10.5     -0.11   31.5  225.7      20.0  -0.7902  0.5439   0.019 -0.013      0  274826.0625 260.65 0.10000 
1039.800   1.38  154.99 10.6     0.04    31.5  225.7      50.0  -0.7904  0.5418   0.020 -0.014      0  274820.2813 261.33 0.20000 
1040.000   1.34  154.38 10.5     0.20    31.5  225.7      60.0  -0.7913  0.5432   0.019 -0.014      0  274814.5000 261.89 0.20000 
1040.200   1.36  155.18 10.3     0.02    31.6  225.7    -999.3  -0.7929  0.5484   0.019 -0.014      0  274817.3750 260.89 0.10000 
1040.400   1.34  155.24 10.3     -0.05   31.6  225.7      30.0  -0.7934  0.5493   0.019 -0.013      0  274820.2813 260.80 0.20000 
1040.600   1.35  154.87 10.4     0.14    31.7  225.7      20.0  -0.7942  0.5488   0.019 -0.014      0  274823.1563 261.22 0.20000 
1040.800   1.36  154.56 10.2     0.19    31.6  225.7      10.0  -0.7918  0.5500   0.019 -0.014      0  274820.2813 261.40 0.10000 
1041.000   1.36  155.07 10.0     0.00    31.6  225.7      40.0  -0.7881  0.5513   0.019 -0.014      0  274820.2813 260.69 0.20000 
1041.200   1.34  155.24 10.0     0.03    31.6  225.7      40.0  -0.7894  0.5522   0.019 -0.013      0  274820.2500 260.51 0.20000 
1041.400   1.36  154.81 10.0     0.29    31.6  225.7      40.0  -0.7896  0.5530   0.019 -0.014      0  274823.1563 260.93 0.10000 
1041.600   1.39  155.23  9.7     0.28    31.6  225.8      65.0  -0.7854  0.5561   0.020 -0.014      0  274831.8125 260.23 0.20000 
1041.800   1.32  154.90  9.4     0.06    31.5  225.7      40.0  -0.7804  0.5583   0.019 -0.013      0  274823.1563 260.23 0.20000 
1042.000   1.36  155.24  9.4     -0.01   31.5  225.7      40.0  -0.7812  0.5601   0.020 -0.013      0  274820.2813 259.85 0.10000 
1042.200   1.41  155.01  9.4     0.24    31.6  225.8      30.0  -0.7839  0.5618   0.020 -0.014      0  274826.0313 260.14 0.20000 
1042.400   1.36  155.16  9.1     0.48    31.7  225.7      10.0  -0.7842  0.5669   0.020 -0.013      0  274820.2813 259.71 0.20000 
1042.600   1.37  155.56  8.7     0.06    31.8  225.7      20.0  -0.7805  0.5742   0.020 -0.013      0  274820.2813 258.84 0.10000 
1042.800   1.28  155.04  8.6     -0.17   31.9  225.7      10.0  -0.7823  0.5768   0.019 -0.012      0  274820.2813 259.24 0.20000 
1043.000   1.35  154.97  8.8     0.02    31.8  225.7      35.0  -0.7829  0.5737   0.020 -0.013      0  274817.3750 259.52 0.20000 
1043.200   1.38  155.38  8.7     0.24    31.8  225.7    -999.3  -0.7821  0.5735   0.020 -0.013      0  274820.2813 259.12 0.10000 
1043.400   1.36  154.81  8.5     0.21    31.8  225.7      65.0  -0.7793  0.5765   0.020 -0.013      0  274823.1563 259.43 0.20000 
1043.600   1.37  155.06  8.3     0.02    31.7  225.7      60.0  -0.7760  0.5785   0.020 -0.013      0  274823.1563 258.98 0.10000 
1043.800   1.36  154.99  8.3     0.10    31.7  225.7      65.0  -0.7757  0.5787   0.020 -0.013      0  274814.5313 259.01 0.20000 
1044.000   1.37  155.13  8.2     0.17    31.8  225.7      10.0  -0.7754  0.5806   0.020 -0.013      0  274823.1563 258.78 0.20000 
1044.200   1.37  154.90  8.0     -0.06   31.7  225.7      40.0  -0.7725  0.5821   0.020 -0.013      0  274823.1563 258.84 0.10000 
1044.400   1.36  154.78  8.1     -0.09   31.7  225.7      35.0  -0.7720  0.5806   0.020 -0.013      0  274826.0313 259.02 0.20000 
1044.600   1.38  155.23  8.1     0.19    31.8  225.7      10.0  -0.7755  0.5813   0.020 -0.013      0  274823.1563 258.66 0.20000 
1044.800   1.36  154.95  7.9     0.19    31.8  225.7      60.0  -0.7752  0.5852   0.020 -0.013      0  274823.1563 258.73 0.10000 
1045.000   1.40  156.28  7.8     -0.46   31.8  225.7      35.0  -0.7727  0.5874   0.021 -0.013      0  274820.2813 257.24 0.20000 
1045.200   1.35  155.88  8.2     -0.91   31.8  225.7      40.0  -0.7771  0.5810   0.020 -0.013      0  274820.2813 258.07 0.20000 
1045.400   1.41  154.99  9.1     -0.21   31.8  225.8      60.0  -0.7872  0.5692   0.020 -0.014      0  274820.2813 259.92 0.10000 
1045.600   1.37  153.83  9.3     0.37    31.7  225.7      30.0  -0.7858  0.5639   0.019 -0.014      0  274808.7188 261.25 0.20000 
1045.800   1.43  155.80  9.0     0.29    31.7  225.8      25.0  -0.7817  0.5687   0.021 -0.014      0  274820.2813 258.95 0.20000 
1046.000   1.39  155.02  8.7     0.17    31.7  225.8      20.0  -0.7785  0.5725   0.020 -0.013      0  274820.2813 259.41 0.10000 
1046.200   1.30  155.34  8.5     0.31    31.7  225.7      55.0  -0.7774  0.5751   0.019 -0.012      0  274814.5313 258.85 0.20000 
1046.400   1.51  155.85  8.2     0.51    31.7  225.8      50.0  -0.7746  0.5795   0.022 -0.014      0  274823.1563 258.18 0.20000 
1046.600   1.35  154.88  7.7     0.27    31.7  225.7    -999.3  -0.7677  0.5851   0.020 -0.013      0  274820.2813 258.53 0.10000 
1046.800   1.36  154.71  7.4     0.31    31.6  225.7      25.0  -0.7630  0.5871   0.020 -0.013      0  274820.2813 258.44 0.20000 
1047.000   1.42  154.27  7.1     0.60    31.3  225.8      45.0  -0.7621  0.5930   0.021 -0.013      0  274820.2813 258.62 0.20000 
1047.200   1.42  158.19  6.5     0.32    31.6  225.7      40.0  -0.7552  0.6005   0.022 -0.012      0  274820.2813 254.07 0.10000 
1047.400   1.29  156.66  6.2     0.05    31.7  225.7      50.0  -0.7523  0.6051   0.020 -0.011      0  274820.2813 255.20 0.20000 
1047.600   1.43  156.26  6.1     0.20    31.7  225.8      40.0  -0.7525  0.6064   0.022 -0.012      0  274820.2813 255.65 0.20000 
1047.800   1.29  156.88  5.9     0.43    31.8  225.7     130.0  -0.7524  0.6105   0.020 -0.011      0  274820.2813 254.73 0.10000 
1048.000   1.33  156.54  5.5     0.49    31.7  225.7      80.0  -0.7465  0.6151   0.020 -0.011      0  274820.2813 254.67 0.20000 
1048.200   1.46  158.51  5.0     -0.02   31.7  225.8       5.0  -0.7400  0.6204   0.023 -0.011      0  274823.1563 252.29 0.20000 
