~Version Information
 VERS.                2.0:  CWLS LOG ASCII STANDARD -VERSION 2.0
 WRAP.                 NO:  ONE LINE PER DEPTH STEP
~WELL INFORMATION BLOCK
#MNEM.UNIT       DATA		            DESCRIPTION OF MNEMONIC
#---------    -------------            ------------------------
 STRT.FT  -3.600                         :START DEPTH
 STOP.FT  1314.400                       :STOP DEPTH
 STEP.FT  0.200                          :STEP  DOWN_HOLE  
 NULL.    -999.25                        :NULL VALUE
 COMP.    USGS                           :COMPANY
 WELL.    USGS 145                                                     :WELL
 FLD .    INL                            :FIELD\LOCATION
 LOC .                                   :LOCATION
 CNTY.    BUTTE                          :COUNTY
 STAT.    IDAHO                          :STATE
 CTRY.    USA                            :COUNTRY
 SRVC.    USGS                           :SERVICE COMPANY
 DATE.    07/16/2018                     :LOG DATE
 API .   CAL. 2017                           :API NUMBER
 LIC .    USGS                           :LICENSE NUMBER
~Curve Information Block
#MNEM.UNIT      API CODE     Curve Description
#---------    -------------  ------------------------
 DEPT     .FT        00 001 00 00          :  1  DEPTH   
 T DEPTH  .FT        00 960 00 00          :  2  TRUE DEPTH          
 D DIFF   .FT        00 000 00 00          :  3  DEPTH DIFFERENCE    
 N DEV    .FT        00 000 00 00          :  4  NORTH DEVIATION     
 E DEV    .FT        00 000 00 00          :  5  EAST DEVIATION      
 DISTANCE .FT        00 000 00 00          :  6  DEVIATED DISTANCE   
 AZIMUTH  .DEG       00 630 00 00          :  7  DEVIATED AZIMUTH    
 SANG     .DEG       00 620 00 00          :  8  SAMPLE SLANT ANGLE  
 SANGB    .DEG       00 631 00 00          :  9  SAMPLE ANG BEARING  
 TOOLFACE .DEG       00 000 00 00          : 10  TOOLFACE            
 DELT TF  .DEG       00 000 00 00          : 11  DELT TF             
 GYRO     .VOLTS     00 000 00 00          : 12  GYRO                
 PAD1-AZ  .DEG       00 632 00 00          : 13  SAMPLE PAD 1 AZIM   
 GAMMA    .CPS       00 310 00 00          : 14  GAMMA RAY           
 COS-GYRO .AMPL      00 000 00 00          : 15  COS-GYRO            
 SIN-GYRO .AMPL      00 000 00 00          : 16  SIN-GYRO            
 XINCL    .AMPL      00 000 00 00          : 17  XINCL               
 YINCL    .AMPL      00 000 00 00          : 18  YINCL               
 CAGE     .VOLTS     00 000 00 00          : 19  CAGE                
 MAG-VECT .AMPL      00 000 00 00          : 20  MAG-VECT            
 TENSION  .CPS       00 000 00 00          : 21  LINE TENSION        
 TIME     .MINUTES   00 000 00 00          : 22  TIME                
~Parameter Information Block
#MNEM.UNIT   Information     Description
#---------- ---------------  ------------------------
 FILE.      PROCESSED          :File Type
 FIID.      9095C              :File Type Identifier
 VERS.      3.60E              :System Version
 SER .      1                  :System Serial Number
 TRUK.      0.25               :Truck Calibration Number
 TOOL.        1203             :Tool Serial Number
 TIME.      1519               :Time    HrHrMinMin
 LAT .                         :Latitude
 LON .                         :Longitude
 LMF .      LSD                :Log Measured From
 DMF .      LSD                :Driller Measured From
 PD  .                         :Permanent Data
 PDEV.                         :Elevation Permanent Data
 EKB .M                        :Elevation Kelly Bushing
 ELEV.DF                       :Elevation DF
 EGL .M                        :Elevation Ground Level
 DRDP.      1368               :Driller's Depth
 CASD.      10.                :Casing Diameter
 CASB.      1328               :Casing Bottom
 CASX.      SURFACE            :Casing Type
 CAST.      .25                :Casing Thickness
 TNOC.                         :Time Circulation Stopped
 LOGU.      USGS               :Logging Unit
 RECB.      MJG                :Recorded By
 OSR1.      0024               :Other Services
 OSR2.       9057              :Other Services
 OSR3.                         :Other Services
 BS  .IN         3.9           :Bit Size
 MST .      SH                 :Mean Surface Temperature
 TGRD.                         :Temperature Gradiant
 MAGN.        12.500           :Magnetic Declination
 MDEN.      2.65               :Density Matrix
 MATR.      SANDSTONE          :Neutron Matrix
 DTMT.      54                 :Delta T Matrix
 DTFL.                         :Delta T Fluid
 MUDS.      FLOW LINE          :Mud Sample Source
 MRS .      .179               :Mud Resistivity
 MTP .      68.5               :Mud Temperature
 MFRS.                         :Resistivity Mud Filtrate
 MFTP.                         :Temperature Mud Filtrate
 MCRS.                         :Resistivity Mud Cake
 MCTP.                         :Temperature Mud Cake
 FTYP.      AIR                :Fluid Type
 FD  .LB/G    NA               :Mud Weight
 DFV .S                        :Fluid Viscosity
 FPH .                         :Fuild PH
 ELCO.      99999              :Electron Cutoff
 CASL.      3.5                :Casing Logger
 LOTD.      1328               :Logger TD
 ARTM.      12:20              :Arrival Time
 DPTM.                         :Departure Time
 RIGN.                         :Rig Number
~Other Information
#MNEM.UNIT  Information      Description
#---------- ---------------  ------------------------
# -------------------------- 
~A DEPTH  T DEPTH   D DIFF N DEV     E DEV     DISTANCE  AZIMUTH SANG   SANGB  TOOLFACE DELT TF GYRO  PAD1-AZ GAMMA    COS-GYRO SIN-GYRO XINCL YINCL CAGE    MAG-VECT TENSION  TIME    
# ...
 521.000   520.948  -0.1     -0.510     2.436     2.489  101.8    1.57  158.29 316.0    0.17    31.5  225.4      80.0  -0.0169  0.9503   0.027 0.005      0  274843.4063    80.2  0.20000 
 521.200   521.148  -0.1     -0.515     2.438     2.492  101.9    1.61  160.20 316.3    0.29    31.5  225.4      20.0  -0.0217  0.9514   0.027 0.006      0  274843.3750    80.2  0.20000 
 521.400   521.348  -0.1     -0.520     2.440     2.495  102.0    1.65  157.73 316.4    0.07    31.5  225.5      35.0  -0.0228  0.9511   0.028 0.005      0  274843.4063    80.3  0.10000 
 521.600   521.548  -0.1     -0.525     2.442     2.498  102.1    1.54  161.91 316.6    0.23    31.4  225.4      35.0  -0.0267  0.9514   0.026 0.006      0  274843.4063    80.3  0.20000 
 521.800   521.748  -0.1     -0.531     2.444     2.501  102.2    1.59  156.30 317.2    0.61    31.4  225.5     100.0  -0.0367  0.9498   0.028 0.004      0  274846.2813    80.4  0.20000 
 522.000   521.948  -0.1     -0.536     2.446     2.504  102.4    1.62  159.65 317.2    0.02    31.4  225.4      35.0  -0.0370  0.9485   0.028 0.005      0  274843.4063    80.2  0.20000 
 522.200   522.148  -0.1     -0.541     2.448     2.507  102.5    1.53  161.10 317.1    -0.10   31.5  225.4      40.0  -0.0354  0.9504   0.026 0.006      0  274849.1563    80.2  0.10000 
 522.400   522.347  -0.1     -0.546     2.449     2.510  102.6    1.58  160.56 317.2    0.05    31.5  225.4      65.0  -0.0363  0.9525   0.027 0.006      0  274840.5313    80.2  0.20000 
 522.600   522.547  -0.1     -0.551     2.451     2.513  102.7    1.56  158.78 317.6    0.42    31.5  225.4      50.0  -0.0431  0.9479   0.027 0.005      0  274843.4063    80.1  0.20000 
 522.800   522.747  -0.1     -0.557     2.454     2.516  102.8    1.64  158.13 318.0    0.41    31.5  225.5      60.0  -0.0500  0.9508   0.028 0.004      0  274846.2813    80.2  0.20000 
 523.000   522.947  -0.1     -0.562     2.455     2.519  102.9    1.59  160.10 318.1    0.10    31.5  225.4      30.0  -0.0518  0.9523   0.027 0.005      0  274840.5313    80.3  0.20000 
 523.200   523.147  -0.1     -0.567     2.458     2.522  103.0    1.55  156.41 318.0    -0.13   31.5  225.5      25.0  -0.0496  0.9537   0.027 0.003      0  274837.5938    80.3  0.10000 
 523.400   523.347  -0.1     -0.572     2.459     2.525  103.1    1.59  161.57 317.3    -0.66   31.5  225.4       5.0  -0.0387  0.9540   0.027 0.006      0  274843.4063    80.3  0.20000 
 523.600   523.547  -0.1     -0.577     2.461     2.528  103.2    1.53  162.19 317.0    -0.28   31.5  225.4      20.0  -0.0339  0.9525   0.026 0.006      0  274843.4063    80.3  0.20000 
 523.800   523.747  -0.1     -0.582     2.463     2.531  103.3    1.59  158.50 317.4    0.34    31.5  225.5      30.0  -0.0397  0.9534   0.027 0.005      0  274843.4063    80.3  0.20000 
 524.000   523.947  -0.1     -0.587     2.465     2.534  103.4    1.57  159.41 317.5    0.17    31.5  225.4      30.0  -0.0423  0.9508   0.027 0.005      0  274843.4063    80.2  0.10000 
 524.200   524.147  -0.1     -0.592     2.467     2.537  103.5    1.57  156.13 317.7    0.12    31.5  225.5      60.0  -0.0442  0.9478   0.027 0.003      0  274840.5313    80.0  0.20000 
 524.400   524.347  -0.1     -0.597     2.469     2.540  103.6    1.58  159.25 317.0    -0.66   31.5  225.4      80.0  -0.0334  0.9493   0.027 0.005      0  274843.4063    80.2  0.20000 
 524.600   524.547  -0.1     -0.603     2.471     2.543  103.7    1.56  162.38 316.2    -0.78   31.5  225.4      50.0  -0.0202  0.9408   0.026 0.007      0  274846.2813    80.1  0.20000 
 524.800   524.747  -0.1     -0.608     2.473     2.546  103.8    1.57  160.45 316.2    -0.02   31.4  225.4      50.0  -0.0200  0.9484   0.027 0.006      0  274843.4063    80.1  0.20000 
 525.000   524.946  -0.1     -0.613     2.475     2.550  103.9    1.56  156.62 316.5    0.28    31.4  225.5      30.0  -0.0245  0.9463   0.027 0.004      0  274843.4063    80.0  0.10000 
 525.200   525.146  -0.1     -0.618     2.477     2.553  104.0    1.57  158.02 316.8    0.28    31.4  225.4      50.0  -0.0291  0.9471   0.027 0.005      0  274846.2813    80.1  0.20000 
 525.400   525.346  -0.1     -0.623     2.479     2.556  104.1    1.57  158.22 317.0    0.19    31.5  225.4      30.0  -0.0324  0.9504   0.027 0.005      0  274840.5000    80.0  0.20000 
 525.600   525.546  -0.1     -0.628     2.481     2.559  104.2    1.61  157.00 317.1    0.17    31.5  225.5      45.0  -0.0354  0.9536   0.028 0.004      0  274840.5313    79.9  0.20000 
 525.800   525.746  -0.1     -0.633     2.483     2.563  104.3    1.55  156.84 316.9    -0.18   31.5  225.5      65.0  -0.0324  0.9532   0.027 0.004      0  274837.6563    80.0  0.10000 
 526.000   525.946  -0.1     -0.638     2.485     2.566  104.4    1.54  159.72 316.2    -0.76   31.5  225.4      50.0  -0.0197  0.9497   0.026 0.006      0  274843.4063    80.0  0.20000 
 526.200   526.146  -0.1     -0.643     2.487     2.569  104.5    1.60  159.57 315.6    -0.60   31.5  225.4      20.0  -0.0098  0.9524   0.027 0.006      0  274843.4063    80.1  0.20000 
 526.400   526.346  -0.1     -0.648     2.489     2.572  104.6    1.52  162.45 315.1    -0.44   31.5  225.3      45.0  -0.0024  0.9509   0.025 0.007      0  274846.2813    80.0  0.20000 
 526.600   526.546  -0.1     -0.654     2.490     2.575  104.7    1.60  162.61 315.7    0.55    31.4  225.4      20.0  -0.0114  0.9480   0.027 0.008      0  274837.6563    80.0  0.10000 
 526.800   526.746  -0.1     -0.659     2.492     2.578  104.8    1.57  158.53 317.0    1.31    31.3  225.4      25.0  -0.0332  0.9469   0.027 0.005      0  274840.5313    80.0  0.20000 
 527.000   526.946  -0.1     -0.664     2.495     2.581  104.9    1.56  153.97 318.9    1.85    31.3  225.5     100.0  -0.0636  0.9428   0.027 0.002      0  274843.4063    80.0  0.20000 
 527.200   527.146  -0.1     -0.669     2.497     2.585  105.0    1.63  153.80 319.8    0.97    31.3  225.6      55.0  -0.0795  0.9412   0.028 0.001      0  274843.4063    80.0  0.20000 
 527.400   527.346  -0.1     -0.674     2.499     2.588  105.1    1.48  162.30 319.1    -0.69   31.3  225.4      30.0  -0.0682  0.9421   0.025 0.005      0  274843.4063    80.1  0.20000 
 527.600   527.545  -0.1     -0.680     2.501     2.591  105.2    1.73  161.22 319.0    -0.16   31.4  225.5      35.0  -0.0655  0.9406   0.030 0.006      0  274843.4063    80.1  0.10000 
 527.800   527.745  -0.1     -0.685     2.503     2.595  105.3    1.54  159.18 319.0    -0.02   31.4  225.4      15.0  -0.0655  0.9465   0.027 0.004      0  274846.2813    80.2  0.20000 
 528.000   527.945  -0.1     -0.690     2.505     2.598  105.4    1.55  158.80 318.9    -0.07   31.4  225.5      40.0  -0.0645  0.9483   0.027 0.004      0  274843.4063    80.2  0.20000 
 528.200   528.145  -0.1     -0.695     2.507     2.601  105.5    1.53  158.20 319.6    0.68    31.3  225.5      30.0  -0.0756  0.9447   0.027 0.003      0  274843.4063    80.1  0.20000 
 528.400   528.345  -0.1     -0.699     2.509     2.604  105.6    1.50  157.31 320.2    0.63    31.5  225.5      30.0  -0.0862  0.9459   0.026 0.003      0  274849.1563    80.1  0.10000 
 528.600   528.545  -0.1     -0.704     2.511     2.608  105.7    1.55  152.30 320.8    0.64    31.5  225.6      15.0  -0.0969  0.9463   0.027 0.000      0  274843.4063    80.1  0.20000 
 528.800   528.745  -0.1     -0.709     2.513     2.611  105.8    1.54  157.36 321.1    0.30    31.4  225.5      10.0  -0.1014  0.9417   0.027 0.002      0  274846.2813    80.3  0.20000 
 529.000   528.945  -0.1     -0.714     2.515     2.614  105.9    1.56  160.02 321.4    0.22    31.3  225.5      25.0  -0.1051  0.9419   0.027 0.004      0  274837.6563    80.2  0.20000 
 529.200   529.145  -0.1     -0.719     2.517     2.618  105.9    1.56  155.22 322.3    0.94    31.3  225.6      15.0  -0.1205  0.9396   0.027 0.001      0  274843.4063    80.3  0.20000 
 529.400   529.345  -0.1     -0.724     2.519     2.621  106.0    1.54  157.26 322.4    0.08    31.2  225.5      75.0  -0.1213  0.9354   0.027 0.002      0  274843.4063    80.4  0.10000 
