~Version Information
 VERS.                2.0:  CWLS LOG ASCII STANDARD -VERSION 2.0
 WRAP.                 NO:  ONE LINE PER DEPTH STEP
~WELL INFORMATION BLOCK
#MNEM.UNIT       DATA		            DESCRIPTION OF MNEMONIC
#---------    -------------            ------------------------
 STRT.FT  -4.400                         :START DEPTH
 STOP.FT  1314.600                       :STOP DEPTH
 STEP.FT  0.200                          :STEP    UP_HOLE  
 NULL.    -999.25                        :NULL VALUE
 COMP.    USGS                           :COMPANY
 WELL.    USGS 145                                                     :WELL
 FLD .    INL                            :FIELD\LOCATION
 LOC .                                   :LOCATION
 CNTY.    BUTTE                          :COUNTY
 STAT.    IDAHO                          :STATE
 CTRY.    USA                            :COUNTRY
 SRVC.    USGS                           :SERVICE COMPANY
 DATE.    07/16/2018                     :LOG DATE
 API .   CAL. 2017                           :API NUMBER
 LIC .    USGS                           :LICENSE NUMBER
~Curve Information Block
#MNEM.UNIT      API CODE     Curve Description
#---------    -------------  ------------------------
 DEPT     .FT        00 001 00 00          :  1  DEPTH   
 SANG     .DEG       00 620 00 00          :  2  SAMPLE SLANT ANGLE  
 SANGB    .DEG       00 631 00 00          :  3  SAMPLE ANG BEARING  
 TOOLFACE .DEG       00 000 00 00          :  4  TOOLFACE            
 DELT TF  .DEG       00 000 00 00          :  5  DELT TF             
 GYRO     .VOLTS     00 000 00 00          :  6  GYRO                
 PAD1-AZ  .DEG       00 632 00 00          :  7  SAMPLE PAD 1 AZIM   
 GAMMA    .CPS       00 310 00 00          :  8  GAMMA RAY           
 COS-GYRO .AMPL      00 000 00 00          :  9  COS-GYRO            
 SIN-GYRO .AMPL      00 000 00 00          : 10  SIN-GYRO            
 XINCL    .AMPL      00 000 00 00          : 11  XINCL               
 YINCL    .AMPL      00 000 00 00          : 12  YINCL               
 CAGE     .VOLTS     00 000 00 00          : 13  CAGE                
 MAG-VECT .AMPL      00 000 00 00          : 14  MAG-VECT            
 MSANGB   .DEG       00 000 00 00          : 15  MSANGB              
 TIME     .MINUTES   00 000 00 00          : 16  TIME                
~Parameter Information Block
#MNEM.UNIT   Information     Description
#---------- ---------------  ------------------------
 FILE.      PROCESSED          :File Type
 FIID.      9095C              :File Type Identifier
 VERS.      3.60E              :System Version
 SER .      1                  :System Serial Number
 TRUK.      0.25               :Truck Calibration Number
 TOOL.        1203             :Tool Serial Number
 TIME.      1600               :Time    HrHrMinMin
 LAT .                         :Latitude
 LON .                         :Longitude
 LMF .      LSD                :Log Measured From
 DMF .      LSD                :Driller Measured From
 PD  .                         :Permanent Data
 PDEV.                         :Elevation Permanent Data
 EKB .M                        :Elevation Kelly Bushing
 ELEV.DF                       :Elevation DF
 EGL .M                        :Elevation Ground Level
 DRDP.      1368               :Driller's Depth
 CASD.      10.                :Casing Diameter
 CASB.      1328               :Casing Bottom
 CASX.      SURFACE            :Casing Type
 CAST.      .25                :Casing Thickness
 TNOC.                         :Time Circulation Stopped
 LOGU.      USGS               :Logging Unit
 RECB.      MJG                :Recorded By
 OSR1.      0024               :Other Services
 OSR2.       9057              :Other Services
 OSR3.                         :Other Services
 BS  .IN         3.9           :Bit Size
 MST .      SH                 :Mean Surface Temperature
 TGRD.                         :Temperature Gradiant
 MAGN.      0                  :Magnetic Declination
 MDEN.      2.65               :Density Matrix
 MATR.      SANDSTONE          :Neutron Matrix
 DTMT.      54                 :Delta T Matrix
 DTFL.                         :Delta T Fluid
 MUDS.      FLOW LINE          :Mud Sample Source
 MRS .      .179               :Mud Resistivity
 MTP .      68.5               :Mud Temperature
 MFRS.                         :Resistivity Mud Filtrate
 MFTP.                         :Temperature Mud Filtrate
 MCRS.                         :Resistivity Mud Cake
 MCTP.                         :Temperature Mud Cake
 FTYP.      AIR                :Fluid Type
 FD  .LB/G    NA               :Mud Weight
 DFV .S                        :Fluid Viscosity
 FPH .                         :Fuild PH
 ELCO.      99999              :Electron Cutoff
 CASL.      3.5                :Casing Logger
 LOTD.      1328               :Logger TD
 ARTM.      12:20              :Arrival Time
 DPTM.                         :Departure Time
 RIGN.                         :Rig Number
~Other Information
#MNEM.UNIT  Information      Description
#---------- ---------------  ------------------------
# -------------------------- 
~A DEPTH  SANG   SANGB  TOOLFACE DELT TF GYRO  PAD1-AZ GAMMA    COS-GYRO SIN-GYRO XINCL YINCL CAGE    MAG-VECT MSANGB TIME    
# ...
 775.600   1.15  158.79 21.1     -0.61   31.7  225.6      45.0  -0.8826  0.3908   0.015 -0.013      0  274823.1563 267.92 0.20000 
 775.800   1.21  158.46 21.7     -0.57   31.6  225.6      80.0  -0.8860  0.3811   0.015 -0.015      0  274817.4063 268.91 0.10000 
 776.000   1.05  157.28 22.3     -0.81   31.7  225.5      30.0  -0.8907  0.3726   0.013 -0.013      0  274820.2500 270.55 0.20000 
 776.200   1.17  158.24 23.1     -0.67   31.6  225.6      35.0  -0.8949  0.3596   0.015 -0.014      0  274823.1563 270.48 0.20000 
 776.400   1.22  156.65 23.8     -0.66   31.6  225.6      40.0  -0.8963  0.3480   0.014 -0.016      0  274820.2813 272.78 0.10000 
 776.600   1.20  156.60 24.4     -0.59   31.6  225.6      20.0  -0.9015  0.3382   0.014 -0.016      0  274823.1563 273.47 0.20000 
 776.800   1.17  156.84 25.0     -0.39   31.6  225.6      50.0  -0.9055  0.3291   0.014 -0.015      0  274823.1563 273.80 0.10000 
 777.000   1.04  156.65 25.4     -0.19   31.5  225.5      35.0  -0.9064  0.3224   0.012 -0.014      0  274820.2813 274.28 0.20000 
 777.200   1.20  157.11 25.6     0.02    31.6  225.6      30.0  -0.9093  0.3200   0.014 -0.016      0  274823.1563 274.14 0.20000 
 777.400   1.17  160.86 25.6     -0.33   31.6  225.6    -999.3  -0.9094  0.3204   0.014 -0.014      0  274826.0313 270.34 0.10000 
 777.600   1.15  159.65 25.9     -0.59   31.6  225.6      30.0  -0.9132  0.3157   0.014 -0.015      0  274820.2813 271.87 0.20000 
 777.800   1.17  158.18 26.5     -0.31   31.7  225.6      30.0  -0.9168  0.3065   0.014 -0.015      0  274817.4063 273.95 0.10000 
 778.000   1.20  158.31 26.8     -0.01   31.6  225.6      35.0  -0.9157  0.3007   0.014 -0.016      0  274826.0313 274.14 0.20000 
 778.200   1.15  157.32 26.8     0.30    31.6  225.6      45.0  -0.9161  0.3007   0.013 -0.015      0  274826.0313 275.11 0.20000 
 778.400   1.35  156.71 26.5     1.17    31.6  225.7      20.0  -0.9141  0.3055   0.015 -0.018      0  274820.2813 275.54 0.10000 
 778.600   0.93  155.98 25.4     1.34    31.5  225.4      30.0  -0.9051  0.3232   0.011 -0.012      0  274823.1563 274.82 0.20000 
 778.800   1.39  159.26 24.0     1.11    31.4  225.8      20.0  -0.8947  0.3432   0.017 -0.017      0  274823.1563 270.52 0.10000 
 779.000   1.11  166.71 22.9     -0.42   31.4  225.6      10.0  -0.8863  0.3598   0.016 -0.011      0  274820.2813 261.75 0.20000 
 779.200   1.09  156.97 23.3     -0.49   31.4  225.6      30.0  -0.8912  0.3542   0.013 -0.014      0  274823.1563 271.91 0.20000 
 779.400   1.22  158.02 23.8     -0.46   31.5  225.6    -999.3  -0.8975  0.3478   0.015 -0.015      0  274826.0313 271.45 0.10000 
 779.600   1.20  156.99 24.3     -0.12   31.6  225.6      10.0  -0.9028  0.3415   0.014 -0.015      0  274823.1563 272.93 0.20000 
 779.800   1.16  157.86 24.4     0.32    31.6  225.6      20.0  -0.9037  0.3396   0.014 -0.015      0  274820.2813 272.15 0.10000 
 780.000   1.22  157.23 24.1     0.40    31.6  225.6      25.0  -0.9016  0.3445   0.015 -0.016      0  274826.0313 272.51 0.20000 
 780.200   1.13  158.53 23.7     0.21    31.6  225.6      15.0  -0.8993  0.3509   0.014 -0.014      0  274823.1563 270.74 0.20000 
 780.400   1.19  158.47 23.5     0.35    31.6  225.6      90.0  -0.8976  0.3541   0.015 -0.015      0  274820.2813 270.63 0.10000 
 780.600   1.21  157.85 23.1     0.57    31.6  225.6      35.0  -0.8948  0.3593   0.015 -0.015      0  274823.1563 270.91 0.20000 
 780.800   1.24  157.55 22.6     0.66    31.5  225.7      40.0  -0.8898  0.3676   0.015 -0.015      0  274820.2813 270.66 0.10000 
 781.000   1.17  158.55 21.9     0.54    31.5  225.6      15.0  -0.8849  0.3776   0.015 -0.014      0  274823.1563 268.96 0.20000 
 781.200   1.20  157.71 21.4     0.39    31.5  225.6      20.0  -0.8820  0.3861   0.015 -0.014      0  274817.3750 269.29 0.10000 
 781.400   1.25  157.79 21.0     0.61    31.5  225.7      65.0  -0.8773  0.3912   0.016 -0.015      0  274826.0313 268.85 0.20000 
 781.600   1.19  157.26 20.4     0.57    31.4  225.6      10.0  -0.8708  0.3995   0.015 -0.014      0  274820.2813 268.72 0.20000 
 781.800   1.21  156.12 19.8     0.74    31.4  225.6     100.0  -0.8673  0.4083   0.015 -0.015      0  274814.4688 269.31 0.10000 
 782.000   1.20  157.29 19.0     0.80    31.5  225.6      25.0  -0.8631  0.4202   0.016 -0.014      0  274820.2813 267.38 0.20000 
 782.200   1.20  159.45 18.2     0.19    31.5  225.6      40.0  -0.8586  0.4329   0.016 -0.013      0  274823.1563 264.42 0.10000 
 782.400   1.17  157.76 18.1     -0.17   31.6  225.6      35.0  -0.8587  0.4365   0.016 -0.013      0  274820.2813 265.91 0.20000 
 782.600   1.20  155.92 18.2     -0.12   31.5  225.6      20.0  -0.8587  0.4333   0.016 -0.014      0  274823.1563 267.94 0.20000 
 782.800   1.17  156.10 18.3     0.11    31.6  225.6     110.0  -0.8620  0.4327   0.015 -0.014      0  274820.2813 267.86 0.10000 
 783.000   1.23  157.45 18.2     -0.35   31.6  225.7      20.0  -0.8618  0.4346   0.016 -0.014      0  274823.1563 266.45 0.20000 
 783.200   1.14  160.13 18.6     -1.17   31.5  225.6      10.0  -0.8623  0.4283   0.016 -0.012      0  274820.2813 264.05 0.10000 
 783.400   1.26  157.84 19.8     -1.42   31.6  225.7      45.0  -0.8718  0.4110   0.016 -0.015      0  274820.2813 267.60 0.20000 
 783.600   1.19  157.68 21.2     -1.26   31.5  225.6      40.0  -0.8808  0.3888   0.015 -0.014      0  274820.2813 269.13 0.20000 
 783.800   1.20  157.71 22.4     -0.79   31.4  225.6      40.0  -0.8853  0.3678   0.015 -0.015      0  274820.2813 270.37 0.10000 
 784.000   1.19  158.36 23.2     -0.22   31.4  225.6      15.0  -0.8900  0.3554   0.015 -0.015      0  274820.2813 270.49 0.20000 
 784.200   1.14  160.01 23.4     0.05    31.4  225.6      40.0  -0.8907  0.3518   0.014 -0.014      0  274823.1563 269.03 0.10000 
 784.400   1.26  160.96 23.4     0.33    31.4  225.7      25.0  -0.8905  0.3526   0.016 -0.015      0  274820.2813 268.11 0.20000 
 784.600   1.18  160.41 23.1     -0.22   31.5  225.6      55.0  -0.8918  0.3590   0.015 -0.014      0  274817.4063 268.28 0.20000 
 784.800   1.32  158.30 23.3     -0.25   31.5  225.7      30.0  -0.8949  0.3562   0.016 -0.016      0  274820.2813 270.71 0.10000 
 785.000   1.21  158.41 23.5     -0.30   31.5  225.6       5.0  -0.8962  0.3521   0.015 -0.015      0  274823.1563 270.78 0.20000 
 785.200   1.19  157.76 23.8     -0.07   31.5  225.6      20.0  -0.8984  0.3476   0.014 -0.015      0  274823.1563 271.72 0.10000 
 785.400   1.12  157.74 23.9     -0.19   31.5  225.6      20.0  -0.8977  0.3461   0.013 -0.014      0  274820.2813 271.75 0.20000 
 785.600   1.25  157.68 24.1     0.01    31.5  225.7      45.0  -0.8979  0.3427   0.015 -0.016      0  274823.1563 272.09 0.20000 
 785.800   1.17  157.98 24.1     -0.12   31.4  225.6      20.0  -0.8961  0.3423   0.014 -0.015      0  274820.2813 271.73 0.10000 
 786.000   1.26  158.70 24.2     -0.07   31.4  225.7      30.0  -0.8977  0.3407   0.015 -0.016      0  274820.2813 271.19 0.20000 
 786.200   1.15  158.43 24.3     0.02    31.4  225.6      20.0  -0.8981  0.3396   0.014 -0.014      0  274820.2813 271.45 0.10000 
 786.400   1.15  158.13 24.3     -0.08   31.4  225.6      20.0  -0.8984  0.3400   0.014 -0.014      0  274826.0313 271.73 0.20000 
 786.600   1.25  157.80 24.4     0.18    31.5  225.7      30.0  -0.8986  0.3386   0.015 -0.016      0  274823.1563 272.22 0.20000 
 786.800   1.26  157.88 24.2     0.29    31.4  225.7      20.0  -0.8947  0.3404   0.015 -0.016      0  274820.2813 271.96 0.10000 
 787.000   1.23  158.35 23.9     0.52    31.4  225.7      10.0  -0.8931  0.3450   0.015 -0.015      0  274826.0313 271.18 0.20000 
 787.200   1.20  157.81 23.4     0.23    31.4  225.6      50.0  -0.8925  0.3542   0.015 -0.015      0  274820.2813 271.18 0.10000 
 787.400   1.19  157.85 23.1     0.07    31.5  225.6      30.0  -0.8919  0.3580   0.015 -0.015      0  274826.0313 270.90 0.20000 
 787.600   1.23  157.79 23.1     0.14    31.5  225.6      45.0  -0.8914  0.3591   0.015 -0.015      0  274820.2813 270.92 0.20000 
 787.800   1.20  158.18 22.9     0.11    31.5  225.6      60.0  -0.8911  0.3615   0.015 -0.015      0  274820.2813 270.37 0.10000 
