~Version Information
 VERS.                2.0:  CWLS LOG ASCII STANDARD -VERSION 2.0
 WRAP.                 NO:  ONE LINE PER DEPTH STEP
~WELL INFORMATION BLOCK
#MNEM.UNIT       DATA		            DESCRIPTION OF MNEMONIC
#---------    -------------            ------------------------
 STRT.FT  -3.600                         :START DEPTH
 STOP.FT  1314.400                       :STOP DEPTH
 STEP.FT  0.200                          :STEP  DOWN_HOLE  
 NULL.    -999.25                        :NULL VALUE
 COMP.    USGS                           :COMPANY
 WELL.    USGS 145                                                     :WELL
 FLD .    INL                            :FIELD\LOCATION
 LOC .                                   :LOCATION
 CNTY.    BUTTE                          :COUNTY
 STAT.    IDAHO                          :STATE
 CTRY.    USA                            :COUNTRY
 SRVC.    USGS                           :SERVICE COMPANY
 DATE.    07/16/2018                     :LOG DATE
 API .   CAL. 2017                           :API NUMBER
 LIC .    USGS                           :LICENSE NUMBER
~Curve Information Block
#MNEM.UNIT      API CODE     Curve Description
#---------    -------------  ------------------------
 DEPT     .FT        00 001 00 00          :  1  DEPTH   
 T DEPTH  .FT        00 960 00 00          :  2  TRUE DEPTH          
 D DIFF   .FT        00 000 00 00          :  3  DEPTH DIFFERENCE    
 N DEV    .FT        00 000 00 00          :  4  NORTH DEVIATION     
 E DEV    .FT        00 000 00 00          :  5  EAST DEVIATION      
 DISTANCE .FT        00 000 00 00          :  6  DEVIATED DISTANCE   
 AZIMUTH  .DEG       00 630 00 00          :  7  DEVIATED AZIMUTH    
 SANG     .DEG       00 620 00 00          :  8  SAMPLE SLANT ANGLE  
 SANGB    .DEG       00 631 00 00          :  9  SAMPLE ANG BEARING  
 TOOLFACE .DEG       00 000 00 00          : 10  TOOLFACE            
 DELT TF  .DEG       00 000 00 00          : 11  DELT TF             
 GYRO     .VOLTS     00 000 00 00          : 12  GYRO                
 PAD1-AZ  .DEG       00 632 00 00          : 13  SAMPLE PAD 1 AZIM   
 GAMMA    .CPS       00 310 00 00          : 14  GAMMA RAY           
 COS-GYRO .AMPL      00 000 00 00          : 15  COS-GYRO            
 SIN-GYRO .AMPL      00 000 00 00          : 16  SIN-GYRO            
 XINCL    .AMPL      00 000 00 00          : 17  XINCL               
 YINCL    .AMPL      00 000 00 00          : 18  YINCL               
 CAGE     .VOLTS     00 000 00 00          : 19  CAGE                
 MAG-VECT .AMPL      00 000 00 00          : 20  MAG-VECT            
 TENSION  .CPS       00 000 00 00          : 21  LINE TENSION        
 TIME     .MINUTES   00 000 00 00          : 22  TIME                
~Parameter Information Block
#MNEM.UNIT   Information     Description
#---------- ---------------  ------------------------
 FILE.      PROCESSED          :File Type
 FIID.      9095C              :File Type Identifier
 VERS.      3.60E              :System Version
 SER .      1                  :System Serial Number
 TRUK.      0.25               :Truck Calibration Number
 TOOL.        1203             :Tool Serial Number
 TIME.      1519               :Time    HrHrMinMin
 LAT .                         :Latitude
 LON .                         :Longitude
 LMF .      LSD                :Log Measured From
 DMF .      LSD                :Driller Measured From
 PD  .                         :Permanent Data
 PDEV.                         :Elevation Permanent Data
 EKB .M                        :Elevation Kelly Bushing
 ELEV.DF                       :Elevation DF
 EGL .M                        :Elevation Ground Level
 DRDP.      1368               :Driller's Depth
 CASD.      10.                :Casing Diameter
 CASB.      1328               :Casing Bottom
 CASX.      SURFACE            :Casing Type
 CAST.      .25                :Casing Thickness
 TNOC.                         :Time Circulation Stopped
 LOGU.      USGS               :Logging Unit
 RECB.      MJG                :Recorded By
 OSR1.      0024               :Other Services
 OSR2.       9057              :Other Services
 OSR3.                         :Other Services
 BS  .IN         3.9           :Bit Size
 MST .      SH                 :Mean Surface Temperature
 TGRD.                         :Temperature Gradiant
 MAGN.        12.500           :Magnetic Declination
 MDEN.      2.65               :Density Matrix
 MATR.      SANDSTONE          :Neutron Matrix
 DTMT.      54                 :Delta T Matrix
 DTFL.                         :Delta T Fluid
 MUDS.      FLOW LINE          :Mud Sample Source
 MRS .      .179               :Mud Resistivity
 MTP .      68.5               :Mud Temperature
 MFRS.                         :Resistivity Mud Filtrate
 MFTP.                         :Temperature Mud Filtrate
 MCRS.                         :Resistivity Mud Cake
 MCTP.                         :Temperature Mud Cake
 FTYP.      AIR                :Fluid Type
 FD  .LB/G    NA               :Mud Weight
 DFV .S                        :Fluid Viscosity
 FPH .                         :Fuild PH
 ELCO.      99999              :Electron Cutoff
 CASL.      3.5                :Casing Logger
 LOTD.      1328               :Logger TD
 ARTM.      12:20              :Arrival Time
 DPTM.                         :Departure Time
 RIGN.                         :Rig Number
~Other Information
#MNEM.UNIT  Information      Description
#---------- ---------------  ------------------------
# -------------------------- 
~A DEPTH  T DEPTH   D DIFF N DEV     E DEV     DISTANCE  AZIMUTH SANG   SANGB  TOOLFACE DELT TF GYRO  PAD1-AZ GAMMA    COS-GYRO SIN-GYRO XINCL YINCL CAGE    MAG-VECT TENSION  TIME    
# ...
1303.600  1303.363  -0.2    -16.500     7.552    18.146  155.4    1.65  167.56 243.7    -8.59   31.8  223.9      15.0  0.9176   0.3109   -0.002 0.029      0  274824.1250    84.2  0.30000 
1303.800  1303.563  -0.2    -16.505     7.553    18.151  155.4    1.55  168.07 237.0    -6.70   31.8  223.9      50.0  0.9490   0.2021   -0.005 0.027      0  274823.1563    84.2  0.20000 
1304.000  1303.763  -0.2    -16.511     7.555    18.157  155.4    1.65  167.68 234.1    -2.89   31.8  223.8      30.0  0.9581   0.1540   -0.007 0.028      0  274823.1563    84.2  0.20000 
1304.200  1303.963  -0.2    -16.516     7.556    18.162  155.4    1.56  163.82 232.9    -1.19   31.8  223.9      30.0  0.9603   0.1340   -0.005 0.027      0  274823.1875    84.3  0.20000 
1304.400  1304.163  -0.2    -16.521     7.558    18.168  155.4    1.56  162.61 232.2    -0.78   31.8  223.9      30.0  0.9612   0.1208   -0.005 0.027      0  274826.0625    84.3  0.20000 
1304.600  1304.363  -0.2    -16.526     7.559    18.173  155.4    1.58  162.59 231.0    -1.20   31.8  223.8      10.0  0.9664   0.1009   -0.006 0.027      0  274826.0625    84.4  0.20000 
1304.800  1304.563  -0.2    -16.532     7.561    18.179  155.4    1.61  165.11 229.5    -1.50   31.8  223.8      25.0  0.9678   0.0755   -0.008 0.027      0  274826.0625    84.4  0.20000 
1305.000  1304.763  -0.2    -16.537     7.562    18.184  155.4    1.57  165.48 229.2    -0.31   31.8  223.8      25.0  0.9686   0.0704   -0.008 0.026      0  274823.1875    84.4  0.20000 
1305.200  1304.963  -0.2    -16.543     7.564    18.190  155.4    1.62  164.80 230.6    1.45    31.8  223.8      35.0  0.9672   0.0950   -0.007 0.027      0  274823.1875    84.3  0.20000 
1305.400  1305.163  -0.2    -16.548     7.565    18.195  155.4    1.56  161.84 232.9    2.33    31.8  223.9      25.0  0.9622   0.1343   -0.004 0.027      0  274820.2813    84.3  0.20000 
1305.600  1305.362  -0.2    -16.553     7.567    18.201  155.4    1.56  162.34 234.5    1.54    31.8  223.9      35.0  0.9586   0.1602   -0.004 0.027      0  274826.0625    84.4  0.20000 
1305.800  1305.562  -0.2    -16.558     7.569    18.206  155.4    1.55  163.39 234.7    0.20    31.8  223.9      35.0  0.9571   0.1635   -0.004 0.027      0  274826.0625    84.3  0.20000 
1306.000  1305.762  -0.2    -16.563     7.570    18.211  155.4    1.57  164.48 233.4    -1.34   31.8  223.8      35.0  0.9610   0.1411   -0.005 0.027      0  274824.1250    84.3  0.30000 
1306.200  1305.962  -0.2    -16.569     7.572    18.217  155.4    1.51  164.58 230.8    -2.53   31.8  223.9      30.0  0.9655   0.0984   -0.006 0.026      0  274820.2813    84.3  0.20000 
1306.400  1306.162  -0.2    -16.574     7.573    18.222  155.4    1.60  165.73 227.9    -2.93   31.8  223.8      13.3  0.9682   0.0488   -0.009 0.027      0  274823.1875    84.2  0.20000 
1306.600  1306.362  -0.2    -16.579     7.574    18.227  155.4    1.50  167.09 224.7    -3.21   31.8  223.8      35.0  0.9700   -0.0055  -0.010 0.024      0  274820.3125    84.2  0.20000 
1306.800  1306.562  -0.2    -16.584     7.575    18.233  155.5    1.56  167.05 221.7    -2.97   31.8  223.7      30.0  0.9686   -0.0558  -0.012 0.025      0  274823.1563    84.3  0.20000 
1307.000  1306.762  -0.2    -16.589     7.577    18.238  155.5    1.49  166.47 219.5    -2.25   31.8  223.8      35.0  0.9670   -0.0939  -0.012 0.023      0  274820.2813    84.3  0.20000 
1307.200  1306.962  -0.2    -16.595     7.578    18.243  155.5    1.59  165.75 217.7    -1.79   31.8  223.7      25.0  0.9635   -0.1241  -0.013 0.024      0  274826.0625    84.3  0.20000 
1307.400  1307.162  -0.2    -16.600     7.579    18.248  155.5    1.55  165.35 216.4    -1.22   31.8  223.7      25.0  0.9599   -0.1445  -0.013 0.024      0  274826.0625    84.3  0.20000 
1307.600  1307.362  -0.2    -16.605     7.581    18.254  155.5    1.49  165.52 216.1    -0.35   31.8  223.8      30.0  0.9596   -0.1504  -0.013 0.023      0  274820.2813    84.3  0.20000 
1307.800  1307.562  -0.2    -16.610     7.582    18.259  155.5    1.50  164.55 216.2    0.14    31.8  223.8      40.0  0.9589   -0.1478  -0.012 0.023      0  274824.1250    84.1  0.30000 
1308.000  1307.762  -0.2    -16.615     7.583    18.264  155.5    1.54  164.61 216.6    0.32    31.8  223.7      40.0  0.9587   -0.1424  -0.013 0.024      0  274817.4063    84.2  0.20000 
1308.200  1307.962  -0.2    -16.620     7.585    18.269  155.5    1.46  164.12 217.0    0.40    31.8  223.8      23.3  0.9602   -0.1357  -0.012 0.023      0  274820.2813    84.2  0.20000 
1308.400  1308.161  -0.2    -16.625     7.586    18.274  155.5    1.50  164.77 216.6    -0.37   31.7  223.8      30.0  0.9575   -0.1416  -0.012 0.023      0  274820.2813    84.3  0.20000 
1308.600  1308.361  -0.2    -16.630     7.587    18.279  155.5    1.50  166.59 215.5    -1.10   31.7  223.7       5.0  0.9516   -0.1594  -0.014 0.022      0  274824.1563    84.3  0.30000 
1308.800  1308.561  -0.2    -16.635     7.589    18.284  155.5    1.47  166.86 215.0    -0.52   31.7  223.8      15.0  0.9527   -0.1686  -0.014 0.022      0  274823.1563    84.4  0.20000 
1309.000  1308.761  -0.2    -16.640     7.590    18.290  155.5    1.49  166.50 215.1    0.13    31.7  223.7      20.0  0.9525   -0.1663  -0.014 0.022      0  274820.2500    84.4  0.20000 
1309.200  1308.961  -0.2    -16.645     7.591    18.295  155.5    1.49  165.56 215.4    0.28    31.7  223.8      15.0  0.9535   -0.1618  -0.013 0.022      0  274820.2813    84.3  0.20000 
1309.400  1309.161  -0.2    -16.650     7.592    18.300  155.5    1.49  165.98 215.8    0.44    31.8  223.8      15.0  0.9572   -0.1549  -0.013 0.022      0  274822.2188    84.4  0.30000 
1309.600  1309.361  -0.2    -16.656     7.594    18.305  155.5    1.52  165.98 216.9    1.07    31.8  223.7      25.0  0.9599   -0.1369  -0.013 0.023      0  274820.2813    84.5  0.20000 
1309.800  1309.561  -0.2    -16.661     7.595    18.310  155.5    1.47  165.18 217.9    1.07    31.8  223.8      20.0  0.9642   -0.1193  -0.012 0.023      0  274820.2813    84.4  0.20000 
1310.000  1309.761  -0.2    -16.665     7.596    18.315  155.5    1.45  164.48 218.8    0.89    31.9  223.8      50.0  0.9669   -0.1044  -0.011 0.023      0  274824.1250    84.6  0.30000 
1310.200  1309.961  -0.2    -16.670     7.598    18.320  155.5    1.49  164.35 219.0    0.21    31.9  223.8      20.0  0.9672   -0.1008  -0.011 0.024      0  274826.0625    84.5  0.20000 
1310.400  1310.161  -0.2    -16.675     7.599    18.325  155.5    1.47  165.54 218.7    -0.38   31.8  223.8      30.0  0.9651   -0.1071  -0.012 0.023      0  274826.0625    84.4  0.20000 
1310.600  1310.361  -0.2    -16.681     7.600    18.331  155.5    1.55  165.74 218.2    -0.52   31.9  223.7      40.0  0.9654   -0.1160  -0.013 0.024      0  274824.1250    84.4  0.30000 
1310.800  1310.561  -0.2    -16.686     7.602    18.336  155.5    1.52  165.06 218.3    0.11    31.9  223.7      50.0  0.9657   -0.1141  -0.012 0.024      0  274823.1875    84.4  0.20000 
1311.000  1310.761  -0.2    -16.691     7.603    18.341  155.5    1.51  163.59 218.7    0.43    31.9  223.8      23.3  0.9670   -0.1069  -0.011 0.024      0  274824.1563    84.3  0.30000 
1311.200  1310.961  -0.2    -16.696     7.605    18.346  155.5    1.53  163.43 217.6    -1.06   31.8  223.7      50.0  0.9637   -0.1246  -0.012 0.024      0  274826.0625    84.3  0.20000 
1311.400  1311.161  -0.2    -16.701     7.606    18.351  155.5    1.46  164.51 214.7    -2.93   31.8  223.8      13.3  0.9536   -0.1732  -0.013 0.022      0  274824.1250    84.3  0.30000 
1311.600  1311.360  -0.2    -16.706     7.607    18.357  155.5    1.54  165.22 210.1    -4.58   31.8  223.7      35.0  0.9354   -0.2485  -0.016 0.022      0  274826.0625    84.2  0.30000 
1311.800  1311.560  -0.2    -16.711     7.609    18.362  155.5    1.49  165.95 204.4    -5.77   31.8  223.7      36.7  0.9052   -0.3411  -0.017 0.019      0  274822.2188    84.1  0.30000 
1312.000  1311.760  -0.2    -16.716     7.610    18.367  155.5    1.48  167.94 197.7    -6.66   31.8  223.7      13.3  0.8578   -0.4429  -0.020 0.017      0  274822.1875    84.1  0.30000 
