~Version Information
 VERS.                2.0:  CWLS LOG ASCII STANDARD -VERSION 2.0
 WRAP.                 NO:  ONE LINE PER DEPTH STEP
~WELL INFORMATION BLOCK
#MNEM.UNIT       DATA		            DESCRIPTION OF MNEMONIC
#---------    -------------            ------------------------
 STRT.FT  -3.600                         :START DEPTH
 STOP.FT  1314.400                       :STOP DEPTH
 STEP.FT  0.200                          :STEP  DOWN_HOLE  
 NULL.    -999.25                        :NULL VALUE
 COMP.    USGS                           :COMPANY
 WELL.    USGS 145                                                     :WELL
 FLD .    INL                            :FIELD\LOCATION
 LOC .                                   :LOCATION
 CNTY.    BUTTE                          :COUNTY
 STAT.    IDAHO                          :STATE
 CTRY.    USA                            :COUNTRY
 SRVC.    USGS                           :SERVICE COMPANY
 DATE.    07/16/2018                     :LOG DATE
 API .   CAL. 2017                           :API NUMBER
 LIC .    USGS                           :LICENSE NUMBER
~Curve Information Block
#MNEM.UNIT      API CODE     Curve Description
#---------    -------------  ------------------------
 DEPT     .FT        00 001 00 00          :  1  DEPTH   
 T DEPTH  .FT        00 960 00 00          :  2  TRUE DEPTH          
 D DIFF   .FT        00 000 00 00          :  3  DEPTH DIFFERENCE    
 N DEV    .FT        00 000 00 00          :  4  NORTH DEVIATION     
 E DEV    .FT        00 000 00 00          :  5  EAST DEVIATION      
 DISTANCE .FT        00 000 00 00          :  6  DEVIATED DISTANCE   
 AZIMUTH  .DEG       00 630 00 00          :  7  DEVIATED AZIMUTH    
 SANG     .DEG       00 620 00 00          :  8  SAMPLE SLANT ANGLE  
 SANGB    .DEG       00 631 00 00          :  9  SAMPLE ANG BEARING  
 TOOLFACE .DEG       00 000 00 00          : 10  TOOLFACE            
 DELT TF  .DEG       00 000 00 00          : 11  DELT TF             
 GYRO     .VOLTS     00 000 00 00          : 12  GYRO                
 PAD1-AZ  .DEG       00 632 00 00          : 13  SAMPLE PAD 1 AZIM   
 GAMMA    .CPS       00 310 00 00          : 14  GAMMA RAY           
 COS-GYRO .AMPL      00 000 00 00          : 15  COS-GYRO            
 SIN-GYRO .AMPL      00 000 00 00          : 16  SIN-GYRO            
 XINCL    .AMPL      00 000 00 00          : 17  XINCL               
 YINCL    .AMPL      00 000 00 00          : 18  YINCL               
 CAGE     .VOLTS     00 000 00 00          : 19  CAGE                
 MAG-VECT .AMPL      00 000 00 00          : 20  MAG-VECT            
 TENSION  .CPS       00 000 00 00          : 21  LINE TENSION        
 TIME     .MINUTES   00 000 00 00          : 22  TIME                
~Parameter Information Block
#MNEM.UNIT   Information     Description
#---------- ---------------  ------------------------
 FILE.      PROCESSED          :File Type
 FIID.      9095C              :File Type Identifier
 VERS.      3.60E              :System Version
 SER .      1                  :System Serial Number
 TRUK.      0.25               :Truck Calibration Number
 TOOL.        1203             :Tool Serial Number
 TIME.      1519               :Time    HrHrMinMin
 LAT .                         :Latitude
 LON .                         :Longitude
 LMF .      LSD                :Log Measured From
 DMF .      LSD                :Driller Measured From
 PD  .                         :Permanent Data
 PDEV.                         :Elevation Permanent Data
 EKB .M                        :Elevation Kelly Bushing
 ELEV.DF                       :Elevation DF
 EGL .M                        :Elevation Ground Level
 DRDP.      1368               :Driller's Depth
 CASD.      10.                :Casing Diameter
 CASB.      1328               :Casing Bottom
 CASX.      SURFACE            :Casing Type
 CAST.      .25                :Casing Thickness
 TNOC.                         :Time Circulation Stopped
 LOGU.      USGS               :Logging Unit
 RECB.      MJG                :Recorded By
 OSR1.      0024               :Other Services
 OSR2.       9057              :Other Services
 OSR3.                         :Other Services
 BS  .IN         3.9           :Bit Size
 MST .      SH                 :Mean Surface Temperature
 TGRD.                         :Temperature Gradiant
 MAGN.        12.500           :Magnetic Declination
 MDEN.      2.65               :Density Matrix
 MATR.      SANDSTONE          :Neutron Matrix
 DTMT.      54                 :Delta T Matrix
 DTFL.                         :Delta T Fluid
 MUDS.      FLOW LINE          :Mud Sample Source
 MRS .      .179               :Mud Resistivity
 MTP .      68.5               :Mud Temperature
 MFRS.                         :Resistivity Mud Filtrate
 MFTP.                         :Temperature Mud Filtrate
 MCRS.                         :Resistivity Mud Cake
 MCTP.                         :Temperature Mud Cake
 FTYP.      AIR                :Fluid Type
 FD  .LB/G    NA               :Mud Weight
 DFV .S                        :Fluid Viscosity
 FPH .                         :Fuild PH
 ELCO.      99999              :Electron Cutoff
 CASL.      3.5                :Casing Logger
 LOTD.      1328               :Logger TD
 ARTM.      12:20              :Arrival Time
 DPTM.                         :Departure Time
 RIGN.                         :Rig Number
~Other Information
#MNEM.UNIT  Information      Description
#---------- ---------------  ------------------------
# -------------------------- 
~A DEPTH  T DEPTH   D DIFF N DEV     E DEV     DISTANCE  AZIMUTH SANG   SANGB  TOOLFACE DELT TF GYRO  PAD1-AZ GAMMA    COS-GYRO SIN-GYRO XINCL YINCL CAGE    MAG-VECT TENSION  TIME    
# ...
1217.600  1217.391  -0.2    -14.404     7.000    16.015  154.1    1.26  165.69 142.4    0.50    31.6  224.3      70.0  0.1235   -0.9465  -0.021 -0.005      0  274820.3125    82.9  0.20000 
1217.800  1217.591  -0.2    -14.408     7.001    16.019  154.1    1.23  165.65 142.7    0.29    31.7  224.3     145.0  0.1286   -0.9482  -0.021 -0.005      0  274820.3125    83.0  0.20000 
1218.000  1217.791  -0.2    -14.412     7.002    16.023  154.1    1.22  165.86 142.9    0.13    31.7  224.4     145.0  0.1310   -0.9497  -0.021 -0.005      0  274823.1875    82.9  0.20000 
1218.200  1217.991  -0.2    -14.416     7.003    16.027  154.1    1.26  165.81 142.9    0.05    31.7  224.3     110.0  0.1319   -0.9508  -0.021 -0.005      0  274820.2813    82.9  0.20000 
1218.400  1218.191  -0.2    -14.420     7.004    16.031  154.1    1.23  166.10 142.9    0.00    31.7  224.3     115.0  0.1318   -0.9498  -0.021 -0.005      0  274823.1875    83.0  0.20000 
1218.600  1218.391  -0.2    -14.425     7.005    16.036  154.1    1.25  166.07 142.8    -0.08   31.6  224.3     140.0  0.1298   -0.9451  -0.021 -0.005      0  274820.2813    83.2  0.20000 
1218.800  1218.591  -0.2    -14.429     7.006    16.040  154.1    1.25  165.59 142.8    -0.04   31.5  224.3     100.0  0.1289   -0.9438  -0.021 -0.005      0  274820.2813    83.2  0.20000 
1219.000  1218.791  -0.2    -14.433     7.007    16.044  154.1    1.25  166.06 142.8    0.04    31.6  224.3     135.0  0.1296   -0.9443  -0.021 -0.005      0  274820.2813    83.3  0.20000 
1219.200  1218.990  -0.2    -14.437     7.008    16.049  154.1    1.26  166.30 142.6    -0.21   31.6  224.3     145.0  0.1262   -0.9452  -0.021 -0.005      0  274823.1875    83.3  0.20000 
1219.400  1219.190  -0.2    -14.442     7.009    16.053  154.1    1.26  165.85 142.2    -0.46   31.5  224.3      50.0  0.1187   -0.9457  -0.021 -0.005      0  274823.1875    83.3  0.20000 
1219.600  1219.390  -0.2    -14.446     7.011    16.057  154.1    1.31  165.57 141.9    -0.29   31.5  224.3     115.0  0.1137   -0.9449  -0.022 -0.005      0  274826.0938    83.3  0.10000 
1219.800  1219.590  -0.2    -14.450     7.012    16.062  154.1    1.23  165.91 141.7    -0.13   31.4  224.4     135.0  0.1113   -0.9437  -0.021 -0.005      0  274823.1563    83.2  0.20000 
1220.000  1219.790  -0.2    -14.455     7.013    16.066  154.1    1.26  166.25 141.4    -0.32   31.4  224.4     110.0  0.1060   -0.9429  -0.021 -0.006      0  274820.2813    83.2  0.20000 
1220.200  1219.990  -0.2    -14.459     7.014    16.070  154.1    1.24  165.77 140.8    -0.62   31.4  224.4     120.0  0.0957   -0.9445  -0.021 -0.006      0  274826.0625    83.2  0.20000 
1220.400  1220.190  -0.2    -14.463     7.015    16.074  154.1    1.27  166.02 140.2    -0.61   31.5  224.4     115.0  0.0860   -0.9483  -0.021 -0.006      0  274814.5313    83.3  0.20000 
1220.600  1220.390  -0.2    -14.467     7.016    16.079  154.1    1.23  166.49 139.6    -0.58   31.5  224.4     130.0  0.0765   -0.9502  -0.021 -0.006      0  274820.2813    83.3  0.20000 
1220.800  1220.590  -0.2    -14.471     7.017    16.083  154.1    1.25  166.32 138.8    -0.83   31.6  224.4     180.0  0.0627   -0.9515  -0.021 -0.007      0  274823.1875    83.3  0.20000 
1221.000  1220.790  -0.2    -14.476     7.018    16.087  154.1    1.25  165.85 138.0    -0.82   31.6  224.4     150.0  0.0492   -0.9540  -0.021 -0.007      0  274820.2813    83.3  0.20000 
1221.200  1220.990  -0.2    -14.480     7.019    16.091  154.1    1.24  166.35 137.4    -0.55   31.6  224.4     150.0  0.0401   -0.9541  -0.020 -0.007      0  274820.2813    83.4  0.20000 
1221.400  1221.190  -0.2    -14.484     7.020    16.096  154.1    1.26  166.35 136.7    -0.73   31.6  224.4     100.0  0.0279   -0.9554  -0.021 -0.007      0  274820.2813    83.4  0.20000 
1221.600  1221.390  -0.2    -14.488     7.021    16.100  154.1    1.27  166.15 135.6    -1.10   31.6  224.4      90.0  0.0096   -0.9571  -0.021 -0.008      0  274820.2813    83.3  0.20000 
1221.800  1221.590  -0.2    -14.493     7.022    16.104  154.1    1.25  165.72 134.5    -1.10   31.7  224.5     115.0  -0.0089  -0.9593  -0.020 -0.008      0  274820.2813    83.5  0.20000 
1222.000  1221.790  -0.2    -14.497     7.023    16.108  154.2    1.23  166.19 133.7    -0.76   31.7  224.5     120.0  -0.0216  -0.9603  -0.020 -0.008      0  274814.5313    83.5  0.10000 
1222.200  1221.990  -0.2    -14.501     7.024    16.113  154.2    1.25  166.82 132.9    -0.85   31.8  224.5     125.0  -0.0359  -0.9603  -0.020 -0.009      0  274820.2813    83.4  0.20000 
1222.400  1222.190  -0.2    -14.505     7.025    16.117  154.2    1.24  166.71 131.4    -1.48   31.8  224.5     160.0  -0.0607  -0.9610  -0.020 -0.009      0  274817.4063    83.4  0.20000 
1222.600  1222.390  -0.2    -14.510     7.026    16.121  154.2    1.27  166.85 129.6    -1.83   31.7  224.5     110.0  -0.0912  -0.9569  -0.020 -0.010      0  274820.2813    83.4  0.20000 
1222.800  1222.590  -0.2    -14.514     7.027    16.126  154.2    1.24  166.76 127.3    -2.25   31.8  224.6      65.0  -0.1289  -0.9538  -0.019 -0.011      0  274820.2813    83.3  0.20000 
1223.000  1222.790  -0.2    -14.518     7.028    16.130  154.2    1.25  167.34 124.4    -2.87   31.8  224.6     110.0  -0.1765  -0.9459  -0.018 -0.012      0  274823.1875    83.2  0.20000 
1223.200  1222.990  -0.2    -14.522     7.029    16.134  154.2    1.25  167.40 120.7    -3.69   31.8  224.7     135.0  -0.2373  -0.9335  -0.018 -0.013      0  274823.1875    83.2  0.20000 
1223.400  1223.189  -0.2    -14.527     7.030    16.138  154.2    1.26  167.62 116.0    -4.73   31.8  224.7     115.0  -0.3129  -0.9093  -0.016 -0.015      0  274820.2813    83.1  0.20000 
1223.600  1223.389  -0.2    -14.531     7.031    16.143  154.2    1.29  167.39 110.3    -5.71   31.8  224.8     100.0  -0.4017  -0.8737  -0.015 -0.016      0  274823.1875    83.1  0.20000 
1223.800  1223.589  -0.2    -14.535     7.032    16.147  154.2    1.26  168.76 103.8    -6.48   31.8  224.9     135.0  -0.4984  -0.8239  -0.013 -0.018      0  274823.1875    83.1  0.20000 
1224.000  1223.789  -0.2    -14.540     7.033    16.151  154.2    1.32  168.90 96.2     -7.60   31.8  225.1      90.0  -0.6026  -0.7502  -0.011 -0.020      0  274820.2813    83.1  0.20000 
1224.200  1223.989  -0.2    -14.544     7.034    16.156  154.2    1.27  168.19 87.3     -8.91   31.8  225.2     100.0  -0.7126  -0.6488  -0.007 -0.021      0  274826.0625    83.1  0.20000 
1224.400  1224.189  -0.2    -14.549     7.035    16.160  154.2    1.37  168.34 79.6     -7.68   31.8  225.3     130.0  -0.7950  -0.5491  -0.005 -0.024      0  274820.2813    83.1  0.10000 
1224.600  1224.389  -0.2    -14.554     7.036    16.165  154.2    1.38  168.55 70.7     -8.89   31.8  225.4     110.0  -0.8707  -0.4199  -0.001 -0.024      0  274820.2813    83.1  0.20000 
1224.800  1224.589  -0.2    -14.558     7.036    16.170  154.2    1.39  168.76 57.8     -12.92  31.7  225.6     140.0  -0.9445  -0.2150  0.005 -0.024      0  274820.2813    83.1  0.20000 
1225.000  1224.789  -0.2    -14.563     7.038    16.175  154.2    1.44  166.98 44.2     -13.63  31.8  225.7     110.0  -0.9696  0.0137   0.010 -0.023      0  274823.1875    83.2  0.20000 
1225.200  1224.989  -0.2    -14.568     7.039    16.179  154.2    1.39  167.97 29.2     -15.02  31.8  225.7     115.0  -0.9318  0.2641   0.015 -0.019      0  274820.2813    83.3  0.20000 
1225.400  1225.189  -0.2    -14.573     7.040    16.184  154.2    1.51  169.77 12.3     -16.84  31.8  225.8     135.0  -0.8127  0.5211   0.022 -0.014      0  274820.2813    83.4  0.20000 
1225.600  1225.389  -0.2    -14.578     7.041    16.189  154.2    1.43  168.16 354.3    341.94  31.7  225.7      65.0  -0.6086  0.7442   0.024 -0.007      0  274817.4063    83.4  0.20000 
1225.800  1225.589  -0.2    -14.583     7.042    16.194  154.2    1.50  169.59 336.2    -18.08  31.8  225.5     150.0  -0.3485  0.8988   0.026 0.002      0  274820.2813    83.5  0.20000 
1226.000  1225.789  -0.2    -14.588     7.043    16.199  154.2    1.48  167.58 319.7    -16.50  31.8  225.3     140.0  -0.0791  0.9628   0.025 0.008      0  274820.2813    83.5  0.20000 
