~Version Information
 VERS.                2.0:  CWLS LOG ASCII STANDARD -VERSION 2.0
 WRAP.                 NO:  ONE LINE PER DEPTH STEP
~WELL INFORMATION BLOCK
#MNEM.UNIT       DATA		            DESCRIPTION OF MNEMONIC
#---------    -------------            ------------------------
 STRT.FT  -3.600                         :START DEPTH
 STOP.FT  1314.400                       :STOP DEPTH
 STEP.FT  0.200                          :STEP  DOWN_HOLE  
 NULL.    -999.25                        :NULL VALUE
 COMP.    USGS                           :COMPANY
 WELL.    USGS 145                                                     :WELL
 FLD .    INL                            :FIELD\LOCATION
 LOC .                                   :LOCATION
 CNTY.    BUTTE                          :COUNTY
 STAT.    IDAHO                          :STATE
 CTRY.    USA                            :COUNTRY
 SRVC.    USGS                           :SERVICE COMPANY
 DATE.    07/16/2018                     :LOG DATE
 API .   CAL. 2017                           :API NUMBER
 LIC .    USGS                           :LICENSE NUMBER
~Curve Information Block
#MNEM.UNIT      API CODE     Curve Description
#---------    -------------  ------------------------
 DEPT     .FT        00 001 00 00          :  1  DEPTH   
 T DEPTH  .FT        00 960 00 00          :  2  TRUE DEPTH          
 D DIFF   .FT        00 000 00 00          :  3  DEPTH DIFFERENCE    
 N DEV    .FT        00 000 00 00          :  4  NORTH DEVIATION     
 E DEV    .FT        00 000 00 00          :  5  EAST DEVIATION      
 DISTANCE .FT        00 000 00 00          :  6  DEVIATED DISTANCE   
 AZIMUTH  .DEG       00 630 00 00          :  7  DEVIATED AZIMUTH    
 SANG     .DEG       00 620 00 00          :  8  SAMPLE SLANT ANGLE  
 SANGB    .DEG       00 631 00 00          :  9  SAMPLE ANG BEARING  
 TOOLFACE .DEG       00 000 00 00          : 10  TOOLFACE            
 DELT TF  .DEG       00 000 00 00          : 11  DELT TF             
 GYRO     .VOLTS     00 000 00 00          : 12  GYRO                
 PAD1-AZ  .DEG       00 632 00 00          : 13  SAMPLE PAD 1 AZIM   
 GAMMA    .CPS       00 310 00 00          : 14  GAMMA RAY           
 COS-GYRO .AMPL      00 000 00 00          : 15  COS-GYRO            
 SIN-GYRO .AMPL      00 000 00 00          : 16  SIN-GYRO            
 XINCL    .AMPL      00 000 00 00          : 17  XINCL               
 YINCL    .AMPL      00 000 00 00          : 18  YINCL               
 CAGE     .VOLTS     00 000 00 00          : 19  CAGE                
 MAG-VECT .AMPL      00 000 00 00          : 20  MAG-VECT            
 TENSION  .CPS       00 000 00 00          : 21  LINE TENSION        
 TIME     .MINUTES   00 000 00 00          : 22  TIME                
~Parameter Information Block
#MNEM.UNIT   Information     Description
#---------- ---------------  ------------------------
 FILE.      PROCESSED          :File Type
 FIID.      9095C              :File Type Identifier
 VERS.      3.60E              :System Version
 SER .      1                  :System Serial Number
 TRUK.      0.25               :Truck Calibration Number
 TOOL.        1203             :Tool Serial Number
 TIME.      1519               :Time    HrHrMinMin
 LAT .                         :Latitude
 LON .                         :Longitude
 LMF .      LSD                :Log Measured From
 DMF .      LSD                :Driller Measured From
 PD  .                         :Permanent Data
 PDEV.                         :Elevation Permanent Data
 EKB .M                        :Elevation Kelly Bushing
 ELEV.DF                       :Elevation DF
 EGL .M                        :Elevation Ground Level
 DRDP.      1368               :Driller's Depth
 CASD.      10.                :Casing Diameter
 CASB.      1328               :Casing Bottom
 CASX.      SURFACE            :Casing Type
 CAST.      .25                :Casing Thickness
 TNOC.                         :Time Circulation Stopped
 LOGU.      USGS               :Logging Unit
 RECB.      MJG                :Recorded By
 OSR1.      0024               :Other Services
 OSR2.       9057              :Other Services
 OSR3.                         :Other Services
 BS  .IN         3.9           :Bit Size
 MST .      SH                 :Mean Surface Temperature
 TGRD.                         :Temperature Gradiant
 MAGN.        12.500           :Magnetic Declination
 MDEN.      2.65               :Density Matrix
 MATR.      SANDSTONE          :Neutron Matrix
 DTMT.      54                 :Delta T Matrix
 DTFL.                         :Delta T Fluid
 MUDS.      FLOW LINE          :Mud Sample Source
 MRS .      .179               :Mud Resistivity
 MTP .      68.5               :Mud Temperature
 MFRS.                         :Resistivity Mud Filtrate
 MFTP.                         :Temperature Mud Filtrate
 MCRS.                         :Resistivity Mud Cake
 MCTP.                         :Temperature Mud Cake
 FTYP.      AIR                :Fluid Type
 FD  .LB/G    NA               :Mud Weight
 DFV .S                        :Fluid Viscosity
 FPH .                         :Fuild PH
 ELCO.      99999              :Electron Cutoff
 CASL.      3.5                :Casing Logger
 LOTD.      1328               :Logger TD
 ARTM.      12:20              :Arrival Time
 DPTM.                         :Departure Time
 RIGN.                         :Rig Number
~Other Information
#MNEM.UNIT  Information      Description
#---------- ---------------  ------------------------
# -------------------------- 
~A DEPTH  T DEPTH   D DIFF N DEV     E DEV     DISTANCE  AZIMUTH SANG   SANGB  TOOLFACE DELT TF GYRO  PAD1-AZ GAMMA    COS-GYRO SIN-GYRO XINCL YINCL CAGE    MAG-VECT TENSION  TIME    
# ...
  82.400    82.399  -0.0      0.239     0.164     0.290  34.4     0.23   9.21  84.2     0.25    31.4  224.7      60.0  -0.7331  -0.5989  -0.000 0.004      0  274854.9688    79.2  0.10000 
  82.600    82.599  -0.0      0.240     0.164     0.291  34.3     0.20   8.44  84.2     -0.02   31.5  224.7      20.0  -0.7342  -0.5995  -0.000 0.004      0  274843.4063    79.2  0.20000 
  82.800    82.799  -0.0      0.241     0.164     0.291  34.3     0.29  11.59  84.2     -0.05   31.5  224.6      50.0  -0.7361  -0.5999  -0.001 0.005      0  274849.1563    79.1  0.10000 
  83.000    82.999  -0.0      0.242     0.164     0.292  34.2     0.26  18.55  84.4     0.18    31.6  224.6      65.0  -0.7359  -0.6035  -0.001 0.004      0  274846.2813    79.0  0.20000 
  83.200    83.199  -0.0      0.243     0.165     0.293  34.1     0.30  13.14  85.2     0.83    31.5  224.6      20.0  -0.7265  -0.6137  -0.001 0.005      0  274843.4063    79.0  0.20000 
  83.400    83.399  -0.0      0.243     0.165     0.294  34.1     0.15  16.10  86.2     1.06    31.5  224.7      60.0  -0.7139  -0.6260  -0.000 0.003      0  274843.4063    79.0  0.10000 
  83.600    83.599  -0.0      0.245     0.165     0.295  34.0     0.36  12.03  87.6     1.39    31.5  224.6     110.0  -0.6980  -0.6428  -0.000 0.006      0  274849.1875    79.2  0.20000 
  83.800    83.799  -0.0      0.245     0.165     0.296  33.9     0.23   8.03  89.2     1.54    31.5  224.7      70.0  -0.6797  -0.6606  0.000 0.004      0  274843.4063    79.2  0.10000 
  84.000    83.999  -0.0      0.246     0.165     0.297  33.9     0.29   8.09  90.9     1.73    31.4  224.7      35.0  -0.6589  -0.6803  0.000 0.005      0  274846.2813    79.3  0.20000 
  84.200    84.199  -0.0      0.247     0.165     0.298  33.7     0.33   4.07  92.8     1.92    31.3  224.7     120.0  -0.6334  -0.6993  0.001 0.006      0  274843.4063    79.3  0.10000 
  84.400    84.399  -0.0      0.248     0.165     0.298  33.7     0.26   0.65  94.9     2.11    31.4  224.7      70.0  -0.6079  -0.7230  0.001 0.004      0  274846.2813    79.3  0.20000 
  84.600    84.599  -0.0      0.250     0.165     0.300  33.5     0.38   5.75  98.1     3.16    31.5  224.6      40.0  -0.5689  -0.7577  0.002 0.006      0  274846.3125    79.4  0.20000 
  84.800    84.799  -0.0      0.251     0.165     0.300  33.4     0.29  354.23 101.0    2.91    31.5  224.7      25.0  -0.5302  -0.7863  0.002 0.004      0  274849.1563    79.4  0.10000 
  85.000    84.999  -0.0      0.252     0.165     0.301  33.3     0.37   3.92  104.5    3.46    31.6  224.7      60.0  -0.4827  -0.8183  0.002 0.006      0  274846.2813    79.3  0.20000 
  85.200    85.199  -0.0      0.253     0.166     0.302  33.2     0.30   5.86  108.5    4.02    31.6  224.7      30.0  -0.4242  -0.8502  0.002 0.005      0  274843.4063    79.2  0.10000 
  85.400    85.399  -0.0      0.254     0.166     0.304  33.1     0.37   7.64  113.2    4.71    31.6  224.7      75.0  -0.3529  -0.8819  0.003 0.006      0  274846.2813    79.2  0.20000 
  85.600    85.599  -0.0      0.256     0.166     0.305  33.0     0.35   4.30  120.1    6.90    31.5  224.8      70.0  -0.2437  -0.9156  0.004 0.005      0  274846.2813    79.2  0.20000 
  85.800    85.799  -0.0      0.256     0.166     0.305  32.9     0.27  358.23 125.5    5.41    31.6  224.8      35.0  -0.1568  -0.9372  0.004 0.003      0  274843.4063    79.2  0.10000 
  86.000    85.999  -0.0      0.258     0.166     0.306  32.8     0.36   2.78  130.9    5.43    31.5  224.8      20.0  -0.0671  -0.9436  0.005 0.004      0  274843.4063    79.3  0.20000 
  86.200    86.199  -0.0      0.259     0.166     0.308  32.6     0.47   2.26  136.2    5.27    31.5  224.8      40.0  0.0199   -0.9470  0.007 0.005      0  274849.1563    79.3  0.10000 
  86.400    86.399  -0.0      0.261     0.166     0.309  32.5     0.45  358.54 141.3    5.06    31.5  224.9      45.0  0.1032   -0.9400  0.007 0.003      0  274843.4063    79.5  0.20000 
  86.600    86.599  -0.0      0.261     0.166     0.309  32.4     0.11  316.70 146.1    4.86    31.5  224.9    -999.3  0.1821   -0.9263  0.002 -0.001      0  274849.1563    79.4  0.10000 
  86.800    86.799  -0.0      0.263     0.166     0.310  32.2     0.40  358.85 150.7    4.57    31.5  224.9      70.0  0.2554   -0.9092  0.007 0.002      0  274846.2813    79.4  0.20000 
  87.000    86.999  -0.0      0.264     0.165     0.312  32.1     0.44  356.15 156.4    5.73    31.4  225.0      50.0  0.3434   -0.8755  0.008 0.001      0  274846.2813    79.4  0.20000 
  87.200    87.199  -0.0      0.266     0.165     0.313  31.9     0.51  359.40 160.3    3.92    31.4  225.0      50.0  0.4030   -0.8510  0.009 0.001      0  274849.1563    79.4  0.10000 
  87.400    87.399  -0.0      0.268     0.165     0.315  31.7     0.48  355.81 163.9    3.57    31.4  225.0      35.0  0.4547   -0.8234  0.008 0.000      0  274846.3125    79.4  0.20000 
  87.600    87.599  -0.0      0.269     0.165     0.316  31.5     0.49  356.37 167.3    3.35    31.4  225.0      40.0  0.5016   -0.7948  0.009 -0.000      0  274849.1563    79.4  0.10000 
  87.800    87.799  -0.0      0.271     0.165     0.317  31.4     0.47  357.25 170.3    3.00    31.4  225.0      60.0  0.5433   -0.7685  0.008 -0.001      0  274846.2813    79.4  0.20000 
  88.000    87.999  -0.0      0.272     0.165     0.318  31.2     0.41  358.14 173.0    2.71    31.4  225.0      60.0  0.5794   -0.7425  0.007 -0.001      0  274849.1563    79.4  0.10000 
  88.200    88.199  -0.0      0.274     0.165     0.320  31.1     0.48  358.63 175.3    2.34    31.5  225.1       5.0  0.6107   -0.7200  0.008 -0.001      0  274843.4063    79.3  0.20000 
  88.400    88.399  -0.0      0.276     0.165     0.321  30.9     0.50  356.86 178.0    2.66    31.5  225.1      20.0  0.6439   -0.6913  0.008 -0.002      0  274849.1563    79.2  0.20000 
  88.600    88.599  -0.0      0.277     0.165     0.322  30.7     0.43  352.77 179.4    1.45    31.5  225.1      70.0  0.6619   -0.6755  0.007 -0.002      0  274843.4063    79.2  0.10000 
  88.800    88.799  -0.0      0.279     0.165     0.324  30.6     0.44  355.73 180.2    0.81    31.4  225.1      15.0  0.6682   -0.6629  0.007 -0.002      0  274849.1875    79.2  0.20000 
  89.000    88.999  -0.0      0.281     0.165     0.326  30.4     0.60   0.35  180.7    0.50    31.3  225.1      60.0  0.6729   -0.6559  0.010 -0.002      0  274843.4063    79.2  0.10000 
  89.200    89.199  -0.0      0.282     0.165     0.326  30.3     0.29  352.75 181.2    0.45    31.3  225.0      30.0  0.6776   -0.6502  0.005 -0.002      0  274846.2813    79.2  0.20000 
  89.400    89.399  -0.0      0.283     0.164     0.327  30.2     0.28  353.41 181.6    0.46    31.3  225.0      30.0  0.6825   -0.6445  0.005 -0.002      0  274843.4063    79.3  0.10000 
  89.600    89.599  -0.0      0.284     0.164     0.328  30.0     0.43  357.95 182.2    0.60    31.3  225.1      40.0  0.6899   -0.6380  0.007 -0.002      0  274852.0625    79.3  0.20000 
  89.800    89.799  -0.0      0.286     0.164     0.330  29.9     0.39   1.11  183.5    1.23    31.5  225.0      10.0  0.7066   -0.6259  0.007 -0.002      0  274852.0625    79.3  0.20000 
  90.000    89.999  -0.0      0.287     0.164     0.331  29.8     0.36   1.48  184.9    1.46    31.5  225.0      30.0  0.7242   -0.6093  0.006 -0.002      0  274843.4063    79.4  0.10000 
  90.200    90.199  -0.0      0.288     0.165     0.332  29.7     0.40   2.72  186.9    1.94    31.6  225.0      80.0  0.7458   -0.5856  0.007 -0.002      0  274849.1563    79.3  0.20000 
  90.400    90.399  -0.0      0.290     0.165     0.333  29.6     0.41  359.14 189.0    2.12    31.6  225.1      70.0  0.7691   -0.5591  0.007 -0.003      0  274843.4063    79.3  0.10000 
  90.600    90.599  -0.0      0.291     0.165     0.334  29.5     0.40   0.27  191.3    2.30    31.6  225.0      70.0  0.7906   -0.5277  0.006 -0.003      0  274849.1563    79.2  0.20000 
  90.800    90.799  -0.0      0.293     0.164     0.336  29.3     0.45  355.91 194.1    2.87    31.6  225.1      50.0  0.8170   -0.4881  0.007 -0.004      0  274846.2813    79.2  0.20000 
